rosbagTimestamp,header,seq,stamp,secs,nsecs,frame_id,Temperature,OutputCurrent,BusVoltage,ClosedLoopError
1614970970725253105,,145932,,1614898943,388792461,"""0""",12.0,0.0,12.3999996185,0.0
1614970970784035921,,145933,,1614898943,438781472,"""0""",12.0,0.0,12.3999996185,0.0
1614970970827526092,,145934,,1614898943,488771836,"""0""",12.0,0.0,12.3999996185,0.0
1614970970889487028,,145935,,1614898943,538778138,"""0""",12.0,0.0,12.3999996185,0.0
1614970970931123971,,145936,,1614898943,590695013,"""0""",12.0,0.0,12.3999996185,0.0
1614970970988857030,,145937,,1614898943,638781784,"""0""",12.0,0.0,12.3999996185,0.0
1614970971032512903,,145938,,1614898943,688960065,"""0""",12.0,0.0,12.3999996185,0.0
1614970971090198993,,145939,,1614898943,738768190,"""0""",12.0,0.0,12.3999996185,0.0
1614970971131808042,,145940,,1614898943,788778815,"""0""",12.0,0.0,12.3999996185,0.0
1614970971191220045,,145941,,1614898943,838770013,"""0""",12.0,0.0,12.3999996185,0.0
1614970971232158899,,145942,,1614898943,888812669,"""0""",12.0,0.0,12.3999996185,0.0
1614970971281763076,,145943,,1614898943,938768763,"""0""",12.0,0.0,12.3999996185,0.0
1614970971342324972,,145944,,1614898943,988808347,"""0""",12.0,0.0,12.3999996185,0.0
1614970971381999969,,145945,,1614898944,38804180,"""0""",12.0,0.0,12.3999996185,0.0
1614970971434112071,,145946,,1614898944,88861680,"""0""",12.0,0.0,12.3999996185,0.0
1614970971483510017,,145947,,1614898944,138809596,"""0""",12.0,0.0,12.3999996185,0.0
1614970971534610986,,145948,,1614898944,188843867,"""0""",12.0,0.0,12.3999996185,0.0
1614970971585608005,,145949,,1614898944,238784180,"""0""",12.0,0.0,12.3999996185,0.0
1614970971630167007,,145950,,1614898944,288778086,"""0""",12.0,0.0,12.3999996185,0.0
1614970971690455913,,145951,,1614898944,338730898,"""0""",12.0,0.0,12.3999996185,0.0
1614970971739363908,,145952,,1614898944,389182565,"""0""",12.0,0.0,12.3999996185,0.0
1614970971779627084,,145953,,1614898944,438890586,"""0""",12.0,0.0,12.3999996185,0.0
1614970971834481000,,145954,,1614898944,488780898,"""0""",12.0,0.0,12.3999996185,0.0
1614970971886915922,,145955,,1614898944,538757878,"""0""",12.0,0.0,12.3999996185,0.0
1614970971937083005,,145956,,1614898944,589249753,"""0""",12.0,0.0,12.3999996185,0.0
1614970971990782976,,145957,,1614898944,638872669,"""0""",12.0,0.0,12.3999996185,0.0
1614970972033730030,,145958,,1614898944,688772617,"""0""",12.0,0.0,12.3999996185,0.0
1614970972092245101,,145959,,1614898944,738782930,"""0""",12.0,0.0,12.3999996185,0.0
1614970972151892900,,145960,,1614898944,788776263,"""0""",12.0,0.0,12.3999996185,0.0
1614970972196100950,,145961,,1614898944,839034127,"""0""",12.0,0.0,12.3999996185,0.0
1614970972232392072,,145962,,1614898944,888889596,"""0""",12.0,0.0,12.3999996185,0.0
1614970972287255048,,145963,,1614898944,938784596,"""0""",12.0,0.0,12.3999996185,0.0
1614970972332475900,,145964,,1614898944,989001679,"""0""",12.0,0.0,12.3999996185,0.0
1614970972394687891,,145965,,1614898945,38828971,"""0""",12.0,0.0,12.3999996185,0.0
1614970972432698965,,145966,,1614898945,88833815,"""0""",12.0,0.0,12.3999996185,0.0
1614970972492909908,,145967,,1614898945,138838919,"""0""",12.0,0.0,12.3999996185,0.0
1614970972532943010,,145968,,1614898945,188819179,"""0""",12.0,0.0,12.3999996185,0.0
1614970972593166112,,145969,,1614898945,238792044,"""0""",12.0,0.0,12.3999996185,0.0
1614970972636087894,,145970,,1614898945,288778086,"""0""",12.0,0.0,12.3999996185,0.0
1614970972690778017,,145971,,1614898945,338776836,"""0""",12.0,0.0,12.3999996185,0.0
1614970972741853952,,145972,,1614898945,388832461,"""0""",12.0,0.0,12.3999996185,0.0
1614970972794480085,,145973,,1614898945,438787565,"""0""",12.0,0.0,12.3999996185,0.0
1614970972838154077,,145974,,1614898945,488774336,"""0""",12.0,0.0,12.3999996185,0.0
1614970972894222974,,145975,,1614898945,538782513,"""0""",12.0,0.0,12.3999996185,0.0
1614970972936325073,,145976,,1614898945,588767356,"""0""",12.0,0.0,12.3999996185,0.0
1614970972997966051,,145977,,1614898945,638848502,"""0""",12.0,0.0,12.3999996185,0.0
1614970973048693895,,145978,,1614898945,688754388,"""0""",12.0,0.0,12.3999996185,0.0
1614970973088505983,,145979,,1614898945,738868398,"""0""",12.0,0.0,12.3999996185,0.0
1614970973138014078,,145980,,1614898945,788846263,"""0""",12.0,0.0,12.3999996185,0.0
1614970973194397926,,145981,,1614898945,838825325,"""0""",12.0,0.0,12.3999996185,0.0
1614970973236192941,,145982,,1614898945,888912148,"""0""",12.0,0.0,12.3999996185,0.0
1614970973310139894,,145983,,1614898945,938784127,"""0""",12.0,0.0,12.3999996185,0.0
1614970973338816881,,145984,,1614898945,988766106,"""0""",12.0,0.0,12.3999996185,0.0
1614970973394260883,,145985,,1614898946,38782096,"""0""",12.0,0.0,12.3999996185,0.0
1614970973438991069,,145986,,1614898946,88775950,"""0""",12.0,0.0,12.3999996185,0.0
1614970973494414091,,145987,,1614898946,139024648,"""0""",12.0,0.0,12.3999996185,0.0
1614970973555409908,,145988,,1614898946,189181106,"""0""",12.0,0.0,12.3999996185,0.0
1614970973642544031,,145989,,1614898946,238786210,"""0""",12.0,0.0,12.3999996185,0.0
1614970973672919988,,145990,,1614898946,288801523,"""0""",12.0,0.0,12.3999996185,0.0
1614970973718017101,,145991,,1614898946,338762981,"""0""",12.0,0.0,12.3999996185,0.0
1614970973747447013,,145992,,1614898946,388941835,"""0""",12.0,0.0,12.3999996185,0.0
1614970973797708034,,145993,,1614898946,438792981,"""0""",12.0,0.0,12.3999996185,0.0
1614970973839740991,,145994,,1614898946,488988866,"""0""",12.0,0.0,12.3999996185,0.0
1614970973919053077,,145995,,1614898946,538750898,"""0""",12.0,0.0,12.3999996185,0.0
1614970973940639972,,145996,,1614898946,588820533,"""0""",12.0,0.0,12.3999996185,0.0
1614970973994605064,,145997,,1614898946,639322148,"""0""",12.0,0.0,12.3999996185,0.0
1614970974042536973,,145998,,1614898946,688771054,"""0""",12.0,0.0,12.3999996185,0.0
1614970974094084978,,145999,,1614898946,738780377,"""0""",12.0,0.0,12.3999996185,0.0
1614970974136049985,,146000,,1614898946,788783918,"""0""",12.0,0.0,12.3999996185,0.0
1614970974205432891,,146001,,1614898946,838791470,"""0""",12.0,0.0,12.3999996185,0.0
1614970974281953096,,146002,,1614898946,888821314,"""0""",12.0,0.0,12.3999996185,0.0
1614970974282067060,,146003,,1614898946,938831522,"""0""",12.0,0.0,12.3999996185,0.0
1614970974333630084,,146004,,1614898946,988777512,"""0""",12.0,0.0,12.3999996185,0.0
1614970974393966913,,146005,,1614898947,38779387,"""0""",12.0,0.0,12.3999996185,0.0
1614970974444971084,,146006,,1614898947,88785950,"""0""",12.0,0.0,12.3999996185,0.0
1614970974513818979,,146007,,1614898947,138833606,"""0""",12.0,0.0,12.3999996185,0.0
1614970974565695047,,146008,,1614898947,188769127,"""0""",12.0,0.0,12.3999996185,0.0
1614970974593672037,,146009,,1614898947,238776991,"""0""",12.0,0.0,12.3999996185,0.0
1614970974643002033,,146010,,1614898947,288778189,"""0""",12.0,0.0,12.3999996185,0.0
1614970974692953109,,146011,,1614898947,338775845,"""0""",12.0,0.0,12.3999996185,0.0
1614970974740057945,,146012,,1614898947,388774647,"""0""",12.0,0.0,12.3999996185,0.0
1614970974797319889,,146013,,1614898947,438795168,"""0""",12.0,0.0,12.3999996185,0.0
1614970974846991062,,146014,,1614898947,488769699,"""0""",12.0,0.0,12.3999996185,0.0
1614970974889627933,,146015,,1614898947,538829074,"""0""",12.0,0.0,12.3999996185,0.0
1614970974946336984,,146016,,1614898947,588925533,"""0""",12.0,0.0,12.3999996185,0.0
1614970974993719100,,146017,,1614898947,638802251,"""0""",12.0,0.0,12.3999996185,0.0
1614970975039140939,,146018,,1614898947,688772251,"""0""",12.0,0.0,12.3999996185,0.0
1614970975088731050,,146019,,1614898947,738868970,"""0""",12.0,0.0,12.3999996185,0.0
1614970975133074045,,146020,,1614898947,788785637,"""0""",12.0,0.0,12.3999996185,0.0
1614970975193006038,,146021,,1614898947,838838501,"""0""",12.0,0.0,12.3999996185,0.0
1614970975238832950,,146022,,1614898947,888803501,"""0""",12.0,0.0,12.3999996185,0.0
1614970975292718887,,146023,,1614898947,938767460,"""0""",12.0,0.0,12.3999996185,0.0
1614970975337105035,,146024,,1614898947,988873605,"""0""",12.0,0.0,12.3999996185,0.0
1614970975408155918,,146025,,1614898948,38821574,"""0""",12.0,0.0,12.3999996185,0.0
1614970975437231063,,146026,,1614898948,88783137,"""0""",12.0,0.0,12.3999996185,0.0
1614970975501811981,,146027,,1614898948,138784074,"""0""",12.0,0.0,12.3999996185,0.0
1614970975557806968,,146028,,1614898948,188942512,"""0""",12.0,0.0,12.3999996185,0.0
1614970975591350078,,146029,,1614898948,238801730,"""0""",12.0,0.0,12.3999996185,0.0
1614970975631556034,,146030,,1614898948,288779022,"""0""",12.0,0.0,12.3999996185,0.0
1614970975711925029,,146031,,1614898948,338743918,"""0""",12.0,0.0,12.3999996185,0.0
1614970975744801044,,146032,,1614898948,388772616,"""0""",12.0,0.0,12.3999996185,0.0
1614970975797183036,,146033,,1614898948,438781001,"""0""",12.0,0.0,12.3999996185,0.0
1614970975838995933,,146034,,1614898948,488870741,"""0""",12.0,0.0,12.3999996185,0.0
1614970975892951965,,146035,,1614898948,538733814,"""0""",12.0,0.0,12.3999996185,0.0
1614970975937755107,,146036,,1614898948,588771991,"""0""",12.0,0.0,12.3999996185,0.0
1614970976018244981,,146037,,1614898948,638782043,"""0""",12.0,0.0,12.3999996185,0.0
1614970976035135984,,146038,,1614898948,688759595,"""0""",12.0,0.0,12.3999996185,0.0
1614970976089773893,,146039,,1614898948,738763866,"""0""",12.0,0.0,12.3999996185,0.0
1614970976132126092,,146040,,1614898948,788777928,"""0""",12.0,0.0,12.3999996185,0.0
1614970976192466974,,146041,,1614898948,838797199,"""0""",12.0,0.0,12.3999996185,0.0
1614970976236393928,,146042,,1614898948,888838084,"""0""",12.0,0.0,12.3999996185,0.0
1614970976298398017,,146043,,1614898948,938776365,"""0""",12.0,0.0,12.3999996185,0.0
1614970976335835933,,146044,,1614898948,988956938,"""0""",12.0,0.0,12.3999996185,0.0
1614970976392405986,,146045,,1614898949,38848605,"""0""",12.0,0.0,12.3999996185,0.0
1614970976438728094,,146046,,1614898949,88792251,"""0""",12.0,0.0,12.3999996185,0.0
1614970976497322082,,146047,,1614898949,138760532,"""0""",12.0,0.0,12.3999996185,0.0
1614970976541183948,,146048,,1614898949,188777980,"""0""",12.0,0.0,12.3999996185,0.0
1614970976593234062,,146049,,1614898949,238758553,"""0""",12.0,0.0,12.3999996185,0.0
1614970976636140108,,146050,,1614898949,288772615,"""0""",12.0,4.625,12.3999996185,0.0
1614970976698822975,,146051,,1614898949,339103032,"""0""",12.0,3.75,12.3999996185,0.0
1614970976741787910,,146052,,1614898949,388856053,"""0""",12.0,4.125,12.1499996185,0.0
1614970976794248104,,146053,,1614898949,438847667,"""0""",12.0,4.5,12.1499996185,0.0
1614970976836421966,,146054,,1614898949,488801417,"""0""",12.0,4.75,12.1499996185,0.0
1614970976906918048,,146055,,1614898949,538813449,"""0""",12.0,5.5,12.0,0.0
1614970976942755937,,146056,,1614898949,588779907,"""0""",12.0,4.625,12.0,0.0
1614970976996248006,,146057,,1614898949,638774438,"""0""",12.0,4.25,12.0,0.0
1614970977040632009,,146058,,1614898949,688781886,"""0""",12.0,4.375,12.0,0.0
1614970977097948074,,146059,,1614898949,738795428,"""0""",12.0,4.25,12.0500001907,0.0
1614970977140157938,,146060,,1614898949,788775219,"""0""",12.0,2.0,12.0500001907,0.0
1614970977189063072,,146061,,1614898949,838783292,"""0""",12.0,1.0,12.0500001907,0.0
1614970977235733032,,146062,,1614898949,889004646,"""0""",12.0,0.625,12.3000001907,0.0
1614970977286056041,,146063,,1614898949,938788292,"""0""",12.0,1.0,12.3000001907,0.0
1614970977342271089,,146064,,1614898949,988817042,"""0""",12.0,0.625,12.3000001907,0.0
1614970977394772052,,146065,,1614898950,38776417,"""0""",12.0,0.375,12.3000001907,0.0
1614970977435276985,,146066,,1614898950,88777146,"""0""",12.0,0.375,12.3000001907,0.0
1614970977508071899,,146067,,1614898950,138773969,"""0""",12.0,0.375,12.3000001907,0.0
1614970977543795108,,146068,,1614898950,188759177,"""0""",12.0,1.75,12.3000001907,0.0
1614970977599994897,,146069,,1614898950,238823969,"""0""",12.0,3.0,12.3000001907,0.0
1614970977660855054,,146070,,1614898950,288767459,"""0""",12.0,1.0,12.3000001907,0.0
1614970977685306072,,146071,,1614898950,338771000,"""0""",12.0,1.0,12.25,0.0
1614970977752562999,,146072,,1614898950,388780636,"""0""",12.0,1.375,12.25,0.0
1614970977800057888,,146073,,1614898950,438782615,"""0""",12.0,2.375,12.25,0.0
1614970977856508970,,146074,,1614898950,488785479,"""0""",12.0,1.375,12.25,0.0
1614970977894504070,,146075,,1614898950,538796834,"""0""",12.0,3.375,12.25,0.0
1614970977944591999,,146076,,1614898950,589074959,"""0""",12.0,3.875,12.25,0.0
1614970977993640899,,146077,,1614898950,638778031,"""0""",12.0,2.375,12.25,0.0
1614970978043437004,,146078,,1614898950,688786521,"""0""",12.0,1.375,12.25,0.0
1614970978116611957,,146079,,1614898950,738781313,"""0""",12.0,1.75,12.25,0.0
1614970978160275936,,146080,,1614898950,788794125,"""0""",12.0,1.375,12.25,0.0
1614970978196882963,,146081,,1614898950,838753604,"""0""",12.0,1.375,12.25,0.0
1614970978245950937,,146082,,1614898950,888805323,"""0""",12.0,0.625,12.25,0.0
1614970978291501998,,146083,,1614898950,938779229,"""0""",12.0,0.625,12.25,0.0
1614970978343178033,,146084,,1614898950,988753292,"""0""",12.0,0.625,12.3000001907,0.0
1614970978428904056,,146085,,1614898951,38784594,"""0""",12.0,0.375,12.3000001907,0.0
1614970978456943988,,146086,,1614898951,88776990,"""0""",12.0,0.375,12.3000001907,0.0
1614970978503187894,,146087,,1614898951,138874906,"""0""",12.0,0.375,12.3500003815,0.0
1614970978546391010,,146088,,1614898951,188838708,"""0""",12.0,0.375,12.3500003815,0.0
1614970978600650072,,146089,,1614898951,238784854,"""0""",12.0,0.0,12.3500003815,0.0
1614970978645303964,,146090,,1614898951,288827667,"""0""",12.0,0.0,12.3500003815,0.0
1614970978694925069,,146091,,1614898951,338812198,"""0""",12.0,0.0,12.3999996185,0.0
1614970978772406101,,146092,,1614898951,388724646,"""0""",12.0,0.0,12.3999996185,0.0
1614970978803227901,,146093,,1614898951,438794906,"""0""",12.0,0.0,12.3999996185,0.0
1614970978845808029,,146094,,1614898951,488791833,"""0""",12.0,0.0,12.3500003815,0.0
1614970978892916917,,146095,,1614898951,538893552,"""0""",12.0,0.0,12.3500003815,0.0
1614970978951451063,,146096,,1614898951,588759281,"""0""",12.0,0.375,12.3500003815,0.0
1614970979020924091,,146097,,1614898951,638930219,"""0""",12.0,0.375,12.3500003815,0.0
1614970979047513961,,146098,,1614898951,688961729,"""0""",12.0,0.375,12.3500003815,0.0
1614970979092535018,,146099,,1614898951,738783916,"""0""",12.0,0.375,12.3500003815,0.0
1614970979147767066,,146100,,1614898951,788779229,"""0""",12.0,0.375,12.3500003815,0.0
1614970979190294981,,146101,,1614898951,838775062,"""0""",12.0,0.375,12.3500003815,0.0
1614970979257653951,,146102,,1614898951,888814802,"""0""",12.0,1.0,12.3500003815,0.0
1614970979306075096,,146103,,1614898951,938840635,"""0""",12.0,1.0,12.3000001907,0.0
1614970979349474906,,146104,,1614898951,989124333,"""0""",12.0,0.625,12.3000001907,0.0
1614970979393121004,,146105,,1614898952,38902510,"""0""",12.0,0.625,12.3000001907,0.0
1614970979447637081,,146106,,1614898952,88946573,"""0""",12.0,2.0,12.3000001907,0.0
1614970979483845949,,146107,,1614898952,138760323,"""0""",12.0,2.0,12.1999998093,0.0
1614970979543181896,,146108,,1614898952,188778916,"""0""",12.0,1.375,12.1999998093,0.0
1614970979593533039,,146109,,1614898952,238801416,"""0""",12.0,2.0,12.1999998093,0.0
1614970979647712945,,146110,,1614898952,288864333,"""0""",12.0,2.375,12.1999998093,0.0
1614970979694386005,,146111,,1614898952,338778343,"""0""",12.0,1.0,12.1999998093,0.0
1614970979746534109,,146112,,1614898952,388796312,"""0""",12.0,1.0,12.1999998093,0.0
1614970979794012069,,146113,,1614898952,438827354,"""0""",12.0,2.375,12.25,0.0
1614970979842645883,,146114,,1614898952,488786104,"""0""",12.0,3.75,12.25,0.0
1614970979911952972,,146115,,1614898952,538849854,"""0""",12.0,1.75,12.25,0.0
1614970979949878931,,146116,,1614898952,588854958,"""0""",12.0,1.75,12.25,0.0
1614970979988887071,,146117,,1614898952,638929333,"""0""",12.0,2.75,12.25,0.0
1614970980050451040,,146118,,1614898952,688756364,"""0""",12.0,2.375,12.25,0.0
1614970980091340065,,146119,,1614898952,738774749,"""0""",12.0,1.375,12.25,0.0
1614970980146147966,,146120,,1614898952,788823343,"""0""",12.0,0.625,12.25,0.0
1614970980197618961,,146121,,1614898952,838795062,"""0""",12.0,1.75,12.25,0.0
1614970980252011060,,146122,,1614898952,888846937,"""0""",12.0,3.375,12.25,0.0
1614970980294478893,,146123,,1614898952,938776624,"""0""",12.0,2.75,12.1499996185,0.0
1614970980343527078,,146124,,1614898952,988804541,"""0""",12.0,1.0,12.1499996185,0.0
1614970980389895915,,146125,,1614898953,38824072,"""0""",12.0,1.0,12.1499996185,0.0
1614970980458962917,,146126,,1614898953,88824020,"""0""",12.0,1.375,12.25,0.0
1614970980580399990,,146127,,1614898953,138824697,"""0""",12.0,0.625,12.25,0.0
1614970980580718994,,146128,,1614898953,188788135,"""0""",12.0,2.0,12.25,0.0
1614970980650824069,,146129,,1614898953,238793395,"""0""",12.0,2.0,12.25,0.0
1614970980650918960,,146130,,1614898953,288770426,"""0""",12.0,1.75,12.25,0.0
1614970980698596954,,146131,,1614898953,338771572,"""0""",12.0,0.625,12.25,0.0
1614970980744455099,,146132,,1614898953,388911103,"""0""",12.0,1.0,12.25,0.0
1614970980805968046,,146133,,1614898953,438773447,"""0""",12.0,3.75,12.25,0.0
1614970980843214035,,146134,,1614898953,488755166,"""0""",12.0,2.75,12.25,0.0
1614970980897510051,,146135,,1614898953,538810322,"""0""",12.0,3.375,12.1999998093,0.0
1614970980945240020,,146136,,1614898953,588911780,"""0""",12.0,2.375,12.1999998093,0.0
1614970980994489908,,146137,,1614898953,638801676,"""0""",12.0,1.75,12.1999998093,0.0
1614970981053751945,,146138,,1614898953,689087926,"""0""",12.0,1.75,12.1999998093,0.0
1614970981115730047,,146139,,1614898953,738834905,"""0""",12.0,1.75,12.1999998093,0.0
1614970981149033069,,146140,,1614898953,788962405,"""0""",12.0,2.0,12.1999998093,0.0
1614970981207901000,,146141,,1614898953,838834124,"""0""",12.0,2.0,12.1999998093,0.0
1614970981284059047,,146142,,1614898953,888770478,"""0""",12.0,1.75,12.1999998093,0.0
1614970981353707075,,146143,,1614898953,938776364,"""0""",12.0,1.375,12.1999998093,0.0
1614970981353816032,,146144,,1614898953,988780843,"""0""",12.0,3.0,12.1999998093,0.0
1614970981420715093,,146145,,1614898954,38774332,"""0""",12.0,3.875,12.1000003815,0.0
1614970981455398082,,146146,,1614898954,88840374,"""0""",12.0,2.75,12.1000003815,0.0
1614970981494472026,,146147,,1614898954,138774228,"""0""",12.0,2.0,12.1000003815,0.0
1614970981549237966,,146148,,1614898954,188898395,"""0""",12.0,3.0,12.1999998093,0.0
1614970981605302095,,146149,,1614898954,238786363,"""0""",12.0,2.375,12.1999998093,0.0
1614970981645539045,,146150,,1614898954,288863863,"""0""",12.0,1.375,12.1999998093,0.0
1614970981726864099,,146151,,1614898954,338812822,"""0""",12.0,2.375,12.1999998093,0.0
1614970981760164976,,146152,,1614898954,388792353,"""0""",12.0,3.375,12.1999998093,0.0
1614970981816348075,,146153,,1614898954,438803395,"""0""",12.0,2.375,12.1999998093,0.0
1614970981907205104,,146154,,1614898954,488951884,"""0""",12.0,1.75,12.1999998093,0.0
1614970981963007926,,146155,,1614898954,538783655,"""0""",12.0,1.0,12.25,0.0
1614970981963217973,,146156,,1614898954,589021936,"""0""",12.0,1.375,12.25,0.0
1614970982025262117,,146157,,1614898954,638833030,"""0""",12.0,1.0,12.25,0.0
1614970982080257892,,146158,,1614898954,688789332,"""0""",12.0,0.625,12.25,0.0
1614970982125464916,,146159,,1614898954,738793603,"""0""",12.0,0.375,12.25,0.0
1614970982176424026,,146160,,1614898954,788791728,"""0""",12.0,0.625,12.25,0.0
1614970982216963052,,146161,,1614898954,838814540,"""0""",12.0,0.625,12.3000001907,0.0
1614970982274543046,,146162,,1614898954,888793811,"""0""",12.0,0.375,12.3000001907,0.0
1614970982319967985,,146163,,1614898954,938894384,"""0""",12.0,0.375,12.3000001907,0.0
1614970982351495027,,146164,,1614898954,988767821,"""0""",12.0,0.375,12.3000001907,0.0
1614970982396717071,,146165,,1614898955,38784019,"""0""",12.0,0.375,12.3000001907,0.0
1614970982442176103,,146166,,1614898955,88807769,"""0""",12.0,0.375,12.3000001907,0.0
1614970982491652011,,146167,,1614898955,138776884,"""0""",12.0,0.375,12.3000001907,0.0
1614970982542043924,,146168,,1614898955,188753446,"""0""",12.0,0.375,12.3000001907,0.0
1614970982614731073,,146169,,1614898955,238812978,"""0""",12.0,0.375,12.3000001907,0.0
1614970982645848035,,146170,,1614898955,288912196,"""0""",12.0,1.0,12.3000001907,0.0
1614970982699209928,,146171,,1614898955,338795061,"""0""",12.0,1.75,12.25,0.0
1614970982746454954,,146172,,1614898955,388797405,"""0""",12.0,1.375,12.25,0.0
1614970982801908016,,146173,,1614898955,438816623,"""0""",12.0,1.0,12.25,0.0
1614970982847110986,,146174,,1614898955,488805790,"""0""",12.0,2.75,12.1999998093,0.0
1614970982907509088,,146175,,1614898955,538774957,"""0""",12.0,3.875,12.1999998093,0.0
1614970982945087909,,146176,,1614898955,588819332,"""0""",12.0,3.0,12.1999998093,0.0
1614970983001327991,,146177,,1614898955,638767144,"""0""",12.0,3.0,12.1999998093,0.0
1614970983049506902,,146178,,1614898955,688840530,"""0""",12.0,2.0,12.1999998093,0.0
1614970983098432064,,146179,,1614898955,738787248,"""0""",12.0,0.625,12.1999998093,0.0
1614970983149898052,,146180,,1614898955,788997196,"""0""",12.0,1.375,12.25,0.0
1614970983206162929,,146181,,1614898955,838778342,"""0""",12.0,1.75,12.25,0.0
1614970983272422075,,146182,,1614898955,888792092,"""0""",12.0,0.625,12.25,0.0
1614970983305130958,,146183,,1614898955,938797092,"""0""",12.0,0.375,12.3000001907,0.0
1614970983347443103,,146184,,1614898955,988846154,"""0""",12.0,0.375,12.3000001907,0.0
1614970983407181024,,146185,,1614898956,38865790,"""0""",12.0,0.625,12.3000001907,0.0
1614970983455369949,,146186,,1614898956,88768602,"""0""",12.0,1.375,12.3000001907,0.0
1614970983519556045,,146187,,1614898956,138783498,"""0""",12.0,1.0,12.25,0.0
1614970983550872087,,146188,,1614898956,188833602,"""0""",12.0,4.0,12.25,0.0
1614970983604823112,,146189,,1614898956,238858759,"""0""",12.0,4.625,12.25,0.0
1614970983669496059,,146190,,1614898956,288803654,"""0""",12.0,4.25,12.1499996185,0.0
1614970983718380928,,146191,,1614898956,338771050,"""0""",12.0,4.375,12.1499996185,0.0
1614970983806622028,,146192,,1614898956,388776363,"""0""",12.0,4.5,12.1499996185,0.0
1614970983806732892,,146193,,1614898956,438770061,"""0""",12.0,5.5,12.0500001907,0.0
1614970983861195087,,146194,,1614898956,488808446,"""0""",12.0,5.0,12.0500001907,0.0
1614970983918576002,,146195,,1614898956,538762300,"""0""",12.0,5.125,12.0500001907,0.0
1614970983967417955,,146196,,1614898956,588828915,"""0""",12.0,5.25,12.0,0.0
1614970983996891021,,146197,,1614898956,638781935,"""0""",12.0,5.0,12.0,0.0
1614970984074263095,,146198,,1614898956,689370998,"""0""",12.0,5.0,12.0,0.0
1614970984126008033,,146199,,1614898956,738762040,"""0""",12.0,5.0,12.0,0.0
1614970984167743921,,146200,,1614898956,788790008,"""0""",12.0,4.5,12.0,0.0
1614970984212858915,,146201,,1614898956,838809279,"""0""",12.0,4.375,12.0,0.0
1614970984277470111,,146202,,1614898956,888904696,"""0""",12.0,4.375,12.0,0.0
1614970984331095933,,146203,,1614898956,938783081,"""0""",12.0,4.5,12.0500001907,0.0
1614970984380096912,,146204,,1614898956,989833342,"""0""",12.0,5.0,12.0500001907,0.0
1614970984420844078,,146205,,1614898957,38875998,"""0""",12.0,4.625,12.0500001907,0.0
1614970984466860055,,146206,,1614898957,88926310,"""0""",11.0,4.625,12.0500001907,0.0
1614970984503392934,,146207,,1614898957,138774956,"""0""",11.0,5.125,12.0500001907,0.0
1614970984550229072,,146208,,1614898957,188865477,"""0""",11.0,5.5,12.0500001907,0.0
1614970984605479955,,146209,,1614898957,238829071,"""0""",11.0,5.875,11.9499998093,0.0
1614970984658409118,,146210,,1614898957,289067977,"""0""",11.0,5.5,11.9499998093,0.0
1614970984727588891,,146211,,1614898957,338783706,"""0""",11.0,5.5,11.9499998093,0.0
1614970984788825988,,146212,,1614898957,388851623,"""0""",12.0,5.5,12.0,0.0
1614970984819000959,,146213,,1614898957,438786831,"""0""",12.0,5.5,12.0,0.0
1614970984845777034,,146214,,1614898957,488993706,"""0""",12.0,5.125,12.0,0.0
1614970984901145935,,146215,,1614898957,538787143,"""0""",12.0,5.625,11.8999996185,0.0
1614970984954027891,,146216,,1614898957,588930060,"""0""",12.0,5.625,11.8999996185,0.0
1614970985019912958,,146217,,1614898957,638775893,"""0""",12.0,5.125,11.8999996185,0.0
1614970985059561014,,146218,,1614898957,688815216,"""0""",12.0,4.75,11.8999996185,0.0
1614970985099165916,,146219,,1614898957,739108081,"""0""",12.0,5.625,12.0500001907,0.0
1614970985148211002,,146220,,1614898957,788881102,"""0""",12.0,5.875,12.0500001907,0.0
1614970985207252979,,146221,,1614898957,838757039,"""0""",12.0,5.0,12.0500001907,0.0
1614970985249994039,,146222,,1614898957,888774956,"""0""",12.0,5.25,12.0,0.0
1614970985300183057,,146223,,1614898957,938771987,"""0""",12.0,5.5,12.0,0.0
1614970985354491949,,146224,,1614898957,988798758,"""0""",12.0,5.625,12.0,0.0
1614970985404728889,,146225,,1614898958,38781883,"""0""",12.0,5.25,11.8999996185,0.0
1614970985447030067,,146226,,1614898958,88875060,"""0""",12.0,5.375,11.8999996185,0.0
1614970985500200986,,146227,,1614898958,138862195,"""0""",12.0,5.375,11.8999996185,0.0
1614970985546808958,,146228,,1614898958,188773289,"""0""",11.0,5.875,12.0,0.0
1614970985603979110,,146229,,1614898958,238805633,"""0""",11.0,5.875,12.0,0.0
1614970985668097019,,146230,,1614898958,288799904,"""0""",11.0,5.375,12.0,0.0
1614970985762273073,,146231,,1614898958,338807247,"""0""",12.0,4.875,12.0,0.0
1614970985806134939,,146232,,1614898958,388779956,"""0""",12.0,5.125,12.0,0.0
1614970985806248903,,146233,,1614898958,438834695,"""0""",12.0,5.25,12.0,0.0
1614970985846652984,,146234,,1614898958,488881049,"""0""",12.0,4.625,12.0,0.0
1614970985933126926,,146235,,1614898958,538783341,"""0""",11.0,4.625,12.0,0.0
1614970985965568065,,146236,,1614898958,589270841,"""0""",11.0,4.75,12.0,0.0
1614970986000725030,,146237,,1614898958,638774278,"""0""",11.0,4.25,12.0,0.0
1614970986052103996,,146238,,1614898958,688888289,"""0""",12.0,4.0,12.0500001907,0.0
1614970986097966909,,146239,,1614898958,738745476,"""0""",12.0,4.125,12.0500001907,0.0
1614970986155175924,,146240,,1614898958,788816778,"""0""",12.0,4.25,12.0500001907,0.0
1614970986225424051,,146241,,1614898958,838903028,"""0""",12.0,3.875,12.1000003815,0.0
1614970986266228914,,146242,,1614898958,888816622,"""0""",12.0,3.375,12.1000003815,0.0
1614970986297683954,,146243,,1614898958,938753132,"""0""",12.0,3.75,12.1000003815,0.0
1614970986348591089,,146244,,1614898958,988806049,"""0""",12.0,3.375,12.1499996185,0.0
1614970986398987054,,146245,,1614898959,38799591,"""0""",12.0,1.0,12.1499996185,0.0
1614970986443092107,,146246,,1614898959,88814018,"""0""",12.0,0.375,12.1499996185,0.0
1614970986506479978,,146247,,1614898959,138758184,"""0""",12.0,0.625,12.25,0.0
1614970986545337915,,146248,,1614898959,188823653,"""0""",12.0,1.0,12.25,0.0
1614970986596096992,,146249,,1614898959,238781518,"""0""",12.0,0.625,12.25,0.0
1614970986657704114,,146250,,1614898959,291942195,"""0""",12.0,0.375,12.25,0.0
1614970986699645996,,146251,,1614898959,338796882,"""0""",12.0,0.0,12.3500003815,0.0
1614970986760449886,,146252,,1614898959,388894330,"""0""",12.0,0.0,12.3500003815,0.0
1614970986799215078,,146253,,1614898959,438781518,"""0""",12.0,0.375,12.3500003815,0.0
1614970986849745988,,146254,,1614898959,488774018,"""0""",12.0,0.0,12.3000001907,0.0
1614970986908482074,,146255,,1614898959,538786882,"""0""",12.0,0.0,12.3000001907,0.0
1614970986945116043,,146256,,1614898959,588848393,"""0""",12.0,0.0,12.3000001907,0.0
1614970986994131088,,146257,,1614898959,638779278,"""0""",12.0,0.0,12.3500003815,0.0
1614970987118490934,,146258,,1614898959,688783549,"""0""",12.0,0.0,12.3500003815,0.0
1614970987118695020,,146259,,1614898959,738823445,"""0""",12.0,0.0,12.3500003815,0.0
1614970987149776935,,146260,,1614898959,788812247,"""0""",12.0,0.0,12.3500003815,0.0
1614970987203234910,,146261,,1614898959,838770163,"""0""",12.0,0.375,12.3500003815,0.0
1614970987256046056,,146262,,1614898959,888768288,"""0""",12.0,0.0,12.3500003815,0.0
1614970987307111024,,146263,,1614898959,938762820,"""0""",12.0,0.375,12.3000001907,0.0
1614970987374773979,,146264,,1614898959,988834434,"""0""",12.0,0.375,12.3000001907,0.0
1614970987421354055,,146265,,1614898960,38767195,"""0""",12.0,0.375,12.3000001907,0.0
1614970987463831901,,146266,,1614898960,88789174,"""0""",12.0,0.375,12.3000001907,0.0
1614970987508891105,,146267,,1614898960,138750111,"""0""",12.0,0.0,12.3000001907,0.0
1614970987548310041,,146268,,1614898960,188888705,"""0""",12.0,0.375,12.3000001907,0.0
1614970987602036952,,146269,,1614898960,238803184,"""0""",12.0,0.625,12.3000001907,0.0
1614970987655359983,,146270,,1614898960,288887663,"""0""",12.0,1.0,12.25,0.0
1614970987696746110,,146271,,1614898960,338900528,"""0""",12.0,0.625,12.25,0.0
1614970987757158994,,146272,,1614898960,388780684,"""0""",12.0,1.375,12.25,0.0
1614970987809144020,,146273,,1614898960,438839278,"""0""",12.0,1.75,12.1999998093,0.0
1614970987854034900,,146274,,1614898960,488753705,"""0""",12.0,4.0,12.1999998093,0.0
1614970987901740074,,146275,,1614898960,538801830,"""0""",12.0,4.125,12.1999998093,0.0
1614970987953813076,,146276,,1614898960,588768236,"""0""",11.0,4.0,12.1000003815,0.0
1614970988033117055,,146277,,1614898960,638770476,"""0""",11.0,4.125,12.1000003815,0.0
1614970988073584079,,146278,,1614898960,688771205,"""0""",11.0,4.375,12.1000003815,0.0
1614970988120542049,,146279,,1614898960,738788288,"""0""",12.0,4.875,12.0500001907,0.0
1614970988161482095,,146280,,1614898960,788870371,"""0""",12.0,4.625,12.0500001907,0.0
1614970988224690914,,146281,,1614898960,838863184,"""0""",12.0,4.5,12.0500001907,0.0
1614970988270791053,,146282,,1614898960,888753653,"""0""",12.0,4.375,12.0500001907,0.0
1614970988304280042,,146283,,1614898960,938784798,"""0""",12.0,4.375,12.0500001907,0.0
1614970988386939048,,146284,,1614898960,988820840,"""0""",12.0,4.25,12.0500001907,0.0
1614970988440284967,,146285,,1614898961,38821048,"""0""",12.0,4.25,12.0500001907,0.0
1614970988489123106,,146286,,1614898961,88831673,"""0""",12.0,4.125,12.1000003815,0.0
1614970988560555934,,146287,,1614898961,138839173,"""0""",12.0,4.0,12.1000003815,0.0
1614970988560689926,,146288,,1614898961,188884955,"""0""",12.0,3.875,12.1000003815,0.0
1614970988634923934,,146289,,1614898961,238797663,"""0""",11.0,4.0,12.1000003815,0.0
1614970988673090934,,146290,,1614898961,288850788,"""0""",11.0,4.0,12.1000003815,0.0
1614970988710625886,,146291,,1614898961,338805319,"""0""",11.0,3.875,12.1000003815,0.0
1614970988759027957,,146292,,1614898961,388769225,"""0""",12.0,3.875,12.1499996185,0.0
1614970988840670108,,146293,,1614898961,438788913,"""0""",12.0,3.875,12.1499996185,0.0
1614970988883312940,,146294,,1614898961,488806257,"""0""",12.0,3.875,12.1499996185,0.0
1614970988946324110,,146295,,1614898961,538855006,"""0""",12.0,3.875,12.1499996185,0.0
1614970989001667976,,146296,,1614898961,588772506,"""0""",12.0,2.75,12.1499996185,0.0
1614970989032598018,,146297,,1614898961,639073236,"""0""",12.0,2.75,12.1499996185,0.0
1614970989063988924,,146298,,1614898961,689182506,"""0""",12.0,2.375,12.1499996185,0.0
1614970989101094007,,146299,,1614898961,738820684,"""0""",11.0,2.375,12.1000003815,0.0
1614970989156200885,,146300,,1614898961,788779329,"""0""",11.0,2.375,12.1000003815,0.0
1614970989207539081,,146301,,1614898961,838853600,"""0""",11.0,2.0,12.1000003815,0.0
1614970989251656055,,146302,,1614898961,888783913,"""0""",12.0,2.0,12.1999998093,0.0
1614970989299628973,,146303,,1614898961,938786465,"""0""",12.0,1.75,12.1999998093,0.0
1614970989350336074,,146304,,1614898961,988764329,"""0""",12.0,1.75,12.1999998093,0.0
1614970989404481887,,146305,,1614898962,38884277,"""0""",12.0,2.375,12.1999998093,0.0
1614970989454952955,,146306,,1614898962,88755840,"""0""",12.0,2.375,12.1999998093,0.0
1614970989525506019,,146307,,1614898962,138795475,"""0""",12.0,1.75,12.1999998093,0.0
1614970989647633075,,146308,,1614898962,188846725,"""0""",11.0,2.75,12.1499996185,0.0
1614970989647738933,,146309,,1614898962,238836777,"""0""",11.0,3.0,12.1499996185,0.0
1614970989694308996,,146310,,1614898962,288797506,"""0""",11.0,3.0,12.1499996185,0.0
1614970989812304973,,146311,,1614898962,338835996,"""0""",12.0,2.75,12.1999998093,0.0
1614970989812952995,,146312,,1614898962,388758704,"""0""",12.0,3.0,12.1999998093,0.0
1614970989813285112,,146313,,1614898962,438804589,"""0""",12.0,3.0,12.1999998093,0.0
1614970989851934909,,146314,,1614898962,488835475,"""0""",12.0,2.75,12.1999998093,0.0
1614970989907593965,,146315,,1614898962,538780162,"""0""",12.0,2.0,12.1999998093,0.0
1614970989955318927,,146316,,1614898962,588832037,"""0""",12.0,2.0,12.1999998093,0.0
1614970990007071018,,146317,,1614898962,639348756,"""0""",12.0,1.375,12.1999998093,0.0
1614970990054029941,,146318,,1614898962,688852871,"""0""",11.0,2.0,12.1999998093,0.0
1614970990133768081,,146319,,1614898962,738848287,"""0""",11.0,2.0,12.1999998093,0.0
1614970990160022974,,146320,,1614898962,788841881,"""0""",11.0,1.75,12.1999998093,0.0
1614970990207333087,,146321,,1614898962,839053756,"""0""",12.0,1.375,12.1999998093,0.0
1614970990247478008,,146322,,1614898962,888789329,"""0""",12.0,1.375,12.1999998093,0.0
1614970990306524038,,146323,,1614898962,938857141,"""0""",12.0,1.75,12.1999998093,0.0
1614970990353296995,,146324,,1614898962,988840943,"""0""",12.0,1.75,12.1999998093,0.0
1614970990405961990,,146325,,1614898963,38803131,"""0""",12.0,1.75,12.1999998093,0.0
1614970990547926902,,146326,,1614898963,88790891,"""0""",12.0,1.375,12.1999998093,0.0
1614970990548048973,,146327,,1614898963,138794745,"""0""",12.0,1.75,12.1999998093,0.0
1614970990576663017,,146328,,1614898963,188820943,"""0""",12.0,1.75,12.1999998093,0.0
1614970990622184991,,146329,,1614898963,238881829,"""0""",12.0,1.75,12.1999998093,0.0
1614970990692508935,,146330,,1614898963,288782402,"""0""",12.0,1.75,12.1999998093,0.0
1614970990724641084,,146331,,1614898963,338772089,"""0""",11.0,1.75,12.1999998093,0.0
1614970990770488023,,146332,,1614898963,388929329,"""0""",11.0,1.75,12.1999998093,0.0
1614970990815449953,,146333,,1614898963,438878339,"""0""",11.0,2.75,12.1999998093,0.0
1614970990878736972,,146334,,1614898963,488867610,"""0""",12.0,2.0,12.1999998093,0.0
1614970990915939092,,146335,,1614898963,538827714,"""0""",12.0,2.0,12.1999998093,0.0
1614970990951875925,,146336,,1614898963,588769381,"""0""",12.0,2.375,12.1999998093,0.0
1614970991051846027,,146337,,1614898963,638782297,"""0""",12.0,2.375,12.1999998093,0.0
1614970991051954030,,146338,,1614898963,688786256,"""0""",12.0,2.375,12.1999998093,0.0
1614970991102340936,,146339,,1614898963,738843860,"""0""",12.0,2.375,12.1999998093,0.0
1614970991153582096,,146340,,1614898963,788771672,"""0""",12.0,2.375,12.1499996185,0.0
1614970991199825048,,146341,,1614898963,838859641,"""0""",12.0,2.375,12.1499996185,0.0
1614970991264027118,,146342,,1614898963,888764172,"""0""",12.0,2.0,12.1499996185,0.0
1614970991318837881,,146343,,1614898963,938780526,"""0""",12.0,2.375,12.1499996185,0.0
1614970991357021093,,146344,,1614898963,988855214,"""0""",12.0,1.75,12.1499996185,0.0
1614970991416351079,,146345,,1614898964,38775943,"""0""",12.0,2.0,12.1499996185,0.0
1614970991503525018,,146346,,1614898964,88776151,"""0""",12.0,2.375,12.1499996185,0.0
1614970991503679990,,146347,,1614898964,138842193,"""0""",12.0,2.375,12.1499996185,0.0
1614970991597861051,,146348,,1614898964,188779953,"""0""",12.0,1.75,12.1499996185,0.0
1614970991641623973,,146349,,1614898964,238847870,"""0""",12.0,1.75,12.1499996185,0.0
1614970991702379941,,146350,,1614898964,288853703,"""0""",12.0,1.375,12.1999998093,0.0
1614970991767720937,,146351,,1614898964,338806151,"""0""",12.0,1.375,12.1999998093,0.0
1614970991767837047,,146352,,1614898964,388880839,"""0""",12.0,1.75,12.1999998093,0.0
1614970991822700977,,146353,,1614898964,438791203,"""0""",12.0,1.75,12.1999998093,0.0
1614970991864244937,,146354,,1614898964,488830110,"""0""",12.0,2.0,12.1999998093,0.0
1614970991910718917,,146355,,1614898964,538836568,"""0""",12.0,1.75,12.1999998093,0.0
1614970991953739881,,146356,,1614898964,588785995,"""0""",12.0,1.75,12.1999998093,0.0
1614970991997328042,,146357,,1614898964,638774641,"""0""",12.0,1.375,12.1999998093,0.0
1614970992048289060,,146358,,1614898964,688770162,"""0""",12.0,1.375,12.1999998093,0.0
1614970992148844957,,146359,,1614898964,738921047,"""0""",12.0,1.375,12.1999998093,0.0
1614970992205821037,,146360,,1614898964,788749537,"""0""",12.0,2.0,12.1999998093,0.0
1614970992241167068,,146361,,1614898964,838888547,"""0""",12.0,2.375,12.1999998093,0.0
1614970992326483011,,146362,,1614898964,888757609,"""0""",12.0,1.75,12.1999998093,0.0
1614970992370093107,,146363,,1614898964,938854224,"""0""",12.0,2.375,12.1999998093,0.0
1614970992370217084,,146364,,1614898964,988884016,"""0""",12.0,2.375,12.1999998093,0.0
1614970992463860034,,146365,,1614898965,38777349,"""0""",12.0,2.75,12.1999998093,0.0
1614970992530013084,,146366,,1614898965,88826724,"""0""",12.0,2.75,12.1999998093,0.0
1614970992530138015,,146367,,1614898965,138830838,"""0""",12.0,3.0,12.1999998093,0.0
1614970992603907108,,146368,,1614898965,188831203,"""0""",12.0,3.0,12.1999998093,0.0
1614970992635651111,,146369,,1614898965,238824745,"""0""",12.0,2.75,12.1499996185,0.0
1614970992679588079,,146370,,1614898965,288809745,"""0""",12.0,2.375,12.1499996185,0.0
1614970992720114946,,146371,,1614898965,338805422,"""0""",12.0,2.375,12.1499996185,0.0
1614970992774733066,,146372,,1614898965,388853807,"""0""",12.0,2.375,12.1499996185,0.0
1614970992807241916,,146373,,1614898965,438833599,"""0""",12.0,2.75,12.1499996185,0.0
1614970992886210918,,146374,,1614898965,488780578,"""0""",12.0,2.0,12.1499996185,0.0
1614970992916652917,,146375,,1614898965,538778911,"""0""",12.0,1.75,12.1999998093,0.0
1614970992969187021,,146376,,1614898965,588836307,"""0""",12.0,1.75,12.1999998093,0.0
1614970993014209032,,146377,,1614898965,639172870,"""0""",12.0,1.75,12.1999998093,0.0
1614970993084378957,,146378,,1614898965,688837505,"""0""",12.0,1.75,12.1999998093,0.0
1614970993140844106,,146379,,1614898965,738774328,"""0""",12.0,1.75,12.1999998093,0.0
1614970993187411069,,146380,,1614898965,788899015,"""0""",12.0,1.75,12.1999998093,0.0
1614970993231571912,,146381,,1614898965,838811984,"""0""",12.0,1.375,12.1999998093,0.0
1614970993276704072,,146382,,1614898965,888786672,"""0""",12.0,1.75,12.1999998093,0.0
1614970993314945936,,146383,,1614898965,938860057,"""0""",12.0,1.75,12.1999998093,0.0
1614970993360744953,,146384,,1614898965,988777974,"""0""",12.0,1.75,12.1999998093,0.0
1614970993412631988,,146385,,1614898966,38811411,"""0""",11.0,1.75,12.1999998093,0.0
1614970993447171926,,146386,,1614898966,88800057,"""0""",11.0,1.75,12.1999998093,0.0
1614970993515860080,,146387,,1614898966,138793651,"""0""",11.0,2.375,12.1999998093,0.0
1614970993559638977,,146388,,1614898966,188853234,"""0""",12.0,3.0,12.1499996185,0.0
1614970993622711896,,146389,,1614898966,238844276,"""0""",12.0,2.375,12.1499996185,0.0
1614970993710618019,,146390,,1614898966,288836828,"""0""",12.0,1.75,12.1499996185,0.0
1614970993748344898,,146391,,1614898966,338747973,"""0""",12.0,2.375,12.1000003815,0.0
1614970993787616968,,146392,,1614898966,389255525,"""0""",12.0,2.375,12.1000003815,0.0
1614970993820880889,,146393,,1614898966,438773390,"""0""",12.0,2.75,12.1000003815,0.0
1614970993854366064,,146394,,1614898966,489006411,"""0""",12.0,2.75,12.1000003815,0.0
1614970993906609058,,146395,,1614898966,538763650,"""0""",12.0,2.75,12.1499996185,0.0
1614970993970679044,,146396,,1614898966,588866411,"""0""",12.0,2.75,12.1499996185,0.0
1614970994036722898,,146397,,1614898966,638967348,"""0""",12.0,2.0,12.1499996185,0.0
1614970994073585033,,146398,,1614898966,689360057,"""0""",12.0,2.0,12.1999998093,0.0
1614970994124600887,,146399,,1614898966,738765109,"""0""",12.0,1.75,12.1999998093,0.0
1614970994186762094,,146400,,1614898966,788867036,"""0""",12.0,2.375,12.1999998093,0.0
1614970994236605882,,146401,,1614898966,838798494,"""0""",12.0,2.375,12.1499996185,0.0
1614970994288858890,,146402,,1614898966,888876619,"""0""",12.0,2.375,12.1499996185,0.0
1614970994321111917,,146403,,1614898966,938855525,"""0""",12.0,2.0,12.1499996185,0.0
1614970994390191078,,146404,,1614898966,988841723,"""0""",12.0,1.75,12.1499996185,0.0
1614970994484961032,,146405,,1614898967,38766359,"""0""",12.0,1.0,12.1499996185,0.0
1614970994485057115,,146406,,1614898967,88788546,"""0""",12.0,0.625,12.1499996185,0.0
1614970994509651899,,146407,,1614898967,138881931,"""0""",12.0,1.0,12.1999998093,0.0
1614970994555223941,,146408,,1614898967,188773442,"""0""",12.0,0.625,12.1999998093,0.0
1614970994627485990,,146409,,1614898967,238914900,"""0""",12.0,0.625,12.1999998093,0.0
1614970994689990997,,146410,,1614898967,288860369,"""0""",12.0,0.625,12.1999998093,0.0
1614970994784200906,,146411,,1614898967,338811463,"""0""",12.0,0.625,12.25,0.0
1614970994784648895,,146412,,1614898967,388774536,"""0""",12.0,0.625,12.25,0.0
1614970994827610969,,146413,,1614898967,438761410,"""0""",12.0,0.625,12.25,0.0
1614970994903044939,,146414,,1614898967,488771098,"""0""",12.0,0.375,12.25,0.0
1614970994930699110,,146415,,1614898967,538853858,"""0""",12.0,0.375,12.25,0.0
1614970994974944114,,146416,,1614898967,588771775,"""0""",12.0,0.375,12.25,0.0
1614970995004111051,,146417,,1614898967,638784796,"""0""",12.0,0.375,12.25,0.0
1614970995047384023,,146418,,1614898967,688836150,"""0""",12.0,0.375,12.25,0.0
1614970995095702886,,146419,,1614898967,738873285,"""0""",12.0,0.375,12.25,0.0
1614970995144144058,,146420,,1614898967,788774744,"""0""",12.0,0.0,12.3000001907,0.0
1614970995207611083,,146421,,1614898967,838887817,"""0""",12.0,0.0,12.3000001907,0.0
1614970995244095087,,146422,,1614898967,888770421,"""0""",12.0,0.375,12.3000001907,0.0
1614970995300435066,,146423,,1614898967,938856879,"""0""",12.0,0.375,12.3000001907,0.0
1614970995376737117,,146424,,1614898967,988836358,"""0""",12.0,0.0,12.3000001907,0.0
1614970995415208101,,146425,,1614898968,38855837,"""0""",12.0,0.0,12.3000001907,0.0
1614970995455101966,,146426,,1614898968,89266410,"""0""",12.0,0.0,12.3000001907,0.0
1614970995501173973,,146427,,1614898968,138746306,"""0""",12.0,0.375,12.3000001907,0.0
1614970995550447940,,146428,,1614898968,188789014,"""0""",12.0,0.375,12.3000001907,0.0
1614970995603404998,,146429,,1614898968,238817139,"""0""",12.0,0.375,12.3000001907,0.0
1614970995649970054,,146430,,1614898968,288852035,"""0""",12.0,0.375,12.25,0.0
1614970995698710918,,146431,,1614898968,338816202,"""0""",12.0,0.375,12.25,0.0
1614970995754920005,,146432,,1614898968,388803546,"""0""",12.0,2.0,12.25,0.0
1614970995819288015,,146433,,1614898968,438763181,"""0""",11.0,2.75,12.1499996185,0.0
1614970995850898981,,146434,,1614898968,488814743,"""0""",11.0,1.375,12.1499996185,0.0
1614970995898171901,,146435,,1614898968,538808962,"""0""",11.0,1.75,12.1499996185,0.0
1614970995947406053,,146436,,1614898968,589092400,"""0""",12.0,2.0,12.1999998093,0.0
1614970996005151033,,146437,,1614898968,638802608,"""0""",12.0,2.0,12.1999998093,0.0
1614970996053745031,,146438,,1614898968,688807660,"""0""",12.0,3.375,12.1999998093,0.0
1614970996112086057,,146439,,1614898968,738768650,"""0""",12.0,2.375,12.1999998093,0.0
1614970996148571014,,146440,,1614898968,789234118,"""0""",12.0,1.375,12.1999998093,0.0
1614970996213924884,,146441,,1614898968,838773077,"""0""",12.0,1.0,12.1999998093,0.0
1614970996251564025,,146442,,1614898968,890961827,"""0""",12.0,0.625,12.1999998093,0.0
1614970996301318883,,146443,,1614898968,938775889,"""0""",12.0,0.625,12.25,0.0
1614970996346359968,,146444,,1614898968,988875108,"""0""",12.0,0.625,12.25,0.0
1614970996409004926,,146445,,1614898969,38814327,"""0""",12.0,1.375,12.25,0.0
1614970996449556112,,146446,,1614898969,88814170,"""0""",12.0,1.75,12.1499996185,0.0
1614970996503886938,,146447,,1614898969,138762347,"""0""",12.0,1.0,12.1499996185,0.0
1614970996550659894,,146448,,1614898969,189532243,"""0""",12.0,1.0,12.1499996185,0.0
1614970996599730014,,146449,,1614898969,238778754,"""0""",12.0,0.625,12.25,0.0
1614970996675710916,,146450,,1614898969,289524431,"""0""",12.0,0.625,12.25,0.0
1614970996711709976,,146451,,1614898969,338822399,"""0""",12.0,0.625,12.25,0.0
1614970996748635053,,146452,,1614898969,388835472,"""0""",11.0,0.625,12.1999998093,0.0
1614970996796741008,,146453,,1614898969,438774795,"""0""",11.0,1.0,12.1999998093,0.0
1614970996847771883,,146454,,1614898969,488812608,"""0""",11.0,1.75,12.1999998093,0.0
1614970996900067090,,146455,,1614898969,538834535,"""0""",12.0,1.375,12.1999998093,0.0
1614970996983736991,,146456,,1614898969,589813962,"""0""",12.0,0.625,12.1999998093,0.0
1614970997033020019,,146457,,1614898969,638838389,"""0""",12.0,0.375,12.1999998093,0.0
1614970997074558019,,146458,,1614898969,689427712,"""0""",12.0,1.0,12.1999998093,0.0
1614970997110584020,,146459,,1614898969,738845733,"""0""",11.0,1.75,12.1999998093,0.0
1614970997156230926,,146460,,1614898969,788864795,"""0""",11.0,1.0,12.1999998093,0.0
1614970997212142944,,146461,,1614898969,838780368,"""0""",11.0,0.375,12.1999998093,0.0
1614970997248032093,,146462,,1614898969,889040264,"""0""",12.0,0.375,12.25,0.0
1614970997344583988,,146463,,1614898969,938820316,"""0""",12.0,0.625,12.25,0.0
1614970997380805015,,146464,,1614898969,988758597,"""0""",12.0,1.0,12.25,0.0
1614970997454050064,,146465,,1614898970,38846514,"""0""",12.0,0.625,12.25,0.0
1614970997480534076,,146466,,1614898970,88837087,"""0""",12.0,0.625,12.25,0.0
1614970997517056941,,146467,,1614898970,138811097,"""0""",12.0,1.0,12.25,0.0
1614970997602710008,,146468,,1614898970,188823076,"""0""",12.0,2.75,12.1499996185,0.0
1614970997641269922,,146469,,1614898970,238821618,"""0""",12.0,3.375,12.1499996185,0.0
1614970997682959079,,146470,,1614898970,288866618,"""0""",12.0,3.375,12.1499996185,0.0
1614970997715349912,,146471,,1614898970,338769118,"""0""",12.0,2.375,12.1999998093,0.0
1614970997763106107,,146472,,1614898970,388804586,"""0""",12.0,2.75,12.1999998093,0.0
1614970997817814111,,146473,,1614898970,438762139,"""0""",12.0,2.75,12.1999998093,0.0
1614970997854118108,,146474,,1614898970,488818701,"""0""",12.0,2.375,12.1999998093,0.0
1614970997911808967,,146475,,1614898970,538864013,"""0""",12.0,1.75,12.1999998093,0.0
1614970997967303037,,146476,,1614898970,588807191,"""0""",12.0,1.75,12.1999998093,0.0
1614970998014909029,,146477,,1614898970,638760732,"""0""",12.0,3.0,12.1999998093,0.0
1614970998049491882,,146478,,1614898970,689042347,"""0""",11.0,3.875,12.1000003815,0.0
1614970998109683036,,146479,,1614898970,738754847,"""0""",11.0,3.0,12.1000003815,0.0
1614970998205626964,,146480,,1614898970,788856409,"""0""",11.0,0.625,12.1000003815,0.0
1614970998205883979,,146481,,1614898970,838759274,"""0""",12.0,0.375,12.25,0.0
1614970998248801946,,146482,,1614898970,888769951,"""0""",12.0,1.375,12.25,0.0
1614970998327148914,,146483,,1614898970,938755784,"""0""",12.0,1.375,12.25,0.0
1614970998377278089,,146484,,1614898970,989583076,"""0""",12.0,1.0,12.25,0.0
1614970998416866064,,146485,,1614898971,38806305,"""0""",12.0,0.625,12.25,0.0
1614970998462061882,,146486,,1614898971,88880940,"""0""",12.0,1.0,12.25,0.0
1614970998514178037,,146487,,1614898971,138846774,"""0""",11.0,2.0,12.1999998093,0.0
1614970998558777093,,146488,,1614898971,188863701,"""0""",11.0,0.625,12.1999998093,0.0
1614970998605261087,,146489,,1614898971,238785732,"""0""",11.0,0.625,12.1999998093,0.0
1614970998655986070,,146490,,1614898971,288796617,"""0""",11.0,0.625,12.1999998093,0.0
1614970998709068059,,146491,,1614898971,338778909,"""0""",11.0,1.0,12.25,0.0
1614970998746706008,,146492,,1614898971,388766617,"""0""",11.0,1.0,12.25,0.0
1614970998818018913,,146493,,1614898971,438765315,"""0""",11.0,2.375,12.25,0.0
1614970998897650957,,146494,,1614898971,488778232,"""0""",11.0,4.25,12.0500001907,0.0
1614970998937587022,,146495,,1614898971,538818336,"""0""",11.0,4.5,12.0500001907,0.0
1614970999156342983,,146496,,1614898971,588764586,"""0""",11.0,4.5,12.0500001907,0.0
1614970999156450986,,146497,,1614898971,638758284,"""0""",12.0,4.25,12.0500001907,0.0
1614970999156469106,,146498,,1614898971,688899534,"""0""",12.0,4.875,12.0500001907,0.0
1614970999156496047,,146499,,1614898971,738771044,"""0""",12.0,5.0,12.0500001907,0.0
1614970999156514883,,146500,,1614898971,788940836,"""0""",12.0,5.25,11.9499998093,0.0
1614970999217176914,,146501,,1614898971,838776773,"""0""",12.0,5.625,11.9499998093,0.0
1614970999265243053,,146502,,1614898971,888865367,"""0""",12.0,5.5,11.9499998093,0.0
1614970999304749965,,146503,,1614898971,938807555,"""0""",11.0,5.875,11.8500003815,0.0
1614970999362456083,,146504,,1614898971,988998180,"""0""",11.0,5.625,11.8500003815,0.0
1614970999423145055,,146505,,1614898972,38898388,"""0""",11.0,5.625,11.8500003815,0.0
1614970999457570075,,146506,,1614898972,89057398,"""0""",11.0,5.25,11.8500003815,0.0
1614970999512216091,,146507,,1614898972,138773232,"""0""",11.0,5.5,11.9499998093,0.0
1614970999561243057,,146508,,1614898972,188780680,"""0""",11.0,5.5,11.9499998093,0.0
1614970999600670099,,146509,,1614898972,238771096,"""0""",11.0,5.25,11.9499998093,0.0
1614970999665016889,,146510,,1614898972,288858648,"""0""",12.0,5.375,11.8999996185,0.0
1614970999710028886,,146511,,1614898972,338785836,"""0""",12.0,5.25,11.8999996185,0.0
1614970999764064073,,146512,,1614898972,388731513,"""0""",12.0,5.5,11.8999996185,0.0
1614970999802172899,,146513,,1614898972,439068075,"""0""",12.0,5.5,11.9499998093,0.0
1614970999849586963,,146514,,1614898972,488887919,"""0""",12.0,5.5,11.9499998093,0.0
1614970999900803089,,146515,,1614898972,538783648,"""0""",12.0,6.0,11.9499998093,0.0
1614970999970339059,,146516,,1614898972,588783804,"""0""",12.0,5.875,11.9499998093,0.0
1614971000029656887,,146517,,1614898972,638785679,"""0""",12.0,6.25,11.9499998093,0.0
1614971000081494092,,146518,,1614898972,688814690,"""0""",12.0,6.375,11.9499998093,0.0
1614971000125277042,,146519,,1614898972,738822919,"""0""",11.0,6.125,11.8999996185,0.0
1614971000167504072,,146520,,1614898972,788915575,"""0""",11.0,6.375,11.8999996185,0.0
1614971000214126110,,146521,,1614898972,838786877,"""0""",11.0,6.375,11.8999996185,0.0
1614971000266844034,,146522,,1614898972,889369117,"""0""",11.0,6.375,11.8999996185,0.0
1614971000315174102,,146523,,1614898972,938787033,"""0""",12.0,6.375,11.9499998093,0.0
1614971000356843948,,146524,,1614898972,988882763,"""0""",12.0,6.125,11.9499998093,0.0
1614971000413007020,,146525,,1614898973,38789429,"""0""",12.0,6.125,11.9499998093,0.0
1614971000501221895,,146526,,1614898973,88788492,"""0""",11.0,5.875,11.8999996185,0.0
1614971000573815107,,146527,,1614898973,138788283,"""0""",11.0,5.875,11.8999996185,0.0
1614971000611507892,,146528,,1614898973,188771773,"""0""",11.0,6.25,11.8999996185,0.0
1614971000611618995,,146529,,1614898973,238829273,"""0""",11.0,6.125,11.9499998093,0.0
1614971000670113086,,146530,,1614898973,289279846,"""0""",11.0,5.25,11.9499998093,0.0
1614971000716634035,,146531,,1614898973,338791981,"""0""",11.0,4.25,11.9499998093,0.0
1614971000772402048,,146532,,1614898973,388775367,"""0""",12.0,3.875,12.1000003815,0.0
1614971000811819076,,146533,,1614898973,438739794,"""0""",12.0,5.75,12.1000003815,0.0
1614971000881863117,,146534,,1614898973,488768023,"""0""",12.0,5.875,12.1000003815,0.0
1614971000914865970,,146535,,1614898973,538788439,"""0""",12.0,4.375,12.0500001907,0.0
1614971000970738887,,146536,,1614898973,588804377,"""0""",12.0,3.875,12.0500001907,0.0
1614971001012178897,,146537,,1614898973,638874689,"""0""",12.0,3.875,12.0500001907,0.0
1614971001068694114,,146538,,1614898973,688781148,"""0""",12.0,3.75,12.0500001907,0.0
1614971001099227905,,146539,,1614898973,738841356,"""0""",12.0,1.75,12.1000003815,0.0
1614971001156929016,,146540,,1614898973,788847033,"""0""",12.0,0.375,12.1000003815,0.0
1614971001220230102,,146541,,1614898973,838787346,"""0""",12.0,0.375,12.1000003815,0.0
1614971001262502908,,146542,,1614898973,888817241,"""0""",11.0,0.0,12.3000001907,0.0
1614971001317802906,,146543,,1614898973,938879898,"""0""",11.0,0.0,12.3000001907,0.0
1614971001370521068,,146544,,1614898973,988838596,"""0""",11.0,0.0,12.3000001907,0.0
1614971001402122974,,146545,,1614898974,38848856,"""0""",12.0,0.0,12.3999996185,0.0
1614971001446414947,,146546,,1614898974,88838127,"""0""",12.0,0.0,12.3999996185,0.0
1614971001519264936,,146547,,1614898974,138827189,"""0""",12.0,0.0,12.3999996185,0.0
1614971001572211980,,146548,,1614898974,188782293,"""0""",12.0,0.0,12.3999996185,0.0
1614971001619844913,,146549,,1614898974,238760158,"""0""",12.0,0.0,12.3999996185,0.0
1614971001821000099,,146550,,1614898974,288785158,"""0""",12.0,0.0,12.3999996185,0.0
1614971001821101903,,146551,,1614898974,338802606,"""0""",12.0,0.0,12.3999996185,0.0
1614971001821125984,,146552,,1614898974,388807658,"""0""",12.0,0.0,12.3999996185,0.0
1614971001821146011,,146553,,1614898974,438859845,"""0""",12.0,0.0,12.3999996185,0.0
1614971001902451992,,146554,,1614898974,488757606,"""0""",12.0,0.0,12.3999996185,0.0
1614971001902575016,,146555,,1614898974,538812814,"""0""",12.0,0.0,12.3500003815,0.0
1614971001977899074,,146556,,1614898974,588759429,"""0""",12.0,0.0,12.3500003815,0.0
1614971002024116039,,146557,,1614898974,638916460,"""0""",12.0,0.0,12.3500003815,0.0
1614971002087631940,,146558,,1614898974,688791304,"""0""",11.0,0.0,12.3500003815,0.0
1614971002141561985,,146559,,1614898974,738831356,"""0""",11.0,0.0,12.3500003815,0.0
1614971002322232961,,146560,,1614898974,788842293,"""0""",11.0,0.0,12.3500003815,0.0
1614971002322411060,,146561,,1614898974,838857501,"""0""",12.0,0.375,12.25,0.0
1614971002323486089,,146562,,1614898974,888859637,"""0""",12.0,0.625,12.25,0.0
1614971002323574066,,146563,,1614898974,938808699,"""0""",12.0,0.625,12.25,0.0
1614971002415028095,,146564,,1614898974,988956616,"""0""",12.0,0.375,12.25,0.0
1614971002415234088,,146565,,1614898975,38794949,"""0""",12.0,1.0,12.25,0.0
1614971002464090108,,146566,,1614898975,88782501,"""0""",12.0,3.0,12.25,0.0
1614971002529997110,,146567,,1614898975,138805887,"""0""",11.0,2.75,12.1499996185,0.0
1614971002575817108,,146568,,1614898975,188777553,"""0""",11.0,1.375,12.1499996185,0.0
1614971002627451896,,146569,,1614898975,238818491,"""0""",11.0,1.0,12.1499996185,0.0
1614971002682122945,,146570,,1614898975,288827189,"""0""",11.0,1.75,12.1499996185,0.0
1614971002719218015,,146571,,1614898975,338783230,"""0""",12.0,1.0,12.1999998093,0.0
1614971002796857118,,146572,,1614898975,388774845,"""0""",12.0,0.625,12.1999998093,0.0
1614971002861720085,,146573,,1614898975,440535210,"""0""",12.0,1.0,12.1999998093,0.0
1614971002906735897,,146574,,1614898975,488835366,"""0""",11.0,2.375,12.1999998093,0.0
1614971002969016075,,146575,,1614898975,538776199,"""0""",11.0,2.375,12.1999998093,0.0
1614971002969151973,,146576,,1614898975,588782189,"""0""",11.0,0.625,12.1999998093,0.0
1614971003011658906,,146577,,1614898975,638781251,"""0""",11.0,1.375,12.25,0.0
1614971003053232908,,146578,,1614898975,688789480,"""0""",11.0,3.875,12.25,0.0
1614971003105168104,,146579,,1614898975,738829324,"""0""",11.0,4.0,12.25,0.0
1614971003158642053,,146580,,1614898975,788894428,"""0""",12.0,3.75,12.1000003815,0.0
1614971003199521064,,146581,,1614898975,838778855,"""0""",12.0,4.0,12.1000003815,0.0
1614971003276535987,,146582,,1614898975,888867657,"""0""",12.0,4.375,12.1000003815,0.0
1614971003321744918,,146583,,1614898975,938824272,"""0""",12.0,4.5,12.0,0.0
1614971003385140895,,146584,,1614898975,988775678,"""0""",12.0,4.5,12.0,0.0
1614971003442995071,,146585,,1614898976,38777449,"""0""",12.0,4.875,12.0,0.0
1614971003530972003,,146586,,1614898976,88887709,"""0""",12.0,4.875,12.0,0.0
1614971003531081914,,146587,,1614898976,138802345,"""0""",11.0,4.625,12.0500001907,0.0
1614971003596849918,,146588,,1614898976,188799897,"""0""",11.0,4.625,12.0500001907,0.0
1614971003666815996,,146589,,1614898976,238916303,"""0""",11.0,4.5,12.0500001907,0.0
1614971003666917085,,146590,,1614898976,288780678,"""0""",12.0,4.375,12.0500001907,0.0
1614971003718405961,,146591,,1614898976,338772345,"""0""",12.0,4.125,12.0500001907,0.0
1614971003792637109,,146592,,1614898976,388800938,"""0""",12.0,4.0,12.0500001907,0.0
1614971003834708929,,146593,,1614898976,438801511,"""0""",11.0,3.875,12.1000003815,0.0
1614971003899935007,,146594,,1614898976,488765626,"""0""",11.0,3.875,12.1000003815,0.0
1614971003968751907,,146595,,1614898976,539719272,"""0""",11.0,3.875,12.1000003815,0.0
1614971003968858003,,146596,,1614898976,588885574,"""0""",11.0,3.875,12.0500001907,0.0
1614971004025347948,,146597,,1614898976,638896824,"""0""",11.0,3.75,12.0500001907,0.0
1614971004072557926,,146598,,1614898976,688767344,"""0""",11.0,3.875,12.0500001907,0.0
1614971004125797986,,146599,,1614898976,738889428,"""0""",12.0,3.875,12.1000003815,0.0
1614971004223572969,,146600,,1614898976,788751042,"""0""",12.0,3.875,12.1000003815,0.0
1614971004223797082,,146601,,1614898976,838772084,"""0""",12.0,3.875,12.1000003815,0.0
1614971004264995098,,146602,,1614898976,889005157,"""0""",12.0,4.0,12.1000003815,0.0
1614971004346744060,,146603,,1614898976,938901199,"""0""",11.0,4.0,12.0500001907,0.0
1614971004392266035,,146604,,1614898976,988822865,"""0""",11.0,3.875,12.0500001907,0.0
1614971004460654020,,146605,,1614898977,38841667,"""0""",11.0,3.875,12.0500001907,0.0
1614971004504250049,,146606,,1614898977,88888230,"""0""",11.0,3.875,12.0500001907,0.0
1614971004550228118,,146607,,1614898977,138797136,"""0""",11.0,3.875,12.0500001907,0.0
1614971004600806951,,146608,,1614898977,188768646,"""0""",11.0,4.0,12.0500001907,0.0
1614971004654639959,,146609,,1614898977,238877136,"""0""",12.0,4.0,12.1000003815,0.0
1614971004722496032,,146610,,1614898977,288894844,"""0""",12.0,4.125,12.1000003815,0.0
1614971004722913026,,146611,,1614898977,338899792,"""0""",12.0,4.0,12.1000003815,0.0
1614971004844032049,,146612,,1614898977,388816511,"""0""",11.0,4.0,12.0500001907,0.0
1614971004844135999,,146613,,1614898977,438905573,"""0""",11.0,3.875,12.0500001907,0.0
1614971004896141052,,146614,,1614898977,489147084,"""0""",11.0,4.0,12.0500001907,0.0
1614971004925189018,,146615,,1614898977,538898855,"""0""",12.0,4.0,12.0500001907,0.0
1614971004960401058,,146616,,1614898977,588814063,"""0""",12.0,4.375,12.0500001907,0.0
1614971005029808998,,146617,,1614898977,638781875,"""0""",12.0,4.25,12.0500001907,0.0
1614971005083384990,,146618,,1614898977,689146355,"""0""",12.0,4.0,12.0500001907,0.0
1614971005123126983,,146619,,1614898977,738774219,"""0""",12.0,3.875,12.1000003815,0.0
1614971005225677967,,146620,,1614898977,788960104,"""0""",12.0,3.875,12.1000003815,0.0
1614971005225778102,,146621,,1614898977,838836094,"""0""",12.0,4.0,12.1000003815,0.0
1614971005300841093,,146622,,1614898977,888849636,"""0""",12.0,4.0,12.1000003815,0.0
1614971005363897085,,146623,,1614898977,938822709,"""0""",12.0,4.0,12.1000003815,0.0
1614971005451930999,,146624,,1614898977,988895156,"""0""",12.0,3.875,12.1000003815,0.0
1614971005452038049,,146625,,1614898978,38838438,"""0""",11.0,3.875,12.1000003815,0.0
1614971005496541976,,146626,,1614898978,89202865,"""0""",11.0,3.875,12.1000003815,0.0
1614971005561721086,,146627,,1614898978,138757813,"""0""",11.0,3.75,12.1000003815,0.0
1614971005624624013,,146628,,1614898978,188777917,"""0""",11.0,3.75,12.1000003815,0.0
1614971005624747991,,146629,,1614898978,238773125,"""0""",11.0,3.375,12.1000003815,0.0
1614971005674643039,,146630,,1614898978,288787136,"""0""",11.0,3.75,12.1000003815,0.0
1614971005730593919,,146631,,1614898978,338751458,"""0""",12.0,3.375,12.1499996185,0.0
1614971005831010103,,146632,,1614898978,388896979,"""0""",12.0,3.375,12.1499996185,0.0
