rosbagTimestamp,header,seq,stamp,secs,nsecs,frame_id,Temperature,OutputCurrent,BusVoltage,ClosedLoopError
1614965333759869098,,33202,,1614893306,888796903,"""0""",12.0,0.0,12.3999996185,0.0
1614965333817959070,,33203,,1614893306,938773153,"""0""",12.0,0.0,12.3999996185,0.0
1614965333860141038,,33204,,1614893306,988788309,"""0""",12.0,0.0,12.3999996185,0.0
1614965333913495063,,33205,,1614893307,38821330,"""0""",12.0,0.0,12.3999996185,0.0
1614965333960479974,,33206,,1614893307,88804820,"""0""",12.0,0.0,12.3999996185,0.0
1614965334018367052,,33207,,1614893307,138870705,"""0""",12.0,0.0,12.3999996185,0.0
1614965334061654090,,33208,,1614893307,188874299,"""0""",12.0,0.0,12.3999996185,0.0
1614965334128545045,,33209,,1614893307,238803622,"""0""",12.0,0.0,12.3999996185,0.0
1614965334161442041,,33210,,1614893307,288777268,"""0""",12.0,0.0,12.3999996185,0.0
1614965334227046012,,33211,,1614893307,338829403,"""0""",12.0,0.0,12.3999996185,0.0
1614965334263035058,,33212,,1614893307,388769768,"""0""",12.0,0.0,12.3999996185,0.0
1614965334322902917,,33213,,1614893307,438817215,"""0""",12.0,0.0,12.3999996185,0.0
1614965334362817049,,33214,,1614893307,488846434,"""0""",12.0,0.0,12.3999996185,0.0
1614965334412312984,,33215,,1614893307,538764872,"""0""",12.0,0.0,12.3999996185,0.0
1614965334466310024,,33216,,1614893307,588865340,"""0""",12.0,0.0,12.3999996185,0.0
1614965334519047021,,33217,,1614893307,638778517,"""0""",12.0,0.0,12.3999996185,0.0
1614965334560959100,,33218,,1614893307,688806278,"""0""",12.0,0.0,12.3999996185,0.0
1614965334623274087,,33219,,1614893307,738846955,"""0""",12.0,0.0,12.3999996185,0.0
1614965334664016962,,33220,,1614893307,788821069,"""0""",12.0,0.0,12.3999996185,0.0
1614965334726687908,,33221,,1614893307,838776538,"""0""",12.0,0.0,12.3999996185,0.0
1614965334759386062,,33222,,1614893307,888781434,"""0""",12.0,0.0,12.3999996185,0.0
1614965334826268911,,33223,,1614893307,938865184,"""0""",12.0,0.0,12.3999996185,0.0
1614965334870289087,,33224,,1614893307,988851174,"""0""",12.0,0.0,12.3999996185,0.0
1614965334926415920,,33225,,1614893308,38770496,"""0""",12.0,0.0,12.3999996185,0.0
1614965334965423107,,33226,,1614893308,88777163,"""0""",12.0,0.0,12.3999996185,0.0
1614965335031502962,,33227,,1614893308,139491851,"""0""",12.0,0.0,12.3999996185,0.0
1614965335067286968,,33228,,1614893308,188779507,"""0""",12.0,0.0,12.3999996185,0.0
1614965335124517917,,33229,,1614893308,238807007,"""0""",12.0,0.0,12.3999996185,0.0
1614965335165606975,,33230,,1614893308,288795080,"""0""",12.0,0.0,12.3999996185,0.0
1614965335218899011,,33231,,1614893308,338939246,"""0""",12.0,0.0,12.3999996185,0.0
1614965335268837928,,33232,,1614893308,388980965,"""0""",12.0,0.0,12.3999996185,0.0
1614965335323334932,,33233,,1614893308,438802736,"""0""",12.0,0.0,12.3999996185,0.0
1614965335372821092,,33234,,1614893308,488804507,"""0""",12.0,0.0,12.3999996185,0.0
1614965335421757936,,33235,,1614893308,538782423,"""0""",12.0,0.0,12.3999996185,0.0
1614965335463222026,,33236,,1614893308,588770653,"""0""",12.0,0.0,12.3999996185,0.0
1614965335534552097,,33237,,1614893308,638874923,"""0""",12.0,0.0,12.3999996185,0.0
1614965335578680992,,33238,,1614893308,688778621,"""0""",12.0,0.0,12.3999996185,0.0
1614965335626836061,,33239,,1614893308,738746382,"""0""",12.0,0.0,12.3999996185,0.0
1614965335669085979,,33240,,1614893308,788781382,"""0""",12.0,0.0,12.3999996185,0.0
1614965335721059083,,33241,,1614893308,838772632,"""0""",12.0,0.0,12.3999996185,0.0
1614965335761172056,,33242,,1614893308,888796017,"""0""",12.0,0.0,12.3999996185,0.0
1614965335823555946,,33243,,1614893308,938773100,"""0""",12.0,0.0,12.3999996185,0.0
1614965335871758937,,33244,,1614893308,988787059,"""0""",12.0,0.0,12.3999996185,0.0
1614965335927854061,,33245,,1614893309,38795913,"""0""",12.0,0.0,12.3999996185,0.0
1614965335966543912,,33246,,1614893309,88793881,"""0""",12.0,0.0,12.3999996185,0.0
1614965336026391029,,33247,,1614893309,138960496,"""0""",12.0,0.0,12.3999996185,0.0
1614965336070684909,,33248,,1614893309,188875392,"""0""",12.0,0.0,12.3999996185,0.0
1614965336126701116,,33249,,1614893309,238771434,"""0""",12.0,0.0,12.3999996185,0.0
1614965336178215026,,33250,,1614893309,288833256,"""0""",12.0,0.0,12.3999996185,0.0
1614965336227318048,,33251,,1614893309,338842267,"""0""",12.0,0.0,12.3999996185,0.0
1614965336273901939,,33252,,1614893309,388790965,"""0""",12.0,0.0,12.3999996185,0.0
1614965336320998907,,33253,,1614893309,438776850,"""0""",12.0,0.0,12.3999996185,0.0
1614965336369961977,,33254,,1614893309,488810808,"""0""",12.0,0.0,12.3999996185,0.0
1614965336424341917,,33255,,1614893309,538839402,"""0""",12.0,0.0,12.3999996185,0.0
1614965336468272924,,33256,,1614893309,588750965,"""0""",12.0,0.0,12.3999996185,0.0
1614965336517891883,,33257,,1614893309,638814871,"""0""",12.0,0.0,12.3999996185,0.0
1614965336572889089,,33258,,1614893309,688790444,"""0""",12.0,0.0,12.3999996185,0.0
1614965336619641065,,33259,,1614893309,738753725,"""0""",12.0,0.0,12.3999996185,0.0
1614965336674519062,,33260,,1614893309,789440444,"""0""",12.0,0.0,12.3999996185,0.0
1614965336730674982,,33261,,1614893309,838774298,"""0""",12.0,0.0,12.3999996185,0.0
1614965336777482986,,33262,,1614893309,888816902,"""0""",12.0,0.0,12.3999996185,0.0
1614965336830734968,,33263,,1614893309,938967944,"""0""",12.0,0.0,12.3999996185,0.0
1614965336872570991,,33264,,1614893309,988788933,"""0""",12.0,0.0,12.3999996185,0.0
1614965336919715881,,33265,,1614893310,38789662,"""0""",12.0,0.0,12.3999996185,0.0
1614965336972078084,,33266,,1614893310,88779194,"""0""",12.0,0.0,12.3999996185,0.0
1614965337029588937,,33267,,1614893310,138810027,"""0""",12.0,0.0,12.3999996185,0.0
1614965337076287984,,33268,,1614893310,188778256,"""0""",12.0,0.0,12.3999996185,0.0
1614965337131607055,,33269,,1614893310,238762110,"""0""",12.0,0.0,12.3999996185,0.0
1614965337173820972,,33270,,1614893310,288775444,"""0""",12.0,0.0,12.3999996185,0.0
1614965337226599931,,33271,,1614893310,338751902,"""0""",12.0,0.0,12.3999996185,0.0
1614965337278558969,,33272,,1614893310,388860704,"""0""",12.0,0.0,12.3999996185,0.0
1614965337333461999,,33273,,1614893310,438762527,"""0""",12.0,0.0,12.3999996185,0.0
1614965337376630067,,33274,,1614893310,488917162,"""0""",12.0,0.0,12.3999996185,0.0
1614965337439152956,,33275,,1614893310,538788412,"""0""",12.0,0.0,12.3999996185,0.0
1614965337486366033,,33276,,1614893310,589095287,"""0""",12.0,0.0,12.3999996185,0.0
1614965337528040885,,33277,,1614893310,638894402,"""0""",12.0,0.0,12.3999996185,0.0
1614965337573905944,,33278,,1614893310,688834818,"""0""",12.0,0.0,12.3999996185,0.0
1614965337632725000,,33279,,1614893310,738850443,"""0""",12.0,0.0,12.3999996185,0.0
1614965337673641920,,33280,,1614893310,788881693,"""0""",12.0,0.0,12.3999996185,0.0
1614965337731091022,,33281,,1614893310,838781225,"""0""",12.0,0.0,12.3999996185,0.0
1614965337768513917,,33282,,1614893310,888765391,"""0""",12.0,0.0,12.3999996185,0.0
1614965337817975044,,33283,,1614893310,938798360,"""0""",12.0,0.0,12.3999996185,0.0
1614965337867137908,,33284,,1614893310,988783777,"""0""",12.0,0.0,12.3999996185,0.0
1614965337926266908,,33285,,1614893311,38775443,"""0""",12.0,0.0,12.3999996185,0.0
1614965337967963933,,33286,,1614893311,88791224,"""0""",12.0,0.0,12.3999996185,0.0
1614965338029134035,,33287,,1614893311,138790808,"""0""",12.0,0.0,12.3999996185,0.0
1614965338070465087,,33288,,1614893311,188784818,"""0""",12.0,0.0,12.3999996185,0.0
1614965338133272886,,33289,,1614893311,238755704,"""0""",12.0,0.0,12.3999996185,0.0
1614965338180630922,,33290,,1614893311,288778256,"""0""",12.0,0.0,12.3999996185,0.0
1614965338230258941,,33291,,1614893311,338858672,"""0""",12.0,0.0,12.3999996185,0.0
1614965338283622026,,33292,,1614893311,388805547,"""0""",12.0,0.0,12.3999996185,0.0
1614965338336647987,,33293,,1614893311,438764558,"""0""",12.0,0.0,12.3999996185,0.0
1614965338384588956,,33294,,1614893311,488816901,"""0""",12.0,0.0,12.3999996185,0.0
1614965338431523084,,33295,,1614893311,538794922,"""0""",12.0,0.0,12.3999996185,0.0
1614965338483355998,,33296,,1614893311,588816120,"""0""",12.0,0.0,12.3999996185,0.0
1614965338530438899,,33297,,1614893311,638819297,"""0""",12.0,0.0,12.3999996185,0.0
1614965338583283901,,33298,,1614893311,688816172,"""0""",12.0,0.0,12.3999996185,0.0
1614965338649624109,,33299,,1614893311,738777266,"""0""",12.0,0.0,12.3999996185,0.0
1614965338687685966,,33300,,1614893311,788798568,"""0""",12.0,0.0,12.3999996185,0.0
1614965338744730949,,33301,,1614893311,838817058,"""0""",12.0,0.0,12.3999996185,0.0
1614965338774298906,,33302,,1614893311,888849297,"""0""",12.0,0.0,12.3999996185,0.0
1614965338828876018,,33303,,1614893311,938883516,"""0""",12.0,0.0,12.3999996185,0.0
1614965338876888036,,33304,,1614893311,988967682,"""0""",12.0,0.0,12.3999996185,0.0
1614965338946325063,,33305,,1614893312,38780547,"""0""",12.0,0.0,12.3999996185,0.0
1614965338972250938,,33306,,1614893312,88803203,"""0""",12.0,0.0,12.3999996185,0.0
1614965339035253047,,33307,,1614893312,138778255,"""0""",12.0,0.0,12.3999996185,0.0
1614965339080499887,,33308,,1614893312,188780130,"""0""",12.0,0.0,12.3999996185,0.0
1614965339130733013,,33309,,1614893312,238822214,"""0""",12.0,0.0,12.3999996185,0.0
1614965339175540924,,33310,,1614893312,288843255,"""0""",12.0,0.0,12.3999996185,0.0
1614965339230717897,,33311,,1614893312,338767109,"""0""",12.0,0.0,12.3999996185,0.0
1614965339281569957,,33312,,1614893312,388836328,"""0""",12.0,0.0,12.3999996185,0.0
1614965339326284885,,33313,,1614893312,438865755,"""0""",12.0,0.0,12.3999996185,0.0
1614965339385926961,,33314,,1614893312,488900078,"""0""",12.0,0.0,12.3999996185,0.0
1614965339446341037,,33315,,1614893312,538764297,"""0""",12.0,0.0,12.3999996185,0.0
1614965339491661071,,33316,,1614893312,588853620,"""0""",12.0,0.0,12.3999996185,0.0
1614965339574714899,,33317,,1614893312,638759922,"""0""",12.0,0.0,12.3999996185,0.0
1614965339631575107,,33318,,1614893312,688785651,"""0""",12.0,0.0,12.3999996185,0.0
1614965339669945955,,33319,,1614893312,738762995,"""0""",12.0,0.0,12.3999996185,0.0
1614965339711702108,,33320,,1614893312,788824245,"""0""",12.0,15.125,12.3999996185,0.0
1614965339757010936,,33321,,1614893312,838760807,"""0""",12.0,10.5,11.8000001907,0.0
1614965339842958927,,33322,,1614893312,888855286,"""0""",12.0,10.75,11.8000001907,0.0
1614965339843187093,,33323,,1614893312,938768255,"""0""",12.0,9.25,11.8000001907,0.0
1614965339882319927,,33324,,1614893312,988895130,"""0""",12.0,9.25,11.8000001907,0.0
1614965339943459033,,33325,,1614893313,38798203,"""0""",12.0,8.5,11.8500003815,0.0
1614965340006827116,,33326,,1614893313,88779401,"""0""",12.0,7.5,11.8500003815,0.0
1614965340062731027,,33327,,1614893313,138902630,"""0""",12.0,6.875,11.8500003815,0.0
1614965340117808103,,33328,,1614893313,188880599,"""0""",12.0,3.375,12.1000003815,0.0
1614965340153492927,,33329,,1614893313,238777578,"""0""",12.0,2.0,12.1000003815,0.0
1614965340189735889,,33330,,1614893313,288912265,"""0""",12.0,2.0,12.1000003815,0.0
1614965340246952056,,33331,,1614893313,338799765,"""0""",12.0,3.0,12.1499996185,0.0
1614965340280829906,,33332,,1614893313,388811588,"""0""",12.0,4.125,12.1499996185,0.0
1614965340329041957,,33333,,1614893313,438787682,"""0""",12.0,3.75,12.1499996185,0.0
1614965340384255886,,33334,,1614893313,488765807,"""0""",12.0,5.125,12.1000003815,0.0
1614965340454308986,,33335,,1614893313,538978046,"""0""",12.0,5.5,12.1000003815,0.0
1614965340492018938,,33336,,1614893313,588809765,"""0""",12.0,4.75,12.1000003815,0.0
1614965340532661914,,33337,,1614893313,638830130,"""0""",12.0,7.0,12.0,0.0
1614965340582110881,,33338,,1614893313,688787994,"""0""",12.0,6.875,12.0,0.0
1614965340634602069,,33339,,1614893313,738782369,"""0""",12.0,4.125,12.0,0.0
1614965340676831960,,33340,,1614893313,789093515,"""0""",12.0,3.0,12.0,0.0
1614965340748348951,,33341,,1614893313,838780494,"""0""",12.0,3.0,12.1000003815,0.0
1614965340780548095,,33342,,1614893313,888909765,"""0""",12.0,2.0,12.1000003815,0.0
1614965340834755897,,33343,,1614893313,938787734,"""0""",12.0,1.75,12.1000003815,0.0
1614965340884105920,,33344,,1614893313,988795807,"""0""",12.0,1.375,12.1999998093,0.0
1614965340929625034,,33345,,1614893314,38758828,"""0""",12.0,1.375,12.1999998093,0.0
1614965340982367038,,33346,,1614893314,88816796,"""0""",12.0,1.0,12.1999998093,0.0
1614965341045980930,,33347,,1614893314,138799973,"""0""",12.0,1.0,12.25,0.0
1614965341080962896,,33348,,1614893314,188861744,"""0""",12.0,1.75,12.25,0.0
1614965341132153987,,33349,,1614893314,238812473,"""0""",12.0,1.75,12.25,0.0
1614965341179619073,,33350,,1614893314,288807630,"""0""",12.0,1.0,12.25,0.0
1614965341229187011,,33351,,1614893314,338827057,"""0""",12.0,2.75,12.25,0.0
1614965341287332057,,33352,,1614893314,388841432,"""0""",12.0,3.75,12.25,0.0
1614965341381871938,,33353,,1614893314,438819557,"""0""",12.0,3.0,12.1499996185,0.0
1614965341382078886,,33354,,1614893314,488824140,"""0""",12.0,5.125,12.1499996185,0.0
1614965341429155111,,33355,,1614893314,538765598,"""0""",12.0,6.125,12.1499996185,0.0
1614965341490710973,,33356,,1614893314,588922004,"""0""",12.0,3.75,12.1499996185,0.0
1614965341538474082,,33357,,1614893314,638775650,"""0""",12.0,3.75,12.1000003815,0.0
1614965341589823007,,33358,,1614893314,688780963,"""0""",12.0,3.375,12.1000003815,0.0
1614965341645503997,,33359,,1614893314,738808306,"""0""",12.0,2.75,12.1000003815,0.0
1614965341702099084,,33360,,1614893314,788838671,"""0""",12.0,3.75,12.1499996185,0.0
1614965341733102083,,33361,,1614893314,838781536,"""0""",12.0,2.75,12.1499996185,0.0
1614965341792124032,,33362,,1614893314,888788879,"""0""",12.0,3.375,12.1499996185,0.0
1614965341831253051,,33363,,1614893314,938760911,"""0""",12.0,5.5,12.0500001907,0.0
1614965341889270067,,33364,,1614893314,988850598,"""0""",12.0,4.125,12.0500001907,0.0
1614965341935478925,,33365,,1614893315,38812473,"""0""",12.0,5.5,12.0500001907,0.0
1614965341995639085,,33366,,1614893315,88777577,"""0""",12.0,6.875,12.0,0.0
1614965342047651052,,33367,,1614893315,138772004,"""0""",12.0,5.75,12.0,0.0
1614965342086956024,,33368,,1614893315,188820962,"""0""",12.0,4.125,12.0,0.0
1614965342144218921,,33369,,1614893315,238802317,"""0""",12.0,6.75,11.9499998093,0.0
1614965342184022903,,33370,,1614893315,288783827,"""0""",12.0,5.5,11.9499998093,0.0
1614965342259077072,,33371,,1614893315,338873462,"""0""",12.0,4.375,11.9499998093,0.0
1614965342312936067,,33372,,1614893315,389522369,"""0""",12.0,4.375,12.0500001907,0.0
1614965342384562015,,33373,,1614893315,438781535,"""0""",12.0,5.125,12.0500001907,0.0
1614965342384701967,,33374,,1614893315,489545285,"""0""",12.0,4.375,12.0500001907,0.0
1614965342436645030,,33375,,1614893315,538758254,"""0""",12.0,4.125,12.0500001907,0.0
1614965342496047973,,33376,,1614893315,588798098,"""0""",12.0,4.75,12.1000003815,0.0
1614965342537823915,,33377,,1614893315,638798566,"""0""",12.0,5.75,12.1000003815,0.0
1614965342588835954,,33378,,1614893315,688775598,"""0""",12.0,4.75,12.1000003815,0.0
1614965342633481025,,33379,,1614893315,738781744,"""0""",12.0,4.125,12.1000003815,0.0
1614965342691564083,,33380,,1614893315,788782369,"""0""",12.0,4.375,12.1000003815,0.0
1614965342730496883,,33381,,1614893315,838773306,"""0""",12.0,4.75,12.1000003815,0.0
1614965342780085086,,33382,,1614893315,888777368,"""0""",12.0,4.75,12.1000003815,0.0
1614965342860924005,,33383,,1614893315,938764973,"""0""",12.0,4.125,12.1000003815,0.0
1614965342906470060,,33384,,1614893315,988800546,"""0""",12.0,6.75,12.1000003815,0.0
1614965342958456993,,33385,,1614893316,38805233,"""0""",12.0,7.0,12.0,0.0
1614965342997385025,,33386,,1614893316,88773827,"""0""",12.0,6.5,12.0,0.0
1614965343080954074,,33387,,1614893316,138805389,"""0""",12.0,6.625,12.0,0.0
1614965343151196956,,33388,,1614893316,188750598,"""0""",12.0,4.125,12.0,0.0
1614965343151456117,,33389,,1614893316,238789660,"""0""",12.0,4.75,12.1000003815,0.0
1614965343192153930,,33390,,1614893316,288823931,"""0""",12.0,6.125,12.1000003815,0.0
1614965343271424055,,33391,,1614893316,338776483,"""0""",12.0,4.75,12.1000003815,0.0
1614965343310065031,,33392,,1614893316,388834556,"""0""",12.0,5.125,12.1000003815,0.0
1614965343353811979,,33393,,1614893316,438794868,"""0""",12.0,4.375,12.1000003815,0.0
1614965343396641016,,33394,,1614893316,488797316,"""0""",12.0,2.75,12.1000003815,0.0
1614965343468156099,,33395,,1614893316,538853514,"""0""",12.0,3.0,12.1000003815,0.0
1614965343524393081,,33396,,1614893316,588782837,"""0""",12.0,4.125,12.1000003815,0.0
1614965343581490039,,33397,,1614893316,638836431,"""0""",12.0,2.75,12.1000003815,0.0
1614965343623754978,,33398,,1614893316,688862785,"""0""",12.0,1.75,12.1999998093,0.0
1614965343703109979,,33399,,1614893316,738889816,"""0""",12.0,2.0,12.1999998093,0.0
1614965343703221082,,33400,,1614893316,788795754,"""0""",12.0,3.375,12.1999998093,0.0
1614965343762406110,,33401,,1614893316,838890441,"""0""",12.0,3.0,12.1499996185,0.0
1614965343812817096,,33402,,1614893316,888790076,"""0""",12.0,2.375,12.1499996185,0.0
1614965343858674049,,33403,,1614893316,938810337,"""0""",12.0,4.125,12.1499996185,0.0
1614965343910317897,,33404,,1614893316,988857524,"""0""",12.0,4.375,12.1499996185,0.0
1614965343940680980,,33405,,1614893317,38837212,"""0""",12.0,3.75,12.1000003815,0.0
1614965343986917018,,33406,,1614893317,88773722,"""0""",12.0,5.125,12.1000003815,0.0
1614965344043488025,,33407,,1614893317,138802056,"""0""",12.0,5.125,12.1000003815,0.0
1614965344118000030,,33408,,1614893317,188883878,"""0""",12.0,4.125,12.1000003815,0.0
1614965344163217067,,33409,,1614893317,238885389,"""0""",12.0,3.75,12.1000003815,0.0
1614965344223035097,,33410,,1614893317,288765858,"""0""",12.0,4.75,12.1000003815,0.0
1614965344261918067,,33411,,1614893317,338842003,"""0""",11.0,4.75,12.0500001907,0.0
1614965344319314002,,33412,,1614893317,388783878,"""0""",11.0,4.125,12.0500001907,0.0
1614965344359730958,,33413,,1614893317,438942628,"""0""",11.0,3.75,12.0500001907,0.0
1614965344398751974,,33414,,1614893317,488779295,"""0""",12.0,3.375,12.1000003815,0.0
1614965344441654920,,33415,,1614893317,538770597,"""0""",12.0,4.125,12.1000003815,0.0
1614965344484513044,,33416,,1614893317,588813462,"""0""",12.0,6.875,12.1000003815,0.0
1614965344538552045,,33417,,1614893317,638766847,"""0""",11.0,7.0,12.0,0.0
1614965344588871955,,33418,,1614893317,688765857,"""0""",11.0,7.25,12.0,0.0
1614965344642978906,,33419,,1614893317,738822107,"""0""",11.0,7.125,12.0,0.0
1614965344690963029,,33420,,1614893317,788871587,"""0""",11.0,7.25,12.0,0.0
1614965344739223003,,33421,,1614893317,838848826,"""0""",12.0,8.125,11.8500003815,0.0
1614965344780780076,,33422,,1614893317,888868878,"""0""",12.0,7.5,11.8500003815,0.0
1614965344833753108,,33423,,1614893317,938810232,"""0""",12.0,7.5,11.8500003815,0.0
1614965344894862890,,33424,,1614893317,988873566,"""0""",11.0,8.625,11.8000001907,0.0
1614965344951119899,,33425,,1614893318,38835128,"""0""",11.0,9.0,11.8000001907,0.0
1614965344992001056,,33426,,1614893318,88794763,"""0""",11.0,8.75,11.8000001907,0.0
1614965345033010005,,33427,,1614893318,138783357,"""0""",11.0,8.125,11.8500003815,0.0
1614965345088032960,,33428,,1614893318,188882211,"""0""",11.0,8.0,11.8500003815,0.0
1614965345163855075,,33429,,1614893318,238785701,"""0""",11.0,8.375,11.8500003815,0.0
1614965345202526092,,33430,,1614893318,288845805,"""0""",11.0,8.125,11.8500003815,0.0
1614965345251980066,,33431,,1614893318,338831951,"""0""",11.0,7.875,11.8500003815,0.0
1614965345299880981,,33432,,1614893318,388762836,"""0""",11.0,7.75,11.8500003815,0.0
1614965345365174055,,33433,,1614893318,438798045,"""0""",11.0,8.0,11.8500003815,0.0
1614965345431490898,,33434,,1614893318,488800909,"""0""",11.0,8.375,11.8500003815,0.0
1614965345491689920,,33435,,1614893318,538791690,"""0""",11.0,8.375,11.8500003815,0.0
1614965345552998065,,33436,,1614893318,589047263,"""0""",11.0,8.625,11.75,0.0
1614965345553191900,,33437,,1614893318,638814555,"""0""",11.0,9.0,11.75,0.0
1614965345585660934,,33438,,1614893318,688955128,"""0""",11.0,8.25,11.75,0.0
1614965345634870052,,33439,,1614893318,738844190,"""0""",11.0,8.25,11.75,0.0
1614965345684622049,,33440,,1614893318,788780753,"""0""",11.0,8.375,11.75,0.0
1614965345740632057,,33441,,1614893318,838799972,"""0""",11.0,8.375,11.75,0.0
1614965345791431903,,33442,,1614893318,888793461,"""0""",11.0,9.375,11.75,0.0
1614965345856343030,,33443,,1614893318,938771690,"""0""",11.0,9.125,11.6999998093,0.0
1614965345891190052,,33444,,1614893318,988903357,"""0""",11.0,8.375,11.6999998093,0.0
1614965345931557893,,33445,,1614893319,38898721,"""0""",11.0,7.875,11.6999998093,0.0
1614965346005167007,,33446,,1614893319,88791899,"""0""",11.0,7.625,11.8500003815,0.0
1614965346034904956,,33447,,1614893319,138805440,"""0""",11.0,7.5,11.8500003815,0.0
1614965346096973896,,33448,,1614893319,188799659,"""0""",11.0,7.25,11.8500003815,0.0
1614965346151546955,,33449,,1614893319,238782419,"""0""",11.0,7.125,12.0,0.0
1614965346202471017,,33450,,1614893319,288897940,"""0""",11.0,6.875,12.0,0.0
1614965346241364955,,33451,,1614893319,338837888,"""0""",11.0,6.75,12.0,0.0
1614965346289143085,,33452,,1614893319,388797055,"""0""",11.0,4.75,12.0500001907,0.0
1614965346332022905,,33453,,1614893319,438758200,"""0""",11.0,2.75,12.0500001907,0.0
1614965346388144969,,33454,,1614893319,488964398,"""0""",11.0,1.75,12.0500001907,0.0
1614965346465980052,,33455,,1614893319,538852940,"""0""",11.0,1.375,12.0500001907,0.0
1614965346513741016,,33456,,1614893319,588785857,"""0""",11.0,1.0,12.1999998093,0.0
1614965346540534973,,33457,,1614893319,638770127,"""0""",11.0,1.0,12.1999998093,0.0
1614965346585480928,,33458,,1614893319,688772055,"""0""",11.0,1.0,12.1999998093,0.0
1614965346645041942,,33459,,1614893319,738803565,"""0""",11.0,1.0,12.1999998093,0.0
1614965346687942028,,33460,,1614893319,788911429,"""0""",11.0,1.0,12.1999998093,0.0
1614965346773422956,,33461,,1614893319,838825284,"""0""",11.0,0.625,12.1999998093,0.0
1614965346809067964,,33462,,1614893319,889541065,"""0""",12.0,0.625,12.25,0.0
1614965346900233030,,33463,,1614893319,938787471,"""0""",12.0,0.625,12.25,0.0
1614965346900361061,,33464,,1614893319,988783252,"""0""",12.0,1.0,12.25,0.0
1614965346934529066,,33465,,1614893320,38864398,"""0""",11.0,1.0,12.1999998093,0.0
1614965347035281896,,33466,,1614893320,88807523,"""0""",11.0,1.75,12.1999998093,0.0
1614965347087019920,,33467,,1614893320,139005231,"""0""",11.0,2.75,12.1999998093,0.0
1614965347127433061,,33468,,1614893320,189078356,"""0""",11.0,2.75,12.1999998093,0.0
1614965347171648025,,33469,,1614893320,238760336,"""0""",11.0,1.375,12.1999998093,0.0
1614965347217250108,,33470,,1614893320,288777002,"""0""",11.0,1.75,12.1999998093,0.0
1614965347263609886,,33471,,1614893320,338782158,"""0""",11.0,5.75,12.1999998093,0.0
1614965347322510004,,33472,,1614893320,388855648,"""0""",11.0,6.875,11.9499998093,0.0
1614965347364634990,,33473,,1614893320,438771742,"""0""",11.0,5.5,11.9499998093,0.0
1614965347419133901,,33474,,1614893320,488785752,"""0""",11.0,6.875,11.9499998093,0.0
1614965347471221923,,33475,,1614893320,538788617,"""0""",11.0,7.0,12.0,0.0
1614965347539278984,,33476,,1614893320,588862940,"""0""",11.0,6.75,12.0,0.0
1614965347588526010,,33477,,1614893320,638791846,"""0""",11.0,7.125,12.0,0.0
1614965347646507024,,33478,,1614893320,688773096,"""0""",11.0,7.0,11.9499998093,0.0
1614965347646630048,,33479,,1614893320,738792575,"""0""",11.0,7.25,11.9499998093,0.0
1614965347688914060,,33480,,1614893320,788875023,"""0""",11.0,7.625,11.9499998093,0.0
1614965347734733104,,33481,,1614893320,838770960,"""0""",11.0,7.25,11.9499998093,0.0
1614965347785356044,,33482,,1614893320,889200075,"""0""",11.0,7.625,11.9499998093,0.0
1614965347845808982,,33483,,1614893320,938777731,"""0""",11.0,7.625,11.9499998093,0.0
1614965347952228069,,33484,,1614893320,988907731,"""0""",11.0,7.125,11.9499998093,0.0
1614965347952398061,,33485,,1614893321,38775596,"""0""",11.0,7.375,11.8999996185,0.0
1614965347992362976,,33486,,1614893321,88821637,"""0""",11.0,7.5,11.8999996185,0.0
1614965348050533056,,33487,,1614893321,138780804,"""0""",11.0,7.375,11.8999996185,0.0
1614965348093692064,,33488,,1614893321,188819398,"""0""",11.0,7.25,11.8999996185,0.0
1614965348139894008,,33489,,1614893321,238817939,"""0""",11.0,7.125,11.8999996185,0.0
1614965348192626953,,33490,,1614893321,288852262,"""0""",11.0,7.25,11.8999996185,0.0
1614965348256287097,,33491,,1614893321,338771064,"""0""",11.0,7.125,11.8999996185,0.0
1614965348317013025,,33492,,1614893321,388814293,"""0""",11.0,7.0,11.8999996185,0.0
1614965348388045072,,33493,,1614893321,438801898,"""0""",11.0,7.0,11.8999996185,0.0
1614965348431545019,,33494,,1614893321,489107575,"""0""",11.0,6.75,12.0,0.0
1614965348471786975,,33495,,1614893321,538791689,"""0""",11.0,6.75,12.0,0.0
1614965348528973102,,33496,,1614893321,588978148,"""0""",11.0,6.75,12.0,0.0
1614965348569550991,,33497,,1614893321,638895804,"""0""",11.0,6.125,12.0,0.0
1614965348604389905,,33498,,1614893321,688807210,"""0""",11.0,6.75,12.0,0.0
1614965348641505002,,33499,,1614893321,738819814,"""0""",11.0,6.125,12.0,0.0
1614965348692006111,,33500,,1614893321,788771897,"""0""",11.0,5.75,12.0,0.0
1614965348740947008,,33501,,1614893321,838807262,"""0""",11.0,6.75,12.0,0.0
1614965348791125059,,33502,,1614893321,888785022,"""0""",11.0,6.875,12.0,0.0
1614965348865998029,,33503,,1614893321,938814814,"""0""",11.0,6.75,12.0,0.0
1614965348912909984,,33504,,1614893321,988986741,"""0""",11.0,5.5,12.0,0.0
1614965348976996898,,33505,,1614893322,38818616,"""0""",11.0,6.125,12.0,0.0
1614965349022927045,,33506,,1614893322,88887262,"""0""",11.0,6.75,12.0,0.0
1614965349085937976,,33507,,1614893322,138893252,"""0""",11.0,6.125,12.0,0.0
1614965349150703907,,33508,,1614893322,188881272,"""0""",11.0,5.75,12.0,0.0
1614965349150818109,,33509,,1614893322,238753668,"""0""",11.0,5.125,12.0,0.0
1614965349203931093,,33510,,1614893322,288847574,"""0""",11.0,6.625,12.0,0.0
1614965349256066083,,33511,,1614893322,338949658,"""0""",11.0,6.75,12.0,0.0
1614965349317882061,,33512,,1614893322,388882314,"""0""",11.0,6.125,12.0,0.0
1614965349373272895,,33513,,1614893322,438778928,"""0""",11.0,6.75,12.0,0.0
1614965349434288024,,33514,,1614893322,488898095,"""0""",11.0,6.75,12.0,0.0
1614965349474087953,,33515,,1614893322,538764658,"""0""",11.0,6.5,12.0,0.0
1614965349517101049,,33516,,1614893322,589019293,"""0""",11.0,6.875,12.0,0.0
1614965349563797950,,33517,,1614893322,638866272,"""0""",11.0,7.125,11.8999996185,0.0
1614965349632813930,,33518,,1614893322,688830751,"""0""",11.0,6.875,11.8999996185,0.0
1614965349699374914,,33519,,1614893322,738815283,"""0""",11.0,6.75,11.8999996185,0.0
1614965349699572086,,33520,,1614893322,788889553,"""0""",11.0,6.5,12.0,0.0
1614965349739768028,,33521,,1614893322,838806845,"""0""",11.0,6.625,12.0,0.0
1614965349795089960,,33522,,1614893322,888785074,"""0""",11.0,6.5,12.0,0.0
1614965349859062910,,33523,,1614893322,938765595,"""0""",11.0,6.75,12.0,0.0
1614965349908063888,,33524,,1614893322,988798668,"""0""",11.0,6.5,12.0,0.0
1614965349941999912,,33525,,1614893323,38781637,"""0""",11.0,6.125,12.0,0.0
1614965350009646892,,33526,,1614893323,88870751,"""0""",11.0,6.5,12.0,0.0
1614965350075021982,,33527,,1614893323,138785647,"""0""",11.0,6.125,12.0,0.0
1614965350135951995,,33528,,1614893323,188780178,"""0""",11.0,6.875,12.0,0.0
1614965350136104106,,33529,,1614893323,238766428,"""0""",11.0,6.875,11.9499998093,0.0
1614965350194101095,,33530,,1614893323,288863095,"""0""",11.0,6.75,11.9499998093,0.0
1614965350243534088,,33531,,1614893323,338778668,"""0""",11.0,6.875,11.9499998093,0.0
1614965350292850971,,33532,,1614893323,388790855,"""0""",11.0,7.0,11.9499998093,0.0
1614965350341361045,,33533,,1614893323,438842314,"""0""",11.0,7.0,11.8999996185,0.0
1614965350411056995,,33534,,1614893323,488773511,"""0""",11.0,6.875,11.8999996185,0.0
1614965350450836896,,33535,,1614893323,538822730,"""0""",11.0,6.75,11.8999996185,0.0
1614965350494390964,,33536,,1614893323,588781220,"""0""",11.0,6.875,11.8999996185,0.0
1614965350554379940,,33537,,1614893323,638823303,"""0""",11.0,6.75,11.8999996185,0.0
1614965350637859106,,33538,,1614893323,688837991,"""0""",11.0,6.75,11.8999996185,0.0
1614965350679986000,,33539,,1614893323,738859918,"""0""",11.0,6.75,12.0,0.0
1614965350723155021,,33540,,1614893323,788788980,"""0""",11.0,6.125,12.0,0.0
1614965350769751071,,33541,,1614893323,838776168,"""0""",11.0,6.75,12.0,0.0
1614965350827307939,,33542,,1614893323,888863615,"""0""",11.0,6.5,12.0,0.0
1614965350862298011,,33543,,1614893323,938781636,"""0""",11.0,6.75,12.0,0.0
1614965350907721996,,33544,,1614893323,988795542,"""0""",11.0,7.0,12.0,0.0
1614965350949892997,,33545,,1614893324,38781011,"""0""",11.0,6.875,12.0,0.0
1614965350996885061,,33546,,1614893324,88773459,"""0""",11.0,6.875,12.0,0.0
1614965351041162967,,33547,,1614893324,138810178,"""0""",11.0,7.125,12.0,0.0
1614965351094965934,,33548,,1614893324,188861949,"""0""",11.0,7.125,12.0,0.0
1614965351146212100,,33549,,1614893324,238881584,"""0""",11.0,7.125,11.8999996185,0.0
1614965351194432973,,33550,,1614893324,288841063,"""0""",11.0,7.0,11.8999996185,0.0
1614965351238908052,,33551,,1614893324,338815594,"""0""",11.0,7.0,11.8999996185,0.0
1614965351287235021,,33552,,1614893324,388758824,"""0""",11.0,6.875,11.9499998093,0.0
1614965351383451938,,33553,,1614893324,438820699,"""0""",11.0,6.75,11.9499998093,0.0
1614965351477197885,,33554,,1614893324,488814240,"""0""",11.0,6.75,11.9499998093,0.0
1614965351477322101,,33555,,1614893324,538799813,"""0""",11.0,6.625,12.0,0.0
1614965351521841049,,33556,,1614893324,588794657,"""0""",11.0,6.875,12.0,0.0
1614965351567902088,,33557,,1614893324,638761428,"""0""",11.0,6.75,12.0,0.0
1614965351606559991,,33558,,1614893324,688835959,"""0""",11.0,6.5,12.0,0.0
1614965351678385972,,33559,,1614893324,738815178,"""0""",11.0,6.75,12.0,0.0
1614965351744631052,,33560,,1614893324,788770594,"""0""",11.0,6.125,12.0,0.0
1614965351826874017,,33561,,1614893324,838810021,"""0""",11.0,5.5,12.0,0.0
1614965351827315092,,33562,,1614893324,888823980,"""0""",11.0,6.875,12.0,0.0
1614965351897701025,,33563,,1614893324,938788719,"""0""",11.0,7.125,12.0,0.0
1614965351897985935,,33564,,1614893324,988871584,"""0""",11.0,6.875,12.0,0.0
1614965351958375930,,33565,,1614893325,38816323,"""0""",11.0,6.625,12.0,0.0
1614965352013817071,,33566,,1614893325,88835438,"""0""",11.0,6.75,12.0,0.0
1614965352071171045,,33567,,1614893325,138790073,"""0""",11.0,6.625,12.0,0.0
1614965352162240982,,33568,,1614893325,188765490,"""0""",11.0,5.75,12.0,0.0
1614965352162513971,,33569,,1614893325,238886011,"""0""",11.0,5.75,12.0,0.0
1614965352208566904,,33570,,1614893325,288853094,"""0""",11.0,4.125,12.0,0.0
1614965352294852972,,33571,,1614893325,338757209,"""0""",11.0,3.375,12.0500001907,0.0
1614965352294970989,,33572,,1614893325,388779552,"""0""",11.0,3.0,12.0500001907,0.0
1614965352348938941,,33573,,1614893325,438773354,"""0""",11.0,2.75,12.0500001907,0.0
1614965352404602050,,33574,,1614893325,488854292,"""0""",11.0,2.375,12.1000003815,0.0
1614965352453829050,,33575,,1614893325,538797365,"""0""",11.0,1.75,12.1000003815,0.0
1614965352522083997,,33576,,1614893325,588763823,"""0""",11.0,1.0,12.1000003815,0.0
1614965352570667028,,33577,,1614893325,638765073,"""0""",11.0,1.0,12.1999998093,0.0
1614965352623989105,,33578,,1614893325,688781115,"""0""",11.0,3.375,12.1999998093,0.0
1614965352673666000,,33579,,1614893325,738910958,"""0""",11.0,5.5,12.1999998093,0.0
1614965352759135007,,33580,,1614893325,788759500,"""0""",11.0,1.75,12.1000003815,0.0
1614965352759296894,,33581,,1614893325,838807052,"""0""",11.0,1.375,12.1000003815,0.0
1614965352841348886,,33582,,1614893325,888788458,"""0""",11.0,3.0,12.1000003815,0.0
1614965352895136117,,33583,,1614893325,938834448,"""0""",11.0,3.0,12.1000003815,0.0
1614965352944833993,,33584,,1614893325,988807365,"""0""",11.0,3.375,12.0500001907,0.0
1614965353060225963,,33585,,1614893326,38777417,"""0""",11.0,3.75,12.0500001907,0.0
1614965353060326099,,33586,,1614893326,88848354,"""0""",11.0,6.125,12.0500001907,0.0
1614965353060352087,,33587,,1614893326,138912521,"""0""",11.0,6.5,11.9499998093,0.0
1614965353104617118,,33588,,1614893326,188830750,"""0""",11.0,4.75,11.9499998093,0.0
1614965353188136100,,33589,,1614893326,238788979,"""0""",11.0,4.375,11.9499998093,0.0
1614965353223784923,,33590,,1614893326,288782156,"""0""",11.0,3.75,12.0500001907,0.0
1614965353266710996,,33591,,1614893326,338793927,"""0""",11.0,3.75,12.0500001907,0.0
1614965353352384090,,33592,,1614893326,388769031,"""0""",11.0,6.625,12.0500001907,0.0
1614965353352513074,,33593,,1614893326,438800906,"""0""",11.0,6.625,12.0500001907,0.0
1614965353419086933,,33594,,1614893326,488821792,"""0""",11.0,3.0,12.0500001907,0.0
1614965353474212884,,33595,,1614893326,538921948,"""0""",11.0,3.75,12.0500001907,0.0
1614965353547987937,,33596,,1614893326,588751948,"""0""",11.0,5.75,12.0,0.0
1614965353548135042,,33597,,1614893326,638776739,"""0""",11.0,4.375,12.0,0.0
1614965353638742923,,33598,,1614893326,688766687,"""0""",11.0,3.375,12.0,0.0
1614965353692277908,,33599,,1614893326,738834656,"""0""",11.0,3.375,12.0,0.0
1614965353741483926,,33600,,1614893326,788773250,"""0""",11.0,3.375,12.1000003815,0.0
1614965353741612911,,33601,,1614893326,838788406,"""0""",11.0,3.375,12.1000003815,0.0
1614965353818394899,,33602,,1614893326,888753614,"""0""",11.0,4.75,12.1000003815,0.0
1614965353870529890,,33603,,1614893326,938836531,"""0""",11.0,5.5,12.0,0.0
1614965353935733079,,33604,,1614893326,988846010,"""0""",11.0,4.125,12.0,0.0
1614965353974315881,,33605,,1614893327,38861843,"""0""",11.0,3.375,12.0,0.0
1614965354026098966,,33606,,1614893327,88787364,"""0""",11.0,6.75,11.8999996185,0.0
1614965354085163116,,33607,,1614893327,138849708,"""0""",11.0,6.625,11.8999996185,0.0
1614965354192382097,,33608,,1614893327,188823927,"""0""",11.0,4.375,11.8999996185,0.0
1614965354192528963,,33609,,1614893327,238797208,"""0""",11.0,3.75,12.0500001907,0.0
1614965354267585039,,33610,,1614893327,288815437,"""0""",11.0,4.125,12.0500001907,0.0
1614965354267716884,,33611,,1614893327,338767468,"""0""",11.0,4.125,12.0500001907,0.0
1614965354320349931,,33612,,1614893327,388772885,"""0""",11.0,5.125,12.0,0.0
1614965354378747940,,33613,,1614893327,438805541,"""0""",11.0,6.75,12.0,0.0
1614965354440126895,,33614,,1614893327,488878718,"""0""",11.0,6.125,12.0,0.0
1614965354499943017,,33615,,1614893327,538764447,"""0""",11.0,4.125,12.0,0.0
1614965354543709993,,33616,,1614893327,588773770,"""0""",11.0,4.375,12.0,0.0
1614965354543809890,,33617,,1614893327,638979239,"""0""",11.0,4.75,12.0,0.0
1614965354597959041,,33618,,1614893327,688768562,"""0""",11.0,5.75,12.0,0.0
1614965354652369976,,33619,,1614893327,738780176,"""0""",11.0,6.75,11.9499998093,0.0
1614965354705146074,,33620,,1614893327,788761218,"""0""",11.0,6.75,11.9499998093,0.0
1614965354761594057,,33621,,1614893327,838778874,"""0""",11.0,5.5,11.9499998093,0.0
1614965354856852054,,33622,,1614893327,888785645,"""0""",11.0,7.0,11.8999996185,0.0
1614965354856960058,,33623,,1614893327,938883822,"""0""",11.0,6.75,11.8999996185,0.0
1614965354911359071,,33624,,1614893327,988811635,"""0""",11.0,3.75,11.8999996185,0.0
1614965354958899021,,33625,,1614893328,38835801,"""0""",11.0,4.75,12.0,0.0
1614965355021986007,,33626,,1614893328,88771739,"""0""",11.0,6.75,12.0,0.0
1614965355075125932,,33627,,1614893328,138814187,"""0""",11.0,4.375,12.0,0.0
1614965355128716945,,33628,,1614893328,188775905,"""0""",11.0,4.375,12.0,0.0
1614965355169966936,,33629,,1614893328,238871322,"""0""",11.0,4.125,12.0,0.0
1614965355217195034,,33630,,1614893328,288788301,"""0""",11.0,2.75,12.0,0.0
1614965355277196884,,33631,,1614893328,338800541,"""0""",11.0,6.75,12.0,0.0
1614965355333559036,,33632,,1614893328,388765176,"""0""",11.0,7.875,11.8500003815,0.0
1614965355377578020,,33633,,1614893328,438825749,"""0""",11.0,7.625,11.8500003815,0.0
1614965355470442056,,33634,,1614893328,488757885,"""0""",11.0,7.625,11.8500003815,0.0
1614965355470545053,,33635,,1614893328,538795749,"""0""",11.0,8.0,11.75,0.0
1614965355510863065,,33636,,1614893328,588753926,"""0""",11.0,8.875,11.75,0.0
1614965355594510078,,33637,,1614893328,638870801,"""0""",11.0,9.5,11.75,0.0
1614965355594722986,,33638,,1614893328,688755749,"""0""",11.0,9.625,11.6999998093,0.0
1614965355632153034,,33639,,1614893328,738771843,"""0""",11.0,9.25,11.6999998093,0.0
1614965355700303077,,33640,,1614893328,788769603,"""0""",11.0,9.0,11.6999998093,0.0
1614965355750390052,,33641,,1614893328,838778874,"""0""",11.0,9.625,11.6000003815,0.0
1614965355792617082,,33642,,1614893328,888820853,"""0""",11.0,9.375,11.6000003815,0.0
1614965355863290071,,33643,,1614893328,938928145,"""0""",11.0,9.0,11.6000003815,0.0
1614965355919200897,,33644,,1614893328,988779499,"""0""",11.0,9.0,11.75,0.0
1614965355981894016,,33645,,1614893329,38856113,"""0""",11.0,8.625,11.75,0.0
1614965356030339956,,33646,,1614893329,88760801,"""0""",11.0,9.625,11.75,0.0
1614965356124308109,,33647,,1614893329,138791322,"""0""",11.0,10.5,11.75,0.0
1614965356124418020,,33648,,1614893329,188764082,"""0""",11.0,9.0,11.6000003815,0.0
1614965356179980993,,33649,,1614893329,238824290,"""0""",11.0,9.25,11.6000003815,0.0
1614965356258666992,,33650,,1614893329,288781530,"""0""",11.0,10.5,11.6000003815,0.0
1614965356258900880,,33651,,1614893329,338904030,"""0""",11.0,9.625,11.6000003815,0.0
1614965356339728116,,33652,,1614893329,388826061,"""0""",11.0,8.875,11.6000003815,0.0
1614965356403872013,,33653,,1614893329,438894551,"""0""",11.0,7.875,11.6000003815,0.0
1614965356404040098,,33654,,1614893329,488784395,"""0""",11.0,3.75,12.0500001907,0.0
1614965356456027984,,33655,,1614893329,538787520,"""0""",11.0,5.5,12.0500001907,0.0
1614965356497694969,,33656,,1614893329,588882259,"""0""",11.0,10.0,12.0500001907,0.0
1614965356540237903,,33657,,1614893329,638889499,"""0""",11.0,7.625,11.8999996185,0.0
1614965356634921073,,33658,,1614893329,688796165,"""0""",11.0,2.75,11.8999996185,0.0
1614965356689606904,,33659,,1614893329,738846061,"""0""",11.0,1.0,11.8999996185,0.0
1614965356689635038,,33660,,1614893329,788754915,"""0""",11.0,0.625,12.1999998093,0.0
1614965356737235069,,33661,,1614893329,838783144,"""0""",11.0,0.625,12.1999998093,0.0
1614965356795492887,,33662,,1614893329,888796530,"""0""",11.0,0.625,12.1999998093,0.0
1614965356848525047,,33663,,1614893329,938983978,"""0""",11.0,0.375,12.1999998093,0.0
1614965356944770097,,33664,,1614893329,988794603,"""0""",11.0,0.0,12.25,0.0
1614965356995486021,,33665,,1614893330,38782415,"""0""",11.0,0.375,12.25,0.0
1614965356995605945,,33666,,1614893330,88870644,"""0""",11.0,0.0,12.25,0.0
1614965357042309045,,33667,,1614893330,138802051,"""0""",11.0,0.0,12.25,0.0
1614965357086755037,,33668,,1614893330,189059707,"""0""",11.0,0.375,12.25,0.0
1614965357141577005,,33669,,1614893330,238808821,"""0""",11.0,0.625,12.25,0.0
1614965357226728916,,33670,,1614893330,288804342,"""0""",11.0,0.625,12.1999998093,0.0
1614965357274101972,,33671,,1614893330,338811321,"""0""",11.0,0.625,12.1999998093,0.0
1614965357326621055,,33672,,1614893330,388891113,"""0""",11.0,0.625,12.1999998093,0.0
1614965357373775005,,33673,,1614893330,438793353,"""0""",11.0,0.625,12.1999998093,0.0
1614965357421531915,,33674,,1614893330,488883352,"""0""",11.0,1.0,12.1999998093,0.0
1614965357474375009,,33675,,1614893330,538865540,"""0""",11.0,0.625,12.1999998093,0.0
1614965357543786048,,33676,,1614893330,588759290,"""0""",11.0,0.375,12.25,0.0
1614965357543983936,,33677,,1614893330,638817102,"""0""",11.0,0.625,12.25,0.0
1614965357588810920,,33678,,1614893330,688846061,"""0""",11.0,3.0,12.25,0.0
1614965357652185916,,33679,,1614893330,739095696,"""0""",11.0,3.75,12.25,0.0
1614965357694895029,,33680,,1614893330,788891269,"""0""",11.0,3.375,12.0500001907,0.0
1614965357739856958,,33681,,1614893330,838785175,"""0""",11.0,4.75,12.0500001907,0.0
1614965357788202047,,33682,,1614893330,888900540,"""0""",11.0,5.75,12.0500001907,0.0
1614965357839349985,,33683,,1614893330,938843665,"""0""",11.0,5.125,12.0,0.0
1614965357896919012,,33684,,1614893330,988789550,"""0""",11.0,6.125,12.0,0.0
1614965357940061092,,33685,,1614893331,38804081,"""0""",11.0,6.125,12.0,0.0
1614965357987664937,,33686,,1614893331,88914394,"""0""",11.0,5.75,11.9499998093,0.0
1614965358038218975,,33687,,1614893331,138767571,"""0""",11.0,4.75,11.9499998093,0.0
1614965358093517065,,33688,,1614893331,188908144,"""0""",11.0,6.875,11.9499998093,0.0
1614965358130917072,,33689,,1614893331,238767415,"""0""",11.0,7.125,11.8999996185,0.0
1614965358182219028,,33690,,1614893331,288861008,"""0""",11.0,7.125,11.8999996185,0.0
1614965358230882883,,33691,,1614893331,338798508,"""0""",11.0,7.5,11.8999996185,0.0
1614965358288182020,,33692,,1614893331,388851738,"""0""",11.0,7.5,11.8500003815,0.0
1614965358334654092,,33693,,1614893331,438800904,"""0""",11.0,7.75,11.8500003815,0.0
1614965358394033908,,33694,,1614893331,488901113,"""0""",11.0,7.875,11.8500003815,0.0
1614965358435862064,,33695,,1614893331,538770956,"""0""",11.0,7.75,11.8500003815,0.0
1614965358490688085,,33696,,1614893331,588782727,"""0""",11.0,7.75,11.8000001907,0.0
1614965358539010047,,33697,,1614893331,638796581,"""0""",11.0,7.625,11.8000001907,0.0
1614965358596987962,,33698,,1614893331,688873040,"""0""",11.0,7.625,11.8000001907,0.0
1614965358646817922,,33699,,1614893331,738804810,"""0""",11.0,7.625,11.8500003815,0.0
1614965358737755060,,33700,,1614893331,788821581,"""0""",11.0,7.25,11.8500003815,0.0
1614965358780280113,,33701,,1614893331,838765123,"""0""",11.0,7.125,11.8500003815,0.0
1614965358811368942,,33702,,1614893331,888784602,"""0""",11.0,7.125,11.8999996185,0.0
1614965358849250078,,33703,,1614893331,938788508,"""0""",11.0,6.875,11.8999996185,0.0
1614965358890053987,,33704,,1614893331,988781112,"""0""",11.0,7.0,11.8999996185,0.0
1614965358932888984,,33705,,1614893332,38799706,"""0""",11.0,7.0,11.8999996185,0.0
1614965358988218069,,33706,,1614893332,88745956,"""0""",11.0,7.0,11.8999996185,0.0
1614965359040803909,,33707,,1614893332,138714185,"""0""",11.0,7.125,11.8999996185,0.0
1614965359088059902,,33708,,1614893332,188799133,"""0""",11.0,7.0,11.8999996185,0.0
1614965359159759998,,33709,,1614893332,238819966,"""0""",11.0,7.0,11.8999996185,0.0
1614965359209342002,,33710,,1614893332,288773664,"""0""",11.0,7.0,11.8999996185,0.0
1614965359262557983,,33711,,1614893332,338781216,"""0""",11.0,6.875,11.8999996185,0.0
1614965359338816881,,33712,,1614893332,388790748,"""0""",11.0,7.0,11.8999996185,0.0
1614965359338931083,,33713,,1614893332,438808508,"""0""",11.0,7.0,11.8999996185,0.0
1614965359390837907,,33714,,1614893332,488788352,"""0""",11.0,7.125,11.8999996185,0.0
1614965359441040039,,33715,,1614893332,538829341,"""0""",11.0,7.125,11.8999996185,0.0
1614965359491951942,,33716,,1614893332,588786685,"""0""",11.0,6.75,11.8999996185,0.0
1614965359538522005,,33717,,1614893332,638842102,"""0""",11.0,6.875,11.8999996185,0.0
1614965359593596935,,33718,,1614893332,688976008,"""0""",11.0,6.875,11.9499998093,0.0
1614965359648086071,,33719,,1614893332,738830747,"""0""",11.0,6.875,11.9499998093,0.0
1614965359704325914,,33720,,1614893332,788912831,"""0""",11.0,6.875,11.9499998093,0.0
1614965359741094112,,33721,,1614893332,838819029,"""0""",11.0,6.75,11.8999996185,0.0
1614965359786422967,,33722,,1614893332,888960539,"""0""",11.0,6.875,11.8999996185,0.0
1614965359842284917,,33723,,1614893332,938805227,"""0""",11.0,6.875,11.8999996185,0.0
1614965359894942045,,33724,,1614893332,988947258,"""0""",11.0,6.75,11.8999996185,0.0
1614965360027520895,,33725,,1614893333,38780018,"""0""",11.0,6.875,11.8999996185,0.0
1614965360027863025,,33726,,1614893333,88991997,"""0""",11.0,6.75,11.8999996185,0.0
1614965360155796051,,33727,,1614893333,138801424,"""0""",11.0,6.625,11.8999996185,0.0
1614965360156151056,,33728,,1614893333,188971529,"""0""",11.0,6.75,11.9499998093,0.0
1614965360156227111,,33729,,1614893333,238769185,"""0""",11.0,6.75,11.9499998093,0.0
1614965360243063926,,33730,,1614893333,289357987,"""0""",11.0,6.75,11.9499998093,0.0
1614965360243199110,,33731,,1614893333,338866424,"""0""",11.0,6.125,11.9499998093,0.0
1614965360291600942,,33732,,1614893333,388800435,"""0""",11.0,4.75,11.9499998093,0.0
1614965360339555978,,33733,,1614893333,438788924,"""0""",11.0,4.375,11.9499998093,0.0
1614965360385509967,,33734,,1614893333,488787778,"""0""",11.0,4.375,12.0,0.0
1614965360441847085,,33735,,1614893333,538864758,"""0""",11.0,4.375,12.0,0.0
1614965360491815090,,33736,,1614893333,588794862,"""0""",11.0,3.75,12.0,0.0
1614965360560276031,,33737,,1614893333,638802987,"""0""",11.0,3.375,12.0500001907,0.0
1614965360612564086,,33738,,1614893333,689434289,"""0""",11.0,3.375,12.0500001907,0.0
1614965360650331020,,33739,,1614893333,738783768,"""0""",11.0,3.0,12.0500001907,0.0
1614965360703494071,,33740,,1614893333,790130122,"""0""",11.0,2.75,12.0500001907,0.0
1614965360738527059,,33741,,1614893333,838761789,"""0""",11.0,2.375,12.0500001907,0.0
1614965360793000936,,33742,,1614893333,889437882,"""0""",11.0,1.75,12.0500001907,0.0
1614965360846621990,,33743,,1614893333,938809810,"""0""",11.0,1.375,12.0500001907,0.0
1614965360902743101,,33744,,1614893333,988781580,"""0""",11.0,3.375,12.1000003815,0.0
1614965360951802968,,33745,,1614893334,38757726,"""0""",11.0,3.375,12.1000003815,0.0
1614965361005999088,,33746,,1614893334,88801164,"""0""",11.0,3.75,12.1000003815,0.0
1614965361113964080,,33747,,1614893334,138776007,"""0""",11.0,5.5,12.0,0.0
1614965361114078998,,33748,,1614893334,188934497,"""0""",11.0,4.125,12.0,0.0
1614965361177854061,,33749,,1614893334,238827414,"""0""",11.0,3.0,12.0,0.0
1614965361242608070,,33750,,1614893334,288784966,"""0""",11.0,3.0,12.0500001907,0.0
1614965361341272115,,33751,,1614893334,338767622,"""0""",11.0,2.375,12.0500001907,0.0
1614965361341522932,,33752,,1614893334,388775539,"""0""",11.0,1.75,12.0500001907,0.0
1614965361420329093,,33753,,1614893334,438778299,"""0""",11.0,2.375,12.0500001907,0.0
1614965361420494079,,33754,,1614893334,488821788,"""0""",11.0,4.75,12.0500001907,0.0
1614965361481161117,,33755,,1614893334,538784653,"""0""",11.0,3.375,12.0500001907,0.0
1614965361576031923,,33756,,1614893334,588765174,"""0""",11.0,4.75,12.0,0.0
1614965361576251029,,33757,,1614893334,638777101,"""0""",11.0,4.375,12.0,0.0
1614965361620160102,,33758,,1614893334,688808455,"""0""",11.0,5.75,12.0,0.0
1614965361684484004,,33759,,1614893334,738957257,"""0""",11.0,0.75,12.0,0.0
1614965361759676933,,33760,,1614893334,788778403,"""0""",11.0,0.0,12.3000001907,0.0
1614965361759778022,,33761,,1614893334,838794861,"""0""",11.0,0.0,12.3000001907,0.0
1614965361811320066,,33762,,1614893334,888844340,"""0""",11.0,0.0,12.3000001907,0.0
1614965361863332986,,33763,,1614893334,938786684,"""0""",11.0,0.0,12.3000001907,0.0
1614965361908570051,,33764,,1614893334,988822153,"""0""",11.0,0.0,12.3000001907,0.0
1614965361969394922,,33765,,1614893335,38780226,"""0""",11.0,0.0,12.3000001907,0.0
1614965362055815935,,33766,,1614893335,88790747,"""0""",11.0,0.0,12.3000001907,0.0
1614965362056040048,,33767,,1614893335,138775278,"""0""",11.0,0.0,12.3000001907,0.0
1614965362106045007,,33768,,1614893335,188816944,"""0""",11.0,0.0,12.3000001907,0.0
1614965362159380912,,33769,,1614893335,238764705,"""0""",11.0,0.0,12.3000001907,0.0
1614965362197730064,,33770,,1614893335,288785642,"""0""",11.0,0.0,12.3000001907,0.0
1614965362235233068,,33771,,1614893335,338782257,"""0""",11.0,0.0,12.3000001907,0.0
1614965362300323009,,33772,,1614893335,388752361,"""0""",11.0,0.0,12.3000001907,0.0
1614965362344444036,,33773,,1614893335,438824965,"""0""",11.0,0.0,12.3000001907,0.0
1614965362396670103,,33774,,1614893335,488794028,"""0""",11.0,0.0,12.3000001907,0.0
1614965362445000886,,33775,,1614893335,538768455,"""0""",11.0,0.0,12.3000001907,0.0
1614965362523996114,,33776,,1614893335,588782309,"""0""",11.0,0.0,12.3000001907,0.0
1614965362569595098,,33777,,1614893335,638813976,"""0""",11.0,0.0,12.3000001907,0.0
1614965362617007970,,33778,,1614893335,688777413,"""0""",11.0,0.0,12.3000001907,0.0
1614965362690695047,,33779,,1614893335,738802517,"""0""",11.0,0.0,12.3500003815,0.0
1614965362765377044,,33780,,1614893335,788834184,"""0""",11.0,0.0,12.3500003815,0.0
1614965362765642881,,33781,,1614893335,838768975,"""0""",11.0,0.0,12.3500003815,0.0
1614965362809945106,,33782,,1614893335,888787569,"""0""",11.0,0.0,12.3500003815,0.0
1614965362859255075,,33783,,1614893335,938864652,"""0""",11.0,0.0,12.3500003815,0.0
1614965362917161941,,33784,,1614893335,988790642,"""0""",11.0,0.0,12.3500003815,0.0
1614965362959903001,,33785,,1614893336,38786944,"""0""",11.0,0.0,12.3500003815,0.0
1614965362992331981,,33786,,1614893336,88789652,"""0""",11.0,0.0,12.3500003815,0.0
1614965363050579071,,33787,,1614893336,138815486,"""0""",11.0,0.0,12.3500003815,0.0
1614965363087327003,,33788,,1614893336,188759079,"""0""",11.0,0.0,12.3500003815,0.0
1614965363133330106,,33789,,1614893336,238770486,"""0""",11.0,0.0,12.3500003815,0.0
1614965363199522018,,33790,,1614893336,288788142,"""0""",11.0,0.0,12.3500003815,0.0
1614965363254383087,,33791,,1614893336,338851579,"""0""",11.0,0.0,12.3500003815,0.0
1614965363289782047,,33792,,1614893336,388885434,"""0""",12.0,0.0,12.3500003815,0.0
1614965363343259096,,33793,,1614893336,438809704,"""0""",12.0,0.0,12.3500003815,0.0
1614965363388751983,,33794,,1614893336,488786423,"""0""",12.0,0.0,12.3500003815,0.0
1614965363440299034,,33795,,1614893336,538742986,"""0""",12.0,0.0,12.3500003815,0.0
1614965363486534118,,33796,,1614893336,588826423,"""0""",12.0,0.0,12.3500003815,0.0
1614965363585427999,,33797,,1614893336,638802413,"""0""",12.0,0.0,12.3500003815,0.0
1614965363613085031,,33798,,1614893336,688810798,"""0""",12.0,0.0,12.3500003815,0.0
1614965363656935930,,33799,,1614893336,738825173,"""0""",12.0,0.0,12.3500003815,0.0
1614965363704822063,,33800,,1614893336,788802725,"""0""",12.0,0.0,12.3500003815,0.0
1614965363778057098,,33801,,1614893336,838817673,"""0""",12.0,0.0,12.3500003815,0.0
1614965363824945926,,33802,,1614893336,888821527,"""0""",12.0,0.0,12.3500003815,0.0
1614965363860956907,,33803,,1614893336,938786631,"""0""",12.0,0.0,12.3500003815,0.0
1614965363896079063,,33804,,1614893336,988771319,"""0""",12.0,0.0,12.3500003815,0.0
1614965363937541961,,33805,,1614893337,38851683,"""0""",12.0,0.0,12.3500003815,0.0
1614965364010967969,,33806,,1614893337,88738454,"""0""",12.0,0.0,12.3500003815,0.0
1614965364042623996,,33807,,1614893337,138806527,"""0""",12.0,0.0,12.3500003815,0.0
1614965364098325014,,33808,,1614893337,188813350,"""0""",12.0,0.0,12.3500003815,0.0
1614965364136837959,,33809,,1614893337,238820746,"""0""",12.0,0.0,12.3500003815,0.0
1614965364189208984,,33810,,1614893337,288784183,"""0""",12.0,0.0,12.3500003815,0.0
1614965364237298011,,33811,,1614893337,338788350,"""0""",12.0,0.0,12.3500003815,0.0
1614965364290371894,,33812,,1614893337,388780225,"""0""",12.0,0.0,12.3500003815,0.0
1614965364340354919,,33813,,1614893337,438814183,"""0""",12.0,0.0,12.3500003815,0.0
1614965364385327100,,33814,,1614893337,488751006,"""0""",12.0,0.0,12.3500003815,0.0
1614965364445189952,,33815,,1614893337,538828662,"""0""",12.0,0.0,12.3500003815,0.0
1614965364491645097,,33816,,1614893337,588789079,"""0""",12.0,0.0,12.3500003815,0.0
1614965364534012079,,33817,,1614893337,638791110,"""0""",12.0,0.0,12.3500003815,0.0
1614965364586656093,,33818,,1614893337,688773766,"""0""",12.0,0.0,12.3500003815,0.0
1614965364716793060,,33819,,1614893337,739028975,"""0""",12.0,0.0,12.3500003815,0.0
1614965364716906070,,33820,,1614893337,788778610,"""0""",12.0,0.0,12.3500003815,0.0
1614965364741127014,,33821,,1614893337,838790329,"""0""",12.0,0.0,12.3500003815,0.0
1614965364789165973,,33822,,1614893337,888777568,"""0""",12.0,0.0,12.3500003815,0.0
1614965364844460010,,33823,,1614893337,938795173,"""0""",12.0,0.0,12.3500003815,0.0
1614965364888142108,,33824,,1614893337,988798037,"""0""",12.0,0.0,12.3500003815,0.0
1614965364938689947,,33825,,1614893338,38901735,"""0""",12.0,0.0,12.3500003815,0.0
1614965365059132099,,33826,,1614893338,88809235,"""0""",12.0,0.0,12.3500003815,0.0
1614965365059565067,,33827,,1614893338,138902620,"""0""",12.0,0.0,12.3500003815,0.0
1614965365098099946,,33828,,1614893338,188806579,"""0""",12.0,0.0,12.3500003815,0.0
1614965365137238979,,33829,,1614893338,238894756,"""0""",12.0,0.0,12.3500003815,0.0
1614965365196064949,,33830,,1614893338,288773089,"""0""",12.0,0.0,12.3500003815,0.0
1614965365239226102,,33831,,1614893338,338844860,"""0""",12.0,0.0,12.3500003815,0.0
1614965365292452096,,33832,,1614893338,388745589,"""0""",12.0,0.0,12.3500003815,0.0
1614965365335438013,,33833,,1614893338,438915277,"""0""",12.0,0.0,12.3500003815,0.0
1614965365388684988,,33834,,1614893338,488751370,"""0""",12.0,0.0,12.3500003815,0.0
1614965365439933061,,33835,,1614893338,538781631,"""0""",12.0,0.0,12.3500003815,0.0
1614965365487730026,,33836,,1614893338,588755693,"""0""",12.0,0.0,12.3500003815,0.0
1614965365539076089,,33837,,1614893338,638797620,"""0""",12.0,0.0,12.3500003815,0.0
1614965365586061000,,33838,,1614893338,688767829,"""0""",12.0,0.0,12.3500003815,0.0
1614965365681368112,,33839,,1614893338,738899391,"""0""",12.0,0.0,12.3500003815,0.0
1614965365707940101,,33840,,1614893338,788774443,"""0""",12.0,0.0,12.3500003815,0.0
1614965365748049974,,33841,,1614893338,838791943,"""0""",12.0,0.0,12.3500003815,0.0
1614965365790525913,,33842,,1614893338,888796318,"""0""",12.0,0.0,12.3500003815,0.0
1614965365839107990,,33843,,1614893338,938796266,"""0""",12.0,0.0,12.3500003815,0.0
1614965365937321901,,33844,,1614893338,988833141,"""0""",12.0,0.0,12.3500003815,0.0
1614965365974719047,,33845,,1614893339,38916787,"""0""",12.0,0.0,12.3500003815,0.0
1614965366015333890,,33846,,1614893339,88770433,"""0""",12.0,0.0,12.3500003815,0.0
1614965366059962034,,33847,,1614893339,138850120,"""0""",12.0,0.0,12.3500003815,0.0
1614965366111628055,,33848,,1614893339,188810068,"""0""",12.0,0.0,12.3500003815,0.0
1614965366164122104,,33849,,1614893339,238827464,"""0""",12.0,0.0,12.3500003815,0.0
1614965366207850933,,33850,,1614893339,288763610,"""0""",12.0,0.0,12.3500003815,0.0
1614965366253199100,,33851,,1614893339,338909651,"""0""",12.0,0.0,12.3500003815,0.0
1614965366295711994,,33852,,1614893339,388787255,"""0""",12.0,0.0,12.3500003815,0.0
1614965366337524890,,33853,,1614893339,438793193,"""0""",12.0,0.0,12.3500003815,0.0
1614965366380757093,,33854,,1614893339,488778037,"""0""",12.0,0.0,12.3500003815,0.0
1614965366441028118,,33855,,1614893339,538789755,"""0""",12.0,0.0,12.3500003815,0.0
1614965366498229980,,33856,,1614893339,588772047,"""0""",12.0,0.0,12.3500003815,0.0
1614965366543173074,,33857,,1614893339,638858089,"""0""",12.0,0.0,12.3500003815,0.0
1614965366636070966,,33858,,1614893339,688880641,"""0""",12.0,0.0,12.3500003815,0.0
1614965366678472995,,33859,,1614893339,739129964,"""0""",12.0,0.0,12.3500003815,0.0
1614965366730746984,,33860,,1614893339,788782568,"""0""",12.0,0.0,12.3500003815,0.0
1614965366793725013,,33861,,1614893339,838794755,"""0""",12.0,0.0,12.3500003815,0.0
1614965366823195934,,33862,,1614893339,888764234,"""0""",12.0,0.0,12.3500003815,0.0
1614965366868180036,,33863,,1614893339,938826213,"""0""",12.0,0.0,12.3500003815,0.0
1614965366912096977,,33864,,1614893339,988766057,"""0""",12.0,0.0,12.3500003815,0.0
