rosbagTimestamp,header,seq,stamp,secs,nsecs,frame_id,Temperature,OutputCurrent,BusVoltage,ClosedLoopError
1614967235999001026,,71246,,1614895209,88816282,"""0""",12.0,0.0,12.3999996185,0.0
1614967236057209014,,71247,,1614895209,138777323,"""0""",13.0,0.0,12.3999996185,0.0
1614967236098869085,,71248,,1614895209,188793677,"""0""",13.0,0.0,12.3999996185,0.0
1614967236156351089,,71249,,1614895209,238806282,"""0""",13.0,0.0,12.3999996185,0.0
1614967236203417062,,71250,,1614895209,288833677,"""0""",12.0,0.0,12.3999996185,0.0
1614967236255659103,,71251,,1614895209,338857167,"""0""",12.0,0.0,12.3999996185,0.0
1614967236300110101,,71252,,1614895209,388827792,"""0""",12.0,0.0,12.3999996185,0.0
1614967236356633901,,71253,,1614895209,438764615,"""0""",12.0,0.0,12.3999996185,0.0
1614967236406733036,,71254,,1614895209,489024511,"""0""",12.0,0.0,12.3999996185,0.0
1614967236462841987,,71255,,1614895209,538805500,"""0""",12.0,0.0,12.3999996185,0.0
1614967236509159088,,71256,,1614895209,588907532,"""0""",12.0,0.0,12.3999996185,0.0
1614967236562082052,,71257,,1614895209,638836542,"""0""",13.0,0.0,12.3999996185,0.0
1614967236611607074,,71258,,1614895209,688793261,"""0""",13.0,0.0,12.3999996185,0.0
1614967236668298959,,71259,,1614895209,738791959,"""0""",13.0,0.0,12.3999996185,0.0
1614967236706016063,,71260,,1614895209,788877115,"""0""",12.0,0.0,12.3999996185,0.0
1614967236769360065,,71261,,1614895209,838789042,"""0""",12.0,0.0,12.3999996185,0.0
1614967236808505058,,71262,,1614895209,888817844,"""0""",12.0,0.0,12.3999996185,0.0
1614967236869481086,,71263,,1614895209,938787323,"""0""",12.0,0.0,12.3999996185,0.0
1614967236906407117,,71264,,1614895209,988815240,"""0""",12.0,0.0,12.3999996185,0.0
1614967236972593069,,71265,,1614895210,38841958,"""0""",12.0,0.0,12.3999996185,0.0
1614967237010060071,,71266,,1614895210,88868729,"""0""",13.0,0.0,12.3999996185,0.0
1614967237070703029,,71267,,1614895210,138788313,"""0""",13.0,0.0,12.3999996185,0.0
1614967237115533113,,71268,,1614895210,188793104,"""0""",13.0,0.0,12.3999996185,0.0
1614967237167051076,,71269,,1614895210,238779094,"""0""",12.0,0.0,12.3999996185,0.0
1614967237213759899,,71270,,1614895210,288824979,"""0""",12.0,0.0,12.3999996185,0.0
1614967237275448083,,71271,,1614895210,338780656,"""0""",12.0,0.0,12.3999996185,0.0
1614967237309588909,,71272,,1614895210,388804562,"""0""",12.0,0.0,12.3999996185,0.0
1614967237370834112,,71273,,1614895210,438867635,"""0""",12.0,0.0,12.3999996185,0.0
1614967237417109966,,71274,,1614895210,488924198,"""0""",12.0,0.0,12.3999996185,0.0
1614967237476888895,,71275,,1614895210,538977687,"""0""",12.0,0.0,12.3999996185,0.0
1614967237513008117,,71276,,1614895210,588895917,"""0""",12.0,0.0,12.3999996185,0.0
1614967237606065988,,71277,,1614895210,638782271,"""0""",12.0,0.0,12.3999996185,0.0
1614967237641313076,,71278,,1614895210,688872062,"""0""",12.0,0.0,12.3999996185,0.0
1614967237677467107,,71279,,1614895210,738795604,"""0""",13.0,0.0,12.3999996185,0.0
1614967237717107057,,71280,,1614895210,788820239,"""0""",13.0,0.0,12.3999996185,0.0
1614967237773432016,,71281,,1614895210,838768156,"""0""",13.0,0.0,12.3999996185,0.0
1614967237815608024,,71282,,1614895210,888877583,"""0""",12.0,0.0,12.3999996185,0.0
1614967237901834964,,71283,,1614895210,938762375,"""0""",12.0,0.0,12.3999996185,0.0
1614967237921339988,,71284,,1614895210,988806541,"""0""",12.0,0.0,12.3999996185,0.0
1614967237970592021,,71285,,1614895211,38785812,"""0""",13.0,0.0,12.3999996185,0.0
1614967238021912097,,71286,,1614895211,88804458,"""0""",13.0,0.0,12.3999996185,0.0
1614967238071269989,,71287,,1614895211,138822531,"""0""",13.0,0.0,12.3999996185,0.0
1614967238122924089,,71288,,1614895211,188820864,"""0""",13.0,0.0,12.3999996185,0.0
1614967238176821947,,71289,,1614895211,238751489,"""0""",12.0,0.0,12.3999996185,0.0
1614967238214365959,,71290,,1614895211,288805343,"""0""",12.0,0.0,12.3999996185,0.0
1614967238277971029,,71291,,1614895211,338788677,"""0""",12.0,0.0,12.3999996185,0.0
1614967238323676109,,71292,,1614895211,388998625,"""0""",13.0,0.0,12.3999996185,0.0
1614967238371232986,,71293,,1614895211,438839458,"""0""",13.0,0.0,12.3999996185,0.0
1614967238423782110,,71294,,1614895211,488804458,"""0""",13.0,0.0,12.3999996185,0.0
1614967238514512062,,71295,,1614895211,538777062,"""0""",12.0,0.0,12.3999996185,0.0
1614967238556510925,,71296,,1614895211,588807531,"""0""",12.0,0.0,12.3999996185,0.0
1614967238615741968,,71297,,1614895211,638765812,"""0""",12.0,0.0,12.3999996185,0.0
1614967238659265995,,71298,,1614895211,688924874,"""0""",12.0,0.0,12.3999996185,0.0
1614967238745460987,,71299,,1614895211,738770291,"""0""",12.0,0.0,12.3999996185,0.0
1614967238745675086,,71300,,1614895211,788877166,"""0""",12.0,0.0,12.3999996185,0.0
1614967238806029081,,71301,,1614895211,838754718,"""0""",12.0,0.0,12.3999996185,0.0
1614967238842873096,,71302,,1614895211,888813624,"""0""",12.0,0.0,12.3999996185,0.0
1614967238903863906,,71303,,1614895211,938815135,"""0""",12.0,0.0,12.3999996185,0.0
1614967238936728000,,71304,,1614895211,988816749,"""0""",12.0,0.0,12.3999996185,0.0
1614967238971613883,,71305,,1614895212,38778260,"""0""",12.0,0.0,12.3999996185,0.0
1614967239030970096,,71306,,1614895212,88868416,"""0""",12.0,0.0,12.3999996185,0.0
1614967239117460966,,71307,,1614895212,138802478,"""0""",12.0,0.0,12.3999996185,0.0
1614967239158081054,,71308,,1614895212,188812583,"""0""",12.0,0.0,12.3999996185,0.0
1614967239195162057,,71309,,1614895212,238873051,"""0""",12.0,0.0,12.3999996185,0.0
1614967239224589109,,71310,,1614895212,288808676,"""0""",12.0,0.0,12.3999996185,0.0
1614967239275454044,,71311,,1614895212,338773468,"""0""",13.0,0.0,12.3999996185,0.0
1614967239320905923,,71312,,1614895212,388844510,"""0""",13.0,0.0,12.3999996185,0.0
1614967239372837066,,71313,,1614895212,438826958,"""0""",13.0,0.0,12.3999996185,0.0
1614967239429244995,,71314,,1614895212,488810760,"""0""",12.0,0.0,12.3999996185,0.0
1614967239466764926,,71315,,1614895212,538772635,"""0""",12.0,0.0,12.3999996185,0.0
1614967239523983001,,71316,,1614895212,588894197,"""0""",12.0,0.0,12.3999996185,0.0
1614967239569437026,,71317,,1614895212,638833832,"""0""",13.0,0.0,12.3999996185,0.0
1614967239616925954,,71318,,1614895212,688927843,"""0""",13.0,0.0,12.3999996185,0.0
1614967239683434009,,71319,,1614895212,738920707,"""0""",13.0,0.0,12.3999996185,0.0
1614967239755299091,,71320,,1614895212,788863468,"""0""",13.0,0.0,12.3999996185,0.0
1614967239801683902,,71321,,1614895212,838784822,"""0""",13.0,0.0,12.3999996185,0.0
1614967239840527057,,71322,,1614895212,888773051,"""0""",13.0,0.0,12.3999996185,0.0
1614967239871387958,,71323,,1614895212,938796749,"""0""",13.0,0.0,12.3999996185,0.0
1614967239919799089,,71324,,1614895212,988850916,"""0""",12.0,0.0,12.3999996185,0.0
1614967239981090068,,71325,,1614895213,38778936,"""0""",12.0,0.0,12.3999996185,0.0
1614967240021470069,,71326,,1614895213,88888936,"""0""",12.0,0.0,12.3999996185,0.0
1614967240073581933,,71327,,1614895213,138785707,"""0""",12.0,0.0,12.3999996185,0.0
1614967240147420883,,71328,,1614895213,188776384,"""0""",12.0,0.0,12.3999996185,0.0
1614967240212174892,,71329,,1614895213,239298051,"""0""",12.0,0.0,12.3999996185,0.0
1614967240244174003,,71330,,1614895213,288876176,"""0""",12.0,0.0,12.3999996185,0.0
1614967240321660995,,71331,,1614895213,338762582,"""0""",12.0,0.0,12.3999996185,0.0
1614967240321770906,,71332,,1614895213,388960655,"""0""",12.0,0.0,12.3999996185,0.0
1614967240372605085,,71333,,1614895213,438786072,"""0""",13.0,0.0,12.3999996185,0.0
1614967240431369066,,71334,,1614895213,488854561,"""0""",13.0,0.0,12.3999996185,0.0
1614967240475048065,,71335,,1614895213,538825395,"""0""",13.0,0.0,12.3999996185,0.0
1614967240521267890,,71336,,1614895213,588813676,"""0""",13.0,0.0,12.3999996185,0.0
1614967240572815895,,71337,,1614895213,638818467,"""0""",12.0,0.0,12.3999996185,0.0
1614967240656012058,,71338,,1614895213,688794092,"""0""",12.0,0.0,12.3999996185,0.0
1614967240693661928,,71339,,1614895213,738763988,"""0""",12.0,0.0,12.3999996185,0.0
1614967240741353034,,71340,,1614895213,788818988,"""0""",12.0,0.0,12.3999996185,0.0
1614967240793226003,,71341,,1614895213,838828207,"""0""",12.0,0.0,12.3999996185,0.0
1614967240830552101,,71342,,1614895213,888918780,"""0""",12.0,0.0,12.3999996185,0.0
1614967240912945032,,71343,,1614895213,938781488,"""0""",12.0,0.0,12.3999996185,0.0
1614967240956301927,,71344,,1614895213,988877478,"""0""",12.0,0.0,12.3999996185,0.0
1614967240998822927,,71345,,1614895214,38782165,"""0""",12.0,0.0,12.3999996185,0.0
1614967241043821096,,71346,,1614895214,88816019,"""0""",12.0,0.0,12.3999996185,0.0
1614967241067883014,,71347,,1614895214,138792009,"""0""",12.0,0.0,12.3999996185,0.0
1614967241123228073,,71348,,1614895214,188806801,"""0""",12.0,0.0,12.3999996185,0.0
1614967241172527074,,71349,,1614895214,238829248,"""0""",12.0,0.0,12.3999996185,0.0
1614967241221626996,,71350,,1614895214,288938155,"""0""",12.0,0.0,12.3999996185,0.0
1614967241278573989,,71351,,1614895214,338834144,"""0""",12.0,0.0,12.3999996185,0.0
1614967241323158025,,71352,,1614895214,388788363,"""0""",12.0,0.0,12.3999996185,0.0
1614967241371880054,,71353,,1614895214,438816488,"""0""",12.0,0.0,12.3999996185,0.0
1614967241415769100,,71354,,1614895214,488810863,"""0""",12.0,0.0,12.3999996185,0.0
1614967241479517936,,71355,,1614895214,538762998,"""0""",12.0,0.0,12.3999996185,0.0
1614967241517520904,,71356,,1614895214,588913728,"""0""",12.0,0.0,12.3999996185,0.0
1614967241571635961,,71357,,1614895214,638773050,"""0""",12.0,0.0,12.3999996185,0.0
1614967241628407955,,71358,,1614895214,688835498,"""0""",12.0,0.0,12.3999996185,0.0
1614967241669878005,,71359,,1614895214,738778675,"""0""",12.0,0.0,12.3999996185,0.0
1614967241728351116,,71360,,1614895214,788815550,"""0""",12.0,0.0,12.3999996185,0.0
1614967241813851118,,71361,,1614895214,838877946,"""0""",12.0,15.375,12.3999996185,0.0
1614967241877513885,,71362,,1614895214,888814613,"""0""",12.0,10.625,11.8500003815,0.0
1614967241877732992,,71363,,1614895214,938758623,"""0""",12.0,7.375,11.8500003815,0.0
1614967241943953990,,71364,,1614895214,988910238,"""0""",12.0,7.375,11.8500003815,0.0
1614967241984801054,,71365,,1614895215,38843623,"""0""",12.0,7.75,11.8999996185,0.0
1614967242019448995,,71366,,1614895215,88894717,"""0""",12.0,7.75,11.8999996185,0.0
1614967242070441961,,71367,,1614895215,138781436,"""0""",12.0,7.25,11.8999996185,0.0
1614967242126641988,,71368,,1614895215,188795654,"""0""",12.0,7.125,11.8999996185,0.0
1614967242178531885,,71369,,1614895215,238765290,"""0""",12.0,5.125,12.0500001907,0.0
1614967242219121932,,71370,,1614895215,288806123,"""0""",12.0,2.375,12.0500001907,0.0
1614967242270986080,,71371,,1614895215,338757269,"""0""",12.0,1.0,12.0500001907,0.0
1614967242317054033,,71372,,1614895215,388924508,"""0""",12.0,1.0,12.25,0.0
1614967242376986026,,71373,,1614895215,438902165,"""0""",12.0,1.0,12.25,0.0
1614967242417869091,,71374,,1614895215,488935290,"""0""",12.0,0.625,12.25,0.0
1614967242474066972,,71375,,1614895215,539045342,"""0""",12.0,0.375,12.3500003815,0.0
1614967242559853076,,71376,,1614895215,588804456,"""0""",12.0,0.625,12.3500003815,0.0
1614967242677119016,,71377,,1614895215,638791071,"""0""",12.0,0.625,12.3500003815,0.0
1614967242677395105,,71378,,1614895215,688802685,"""0""",12.0,0.625,12.3000001907,0.0
1614967242701958894,,71379,,1614895215,738793310,"""0""",12.0,0.625,12.3000001907,0.0
1614967242741908073,,71380,,1614895215,788811227,"""0""",12.0,0.625,12.3000001907,0.0
1614967242793077945,,71381,,1614895215,838868154,"""0""",12.0,0.625,12.25,0.0
1614967242845607995,,71382,,1614895215,888935342,"""0""",12.0,0.625,12.25,0.0
1614967242884594917,,71383,,1614895215,938827112,"""0""",12.0,0.625,12.25,0.0
1614967242921395063,,71384,,1614895215,988853623,"""0""",12.0,0.625,12.25,0.0
1614967242978992938,,71385,,1614895216,38754873,"""0""",12.0,0.625,12.25,0.0
1614967243029472112,,71386,,1614895216,88797373,"""0""",12.0,0.625,12.25,0.0
1614967243081438064,,71387,,1614895216,138830029,"""0""",12.0,0.625,12.25,0.0
1614967243126617908,,71388,,1614895216,188803206,"""0""",12.0,1.0,12.25,0.0
1614967243175492048,,71389,,1614895216,238826539,"""0""",12.0,0.625,12.25,0.0
1614967243221962928,,71390,,1614895216,288800654,"""0""",12.0,0.625,12.25,0.0
1614967243272583961,,71391,,1614895216,338814196,"""0""",12.0,1.0,12.25,0.0
1614967243318864107,,71392,,1614895216,388919508,"""0""",12.0,1.0,12.25,0.0
1614967243378551959,,71393,,1614895216,438810237,"""0""",12.0,1.0,12.25,0.0
1614967243423791885,,71394,,1614895216,488906331,"""0""",12.0,1.0,12.25,0.0
1614967243482573986,,71395,,1614895216,538793414,"""0""",12.0,2.375,12.25,0.0
1614967243528343915,,71396,,1614895216,588881800,"""0""",12.0,3.0,12.25,0.0
1614967243619813919,,71397,,1614895216,638755289,"""0""",12.0,2.75,12.1999998093,0.0
1614967243664237976,,71398,,1614895216,689058831,"""0""",12.0,2.375,12.1999998093,0.0
1614967243723052978,,71399,,1614895216,738854612,"""0""",12.0,4.125,12.1999998093,0.0
1614967243771148920,,71400,,1614895216,788837998,"""0""",12.0,4.75,12.1999998093,0.0
1614967243819829940,,71401,,1614895216,838759820,"""0""",12.0,3.0,12.1000003815,0.0
1614967243903201103,,71402,,1614895216,888831175,"""0""",12.0,2.75,12.1000003815,0.0
1614967243903444051,,71403,,1614895216,938769977,"""0""",12.0,1.75,12.1000003815,0.0
1614967243944307088,,71404,,1614895216,988800289,"""0""",12.0,1.375,12.25,0.0
1614967243980619907,,71405,,1614895217,38770602,"""0""",12.0,2.0,12.25,0.0
1614967244031512022,,71406,,1614895217,88879977,"""0""",12.0,3.0,12.25,0.0
1614967244078725099,,71407,,1614895217,138836383,"""0""",12.0,2.75,12.1999998093,0.0
1614967244123980045,,71408,,1614895217,188797581,"""0""",12.0,2.375,12.1999998093,0.0
1614967244204849004,,71409,,1614895217,238785237,"""0""",12.0,1.75,12.1999998093,0.0
1614967244233917951,,71410,,1614895217,288840497,"""0""",12.0,3.0,12.1000003815,0.0
1614967244285782098,,71411,,1614895217,338775289,"""0""",12.0,2.375,12.1000003815,0.0
1614967244327127933,,71412,,1614895217,388806695,"""0""",12.0,1.75,12.1000003815,0.0
1614967244377718925,,71413,,1614895217,438765862,"""0""",12.0,2.0,12.1499996185,0.0
1614967244423095941,,71414,,1614895217,488913414,"""0""",12.0,3.0,12.1499996185,0.0
1614967244496275901,,71415,,1614895217,538796539,"""0""",12.0,3.375,12.1499996185,0.0
1614967244548577070,,71416,,1614895217,588798414,"""0""",12.0,2.375,12.1499996185,0.0
1614967244611821889,,71417,,1614895217,638845862,"""0""",12.0,1.375,12.1999998093,0.0
1614967244645454883,,71418,,1614895217,688801643,"""0""",12.0,1.375,12.1999998093,0.0
1614967244707245111,,71419,,1614895217,738778362,"""0""",12.0,1.75,12.1999998093,0.0
1614967244745559930,,71420,,1614895217,788806070,"""0""",12.0,2.0,12.1999998093,0.0
1614967244806855916,,71421,,1614895217,838844403,"""0""",12.0,3.75,12.1999998093,0.0
1614967244849715948,,71422,,1614895217,888807580,"""0""",12.0,5.125,12.1999998093,0.0
1614967244883342981,,71423,,1614895217,938868570,"""0""",12.0,4.125,12.1000003815,0.0
1614967244923441886,,71424,,1614895217,988806018,"""0""",12.0,3.0,12.1000003815,0.0
1614967244972567081,,71425,,1614895218,38765445,"""0""",12.0,2.375,12.1000003815,0.0
1614967245023821115,,71426,,1614895218,88867580,"""0""",12.0,2.75,12.1499996185,0.0
1614967245089253902,,71427,,1614895218,138810549,"""0""",12.0,3.75,12.1499996185,0.0
1614967245189517974,,71428,,1614895218,188843205,"""0""",12.0,3.375,12.1499996185,0.0
1614967245189749002,,71429,,1614895218,238791591,"""0""",12.0,2.375,12.1999998093,0.0
1614967245222455024,,71430,,1614895218,288817684,"""0""",12.0,1.75,12.1999998093,0.0
1614967245268606901,,71431,,1614895218,338882580,"""0""",12.0,1.375,12.1999998093,0.0
1614967245327557086,,71432,,1614895218,389617945,"""0""",12.0,1.0,12.1999998093,0.0
1614967245402709960,,71433,,1614895218,438832164,"""0""",12.0,1.0,12.25,0.0
1614967245455621004,,71434,,1614895218,488974768,"""0""",12.0,1.0,12.25,0.0
1614967245493333101,,71435,,1614895218,538785809,"""0""",12.0,1.0,12.25,0.0
1614967245535974025,,71436,,1614895218,588843986,"""0""",12.0,0.625,12.25,0.0
1614967245578573942,,71437,,1614895218,638844559,"""0""",12.0,0.625,12.25,0.0
1614967245660294055,,71438,,1614895218,688798674,"""0""",12.0,0.625,12.25,0.0
1614967245715894937,,71439,,1614895218,738808778,"""0""",12.0,1.0,12.25,0.0
1614967245834041118,,71440,,1614895218,788936070,"""0""",12.0,1.0,12.25,0.0
1614967245834399938,,71441,,1614895218,838779924,"""0""",12.0,1.75,12.25,0.0
1614967245834585905,,71442,,1614895218,888796851,"""0""",12.0,1.375,12.25,0.0
1614967245880543947,,71443,,1614895218,938785028,"""0""",12.0,1.75,12.25,0.0
1614967245922106981,,71444,,1614895218,988814820,"""0""",12.0,3.0,12.25,0.0
1614967245985956907,,71445,,1614895219,38836382,"""0""",12.0,3.0,12.1999998093,0.0
1614967246032977104,,71446,,1614895219,88807059,"""0""",12.0,1.75,12.1999998093,0.0
1614967246079180002,,71447,,1614895219,138776851,"""0""",12.0,2.375,12.1999998093,0.0
1614967246140552043,,71448,,1614895219,188938361,"""0""",12.0,2.75,12.1999998093,0.0
1614967246178066015,,71449,,1614895219,238785705,"""0""",12.0,2.375,12.1499996185,0.0
1614967246225332975,,71450,,1614895219,288803934,"""0""",12.0,1.375,12.1499996185,0.0
1614967246304204940,,71451,,1614895219,338803465,"""0""",12.0,2.0,12.1499996185,0.0
1614967246366893053,,71452,,1614895219,388834663,"""0""",12.0,2.375,12.1999998093,0.0
1614967246414542913,,71453,,1614895219,438852007,"""0""",12.0,6.5,12.1999998093,0.0
1614967246456444025,,71454,,1614895219,488923830,"""0""",12.0,7.25,12.1999998093,0.0
1614967246490621089,,71455,,1614895219,538809611,"""0""",12.0,5.125,12.0500001907,0.0
1614967246528995990,,71456,,1614895219,588863830,"""0""",12.0,5.5,12.0500001907,0.0
1614967246605873107,,71457,,1614895219,638744403,"""0""",12.0,7.375,12.0500001907,0.0
1614967246647541999,,71458,,1614895219,688781798,"""0""",12.0,6.875,12.0,0.0
1614967246707387924,,71459,,1614895219,738785965,"""0""",12.0,7.25,12.0,0.0
1614967246760096073,,71460,,1614895219,788844976,"""0""",12.0,7.75,12.0,0.0
1614967246800503969,,71461,,1614895219,838795184,"""0""",12.0,7.625,11.9499998093,0.0
1614967246852011919,,71462,,1614895219,888857059,"""0""",12.0,7.625,11.9499998093,0.0
1614967246914968013,,71463,,1614895219,938890028,"""0""",12.0,7.875,11.9499998093,0.0
1614967246958899974,,71464,,1614895219,988851850,"""0""",12.0,7.75,11.9499998093,0.0
1614967247031675100,,71465,,1614895220,38789403,"""0""",12.0,8.625,11.8500003815,0.0
1614967247031800985,,71466,,1614895220,88876277,"""0""",12.0,8.75,11.8500003815,0.0
1614967247094361066,,71467,,1614895220,138784559,"""0""",12.0,8.0,11.8500003815,0.0
1614967247138457059,,71468,,1614895220,188795496,"""0""",12.0,8.0,11.8000001907,0.0
1614967247180329084,,71469,,1614895220,238783517,"""0""",12.0,7.75,11.8000001907,0.0
1614967247247608900,,71470,,1614895220,288931642,"""0""",12.0,7.375,11.8000001907,0.0
1614967247283740997,,71471,,1614895220,338801694,"""0""",12.0,7.75,11.8500003815,0.0
1614967247319590091,,71472,,1614895220,388854350,"""0""",12.0,7.875,11.8500003815,0.0
1614967247382719993,,71473,,1614895220,438776382,"""0""",12.0,7.5,11.8500003815,0.0
1614967247421178102,,71474,,1614895220,488785861,"""0""",12.0,7.5,11.8999996185,0.0
1614967247511044979,,71475,,1614895220,538790184,"""0""",12.0,7.375,11.8999996185,0.0
1614967247539845943,,71476,,1614895220,588957215,"""0""",12.0,7.5,11.8999996185,0.0
1614967247593229055,,71477,,1614895220,638856381,"""0""",12.0,7.5,11.8999996185,0.0
1614967247648619890,,71478,,1614895220,688892163,"""0""",12.0,7.875,11.8999996185,0.0
1614967247696996927,,71479,,1614895220,738774402,"""0""",12.0,8.375,11.8999996185,0.0
1614967247732650041,,71480,,1614895220,788849246,"""0""",12.0,8.0,11.8999996185,0.0
1614967247814212083,,71481,,1614895220,838805027,"""0""",12.0,7.875,11.8500003815,0.0
1614967247855093002,,71482,,1614895220,888882683,"""0""",12.0,7.625,11.8500003815,0.0
1614967247918673038,,71483,,1614895220,938791798,"""0""",12.0,7.375,11.8500003815,0.0
1614967247973476886,,71484,,1614895220,988801746,"""0""",12.0,7.0,12.0,0.0
1614967248014206886,,71485,,1614895221,38787371,"""0""",12.0,6.875,12.0,0.0
1614967248109405040,,71486,,1614895221,88803673,"""0""",12.0,7.0,12.0,0.0
1614967248109510898,,71487,,1614895221,138805131,"""0""",12.0,6.75,12.0,0.0
1614967248151799917,,71488,,1614895221,188886433,"""0""",12.0,4.375,12.0,0.0
1614967248208677053,,71489,,1614895221,238773048,"""0""",12.0,2.375,12.0,0.0
1614967248252026081,,71490,,1614895221,288895392,"""0""",12.0,1.75,12.1999998093,0.0
1614967248313543081,,71491,,1614895221,338859090,"""0""",12.0,1.0,12.1999998093,0.0
1614967248424356937,,71492,,1614895221,388796902,"""0""",12.0,1.0,12.1999998093,0.0
1614967248424506902,,71493,,1614895221,438784402,"""0""",12.0,0.375,12.3000001907,0.0
1614967248466020107,,71494,,1614895221,488844819,"""0""",12.0,0.375,12.3000001907,0.0
1614967248523183107,,71495,,1614895221,538856798,"""0""",12.0,0.375,12.3000001907,0.0
1614967248562514066,,71496,,1614895221,588824194,"""0""",12.0,0.375,12.3000001907,0.0
1614967248604146003,,71497,,1614895221,638972839,"""0""",12.0,0.0,12.3000001907,0.0
1614967248712630033,,71498,,1614895221,688796121,"""0""",12.0,0.0,12.3000001907,0.0
1614967248712825059,,71499,,1614895221,738849819,"""0""",12.0,0.0,12.3000001907,0.0
1614967248762690067,,71500,,1614895221,788805183,"""0""",12.0,0.375,12.3000001907,0.0
1614967248818496942,,71501,,1614895221,838819975,"""0""",12.0,0.375,12.3000001907,0.0
1614967248893619060,,71502,,1614895221,888828516,"""0""",12.0,0.375,12.3000001907,0.0
1614967248893745899,,71503,,1614895221,938795912,"""0""",12.0,0.625,12.25,0.0
1614967248969741106,,71504,,1614895221,988769766,"""0""",12.0,0.625,12.25,0.0
1614967249006457090,,71505,,1614895222,38828933,"""0""",12.0,0.625,12.25,0.0
1614967249048832893,,71506,,1614895222,88830183,"""0""",12.0,0.625,12.25,0.0
1614967249099610090,,71507,,1614895222,138866120,"""0""",12.0,0.625,12.25,0.0
1614967249145184040,,71508,,1614895222,188819141,"""0""",12.0,1.0,12.25,0.0
1614967249185832023,,71509,,1614895222,238777527,"""0""",12.0,2.75,12.1000003815,0.0
1614967249245492935,,71510,,1614895222,288759506,"""0""",12.0,3.375,12.1000003815,0.0
1614967249302869081,,71511,,1614895222,338802370,"""0""",12.0,4.75,12.1000003815,0.0
1614967249344762086,,71512,,1614895222,388896954,"""0""",12.0,5.75,12.1000003815,0.0
1614967249395857095,,71513,,1614895222,438795756,"""0""",12.0,6.75,12.0,0.0
1614967249470946073,,71514,,1614895222,488803620,"""0""",12.0,6.75,12.0,0.0
1614967249509222030,,71515,,1614895222,538793777,"""0""",12.0,6.875,12.0,0.0
1614967249618046998,,71516,,1614895222,588814454,"""0""",12.0,6.75,12.0500001907,0.0
1614967249618273973,,71517,,1614895222,638921433,"""0""",12.0,6.75,12.0500001907,0.0
1614967249673175096,,71518,,1614895222,688853672,"""0""",12.0,6.75,12.0500001907,0.0
1614967249730964899,,71519,,1614895222,739029089,"""0""",12.0,6.75,12.0,0.0
1614967249780399084,,71520,,1614895222,788765547,"""0""",12.0,6.625,12.0,0.0
1614967249836322069,,71521,,1614895222,838814558,"""0""",12.0,6.625,12.0,0.0
1614967249911123991,,71522,,1614895222,888854506,"""0""",12.0,6.125,12.0500001907,0.0
1614967249911228895,,71523,,1614895222,938934662,"""0""",12.0,5.125,12.0500001907,0.0
1614967249958560943,,71524,,1614895222,988868151,"""0""",12.0,5.125,12.0500001907,0.0
1614967250028472900,,71525,,1614895223,38770339,"""0""",12.0,4.375,12.0500001907,0.0
1614967250091510057,,71526,,1614895223,88782891,"""0""",12.0,5.125,12.0500001907,0.0
1614967250091618061,,71527,,1614895223,138791693,"""0""",12.0,5.75,12.0500001907,0.0
1614967250143778085,,71528,,1614895223,188774662,"""0""",12.0,5.5,12.0500001907,0.0
1614967250195694923,,71529,,1614895223,238780547,"""0""",12.0,4.125,12.1000003815,0.0
1614967250297053098,,71530,,1614895223,288738724,"""0""",12.0,4.125,12.1000003815,0.0
1614967250297163009,,71531,,1614895223,338845287,"""0""",12.0,4.125,12.1000003815,0.0
1614967250338629007,,71532,,1614895223,388766328,"""0""",12.0,4.125,12.1000003815,0.0
1614967250397778987,,71533,,1614895223,438803880,"""0""",12.0,3.75,12.1000003815,0.0
1614967250466824054,,71534,,1614895223,488794037,"""0""",12.0,3.375,12.1000003815,0.0
1614967250518021106,,71535,,1614895223,539095964,"""0""",11.0,3.0,12.1000003815,0.0
1614967250577055931,,71536,,1614895223,588787422,"""0""",11.0,3.0,12.1000003815,0.0
1614967250623724937,,71537,,1614895223,638779089,"""0""",11.0,2.75,12.1000003815,0.0
1614967250691678047,,71538,,1614895223,688762214,"""0""",12.0,2.75,12.1000003815,0.0
1614967250691783905,,71539,,1614895223,738857734,"""0""",12.0,2.75,12.1000003815,0.0
1614967250750961065,,71540,,1614895223,788796484,"""0""",12.0,2.375,12.1000003815,0.0
1614967250809722900,,71541,,1614895223,838776797,"""0""",12.0,2.375,12.1000003815,0.0
1614967250880326986,,71542,,1614895223,888791745,"""0""",12.0,2.375,12.1000003815,0.0
1614967250955245971,,71543,,1614895223,938827839,"""0""",12.0,3.0,12.1000003815,0.0
1614967250955354928,,71544,,1614895223,988781641,"""0""",12.0,2.75,12.1000003815,0.0
1614967251027148008,,71545,,1614895224,38782213,"""0""",12.0,2.375,12.1000003815,0.0
1614967251105253934,,71546,,1614895224,88756380,"""0""",12.0,2.75,12.1000003815,0.0
1614967251105360984,,71547,,1614895224,138797422,"""0""",12.0,3.0,12.1000003815,0.0
1614967251155721902,,71548,,1614895224,188780807,"""0""",12.0,3.375,12.1000003815,0.0
1614967251208715915,,71549,,1614895224,238821120,"""0""",12.0,3.375,12.1000003815,0.0
1614967251282443046,,71550,,1614895224,288810182,"""0""",12.0,3.375,12.1000003815,0.0
1614967251334371089,,71551,,1614895224,338780963,"""0""",12.0,3.375,12.1000003815,0.0
1614967251334593057,,71552,,1614895224,388844245,"""0""",12.0,3.75,12.1000003815,0.0
1614967251391726016,,71553,,1614895224,438850286,"""0""",12.0,3.75,12.1000003815,0.0
1614967251471276044,,71554,,1614895224,488760911,"""0""",12.0,3.75,12.1000003815,0.0
1614967251521825075,,71555,,1614895224,538798932,"""0""",12.0,4.125,12.1000003815,0.0
1614967251625693082,,71556,,1614895224,588781797,"""0""",12.0,3.0,12.1000003815,0.0
1614967251625797986,,71557,,1614895224,638781536,"""0""",12.0,2.75,12.1000003815,0.0
1614967251702573060,,71558,,1614895224,688823151,"""0""",12.0,2.75,12.1000003815,0.0
1614967251703128099,,71559,,1614895224,738824661,"""0""",12.0,3.0,12.1000003815,0.0
1614967251749993085,,71560,,1614895224,788889609,"""0""",12.0,2.375,12.1000003815,0.0
1614967251807706117,,71561,,1614895224,838761224,"""0""",12.0,2.75,12.1000003815,0.0
1614967251853965044,,71562,,1614895224,888854036,"""0""",12.0,3.0,12.1000003815,0.0
1614967251906310081,,71563,,1614895224,938782890,"""0""",12.0,3.0,12.1000003815,0.0
1614967251997546911,,71564,,1614895224,989223724,"""0""",12.0,3.0,12.1000003815,0.0
1614967252047734975,,71565,,1614895225,38802526,"""0""",12.0,3.0,12.1000003815,0.0
1614967252047883987,,71566,,1614895225,88808724,"""0""",12.0,3.0,12.1000003815,0.0
1614967252101824998,,71567,,1614895225,139434296,"""0""",12.0,3.0,12.1000003815,0.0
1614967252177068948,,71568,,1614895225,188809973,"""0""",12.0,3.375,12.1000003815,0.0
1614967252238029003,,71569,,1614895225,238891484,"""0""",12.0,3.0,12.1000003815,0.0
1614967252238261938,,71570,,1614895225,288802630,"""0""",12.0,3.0,12.1000003815,0.0
1614967252310226917,,71571,,1614895225,338789921,"""0""",12.0,3.375,12.1000003815,0.0
1614967252358845949,,71572,,1614895225,388796275,"""0""",12.0,3.0,12.1000003815,0.0
1614967252400516033,,71573,,1614895225,438792005,"""0""",12.0,3.0,12.0500001907,0.0
1614967252445390939,,71574,,1614895225,488782942,"""0""",12.0,3.0,12.0500001907,0.0
1614967252506572008,,71575,,1614895225,538817525,"""0""",12.0,3.0,12.0500001907,0.0
1614967252559633970,,71576,,1614895225,588826900,"""0""",12.0,3.0,12.0500001907,0.0
1614967252610723018,,71577,,1614895225,638799505,"""0""",12.0,3.375,12.1000003815,0.0
1614967252655788898,,71578,,1614895225,688793723,"""0""",12.0,3.0,12.1000003815,0.0
1614967252716629981,,71579,,1614895225,738821432,"""0""",12.0,2.75,12.1000003815,0.0
1614967252784944057,,71580,,1614895225,788836432,"""0""",12.0,3.0,12.1000003815,0.0
1614967252785149097,,71581,,1614895225,838775494,"""0""",12.0,3.375,12.1000003815,0.0
1614967252833125114,,71582,,1614895225,888791744,"""0""",12.0,4.125,12.1000003815,0.0
1614967252867722988,,71583,,1614895225,938787369,"""0""",12.0,4.125,12.0500001907,0.0
1614967252926058053,,71584,,1614895225,988831796,"""0""",12.0,3.0,12.0500001907,0.0
1614967252972827911,,71585,,1614895226,38841692,"""0""",12.0,2.75,12.0500001907,0.0
1614967253028721094,,71586,,1614895226,88787004,"""0""",12.0,3.0,12.1000003815,0.0
1614967253078010082,,71587,,1614895226,138779817,"""0""",12.0,3.0,12.1000003815,0.0
1614967253131535053,,71588,,1614895226,188786379,"""0""",12.0,3.0,12.1000003815,0.0
1614967253235555887,,71589,,1614895226,238775286,"""0""",12.0,3.375,12.1000003815,0.0
1614967253235698938,,71590,,1614895226,288798358,"""0""",12.0,3.375,12.1000003815,0.0
1614967253293647050,,71591,,1614895226,338771119,"""0""",12.0,2.75,12.1000003815,0.0
1614967253343816995,,71592,,1614895226,389041119,"""0""",12.0,3.0,12.1000003815,0.0
1614967253389384984,,71593,,1614895226,438728931,"""0""",12.0,3.375,12.0500001907,0.0
1614967253446631908,,71594,,1614895226,488792369,"""0""",12.0,3.375,12.0500001907,0.0
1614967253495979070,,71595,,1614895226,538778671,"""0""",12.0,3.375,12.0500001907,0.0
1614967253540252923,,71596,,1614895226,588784504,"""0""",12.0,3.0,12.1000003815,0.0
1614967253588792085,,71597,,1614895226,638805025,"""0""",12.0,2.75,12.1000003815,0.0
1614967253638330936,,71598,,1614895226,688886692,"""0""",12.0,2.375,12.1000003815,0.0
1614967253679693937,,71599,,1614895226,738761379,"""0""",12.0,2.75,12.1000003815,0.0
1614967253766386985,,71600,,1614895226,788947317,"""0""",12.0,3.0,12.1000003815,0.0
1614967253820358991,,71601,,1614895226,838774556,"""0""",12.0,2.75,12.1000003815,0.0
1614967253868738889,,71602,,1614895226,888783567,"""0""",12.0,2.375,12.1000003815,0.0
1614967253912002086,,71603,,1614895226,938865181,"""0""",12.0,2.375,12.1000003815,0.0
1614967253949357986,,71604,,1614895226,988840025,"""0""",12.0,2.375,12.1000003815,0.0
1614967253989923000,,71605,,1614895227,38827212,"""0""",12.0,2.375,12.1000003815,0.0
1614967254045380115,,71606,,1614895227,88795129,"""0""",12.0,2.0,12.1000003815,0.0
1614967254090785980,,71607,,1614895227,138822994,"""0""",12.0,2.0,12.1000003815,0.0
1614967254152370929,,71608,,1614895227,188932160,"""0""",12.0,2.0,12.1000003815,0.0
1614967254203398942,,71609,,1614895227,238814921,"""0""",12.0,1.375,12.1499996185,0.0
1614967254238970994,,71610,,1614895227,288761744,"""0""",12.0,1.0,12.1499996185,0.0
1614967254295794010,,71611,,1614895227,338784608,"""0""",12.0,0.625,12.1499996185,0.0
1614967254362989902,,71612,,1614895227,388796379,"""0""",12.0,0.375,12.3000001907,0.0
1614967254419147968,,71613,,1614895227,438790598,"""0""",12.0,0.375,12.3000001907,0.0
1614967254461183071,,71614,,1614895227,488816952,"""0""",12.0,0.375,12.3000001907,0.0
1614967254504782915,,71615,,1614895227,538768879,"""0""",12.0,0.625,12.25,0.0
1614967254563177108,,71616,,1614895227,588820702,"""0""",12.0,0.375,12.25,0.0
1614967254610516071,,71617,,1614895227,638844608,"""0""",12.0,0.375,12.25,0.0
1614967254675357103,,71618,,1614895227,688845129,"""0""",12.0,0.375,12.25,0.0
1614967254756644010,,71619,,1614895227,738754347,"""0""",12.0,0.625,12.25,0.0
1614967254756962060,,71620,,1614895227,788769035,"""0""",12.0,0.625,12.25,0.0
1614967254794410943,,71621,,1614895227,838760650,"""0""",12.0,1.0,12.1999998093,0.0
1614967254835334062,,71622,,1614895227,889951691,"""0""",12.0,1.0,12.1999998093,0.0
1614967254877475023,,71623,,1614895227,938899660,"""0""",12.0,2.75,12.1999998093,0.0
1614967254944654941,,71624,,1614895227,989332420,"""0""",12.0,3.375,12.1999998093,0.0
1614967254996890068,,71625,,1614895228,38785129,"""0""",12.0,3.75,12.0500001907,0.0
1614967255032331943,,71626,,1614895228,88794452,"""0""",12.0,3.0,12.0500001907,0.0
1614967255078963041,,71627,,1614895228,138769868,"""0""",12.0,3.75,12.0500001907,0.0
1614967255126107931,,71628,,1614895228,188812576,"""0""",12.0,3.75,12.0500001907,0.0
1614967255183183908,,71629,,1614895228,238947368,"""0""",12.0,2.0,12.0500001907,0.0
1614967255237221956,,71630,,1614895228,288812993,"""0""",12.0,1.75,12.0500001907,0.0
1614967255298957109,,71631,,1614895228,338773618,"""0""",12.0,1.375,12.1999998093,0.0
1614967255339875936,,71632,,1614895228,388822212,"""0""",12.0,1.375,12.1999998093,0.0
1614967255385735988,,71633,,1614895228,438786170,"""0""",12.0,1.75,12.1999998093,0.0
1614967255432107925,,71634,,1614895228,488802681,"""0""",12.0,1.375,12.1999998093,0.0
1614967255480886936,,71635,,1614895228,538826899,"""0""",12.0,1.0,12.1999998093,0.0
1614967255525886058,,71636,,1614895228,588790493,"""0""",12.0,1.0,12.1999998093,0.0
1614967255590569972,,71637,,1614895228,638832733,"""0""",12.0,1.0,12.1999998093,0.0
1614967255635899066,,71638,,1614895228,688848514,"""0""",12.0,1.375,12.1999998093,0.0
1614967255689899921,,71639,,1614895228,738771951,"""0""",12.0,2.75,12.1999998093,0.0
1614967255745927095,,71640,,1614895228,788854712,"""0""",12.0,1.75,12.1999998093,0.0
1614967255802295923,,71641,,1614895228,838787524,"""0""",12.0,1.375,12.1999998093,0.0
1614967255851933956,,71642,,1614895228,888852680,"""0""",12.0,2.375,12.1999998093,0.0
1614967255903870105,,71643,,1614895228,938826847,"""0""",12.0,2.75,12.1999998093,0.0
1614967255941941022,,71644,,1614895228,988813149,"""0""",12.0,1.75,12.1999998093,0.0
1614967256008014917,,71645,,1614895229,38764660,"""0""",12.0,1.375,12.1999998093,0.0
1614967256049235105,,71646,,1614895229,88798774,"""0""",12.0,1.375,12.1999998093,0.0
1614967256097111940,,71647,,1614895229,138770337,"""0""",12.0,1.375,12.1999998093,0.0
1614967256145369052,,71648,,1614895229,188799399,"""0""",12.0,1.375,12.1999998093,0.0
1614967256203629016,,71649,,1614895229,238771378,"""0""",12.0,3.0,12.1999998093,0.0
1614967256242655992,,71650,,1614895229,288899451,"""0""",12.0,3.375,12.1000003815,0.0
1614967256288954973,,71651,,1614895229,338760232,"""0""",12.0,2.375,12.1000003815,0.0
1614967256332389116,,71652,,1614895229,388770336,"""0""",12.0,2.0,12.1000003815,0.0
1614967256390842914,,71653,,1614895229,438782889,"""0""",12.0,2.375,12.1000003815,0.0
1614967256431963920,,71654,,1614895229,488795336,"""0""",12.0,2.0,12.1000003815,0.0
1614967256505067110,,71655,,1614895229,538790232,"""0""",12.0,2.75,12.1000003815,0.0
1614967256573901891,,71656,,1614895229,588792941,"""0""",12.0,4.375,12.1000003815,0.0
1614967256610915899,,71657,,1614895229,638806691,"""0""",12.0,3.0,12.0500001907,0.0
1614967256715167999,,71658,,1614895229,688794451,"""0""",12.0,1.375,12.0500001907,0.0
1614967256715271949,,71659,,1614895229,738790961,"""0""",12.0,2.75,12.0500001907,0.0
1614967256798649072,,71660,,1614895229,788938149,"""0""",12.0,2.375,12.1000003815,0.0
1614967256798800945,,71661,,1614895229,838796899,"""0""",12.0,1.75,12.1000003815,0.0
1614967256843558073,,71662,,1614895229,888811586,"""0""",12.0,1.75,12.1000003815,0.0
1614967256878499984,,71663,,1614895229,938786847,"""0""",12.0,2.0,12.1000003815,0.0
1614967256923089981,,71664,,1614895229,988850545,"""0""",12.0,2.0,12.1000003815,0.0
1614967256972374916,,71665,,1614895230,39022107,"""0""",12.0,1.375,12.1000003815,0.0
1614967257021064996,,71666,,1614895230,88795336,"""0""",12.0,1.0,12.1999998093,0.0
1614967257083595037,,71667,,1614895230,138817003,"""0""",12.0,3.375,12.1999998093,0.0
1614967257130765914,,71668,,1614895230,188866482,"""0""",12.0,7.125,12.1999998093,0.0
1614967257172765016,,71669,,1614895230,238729919,"""0""",12.0,7.0,12.0,0.0
1614967257229712009,,71670,,1614895230,288881742,"""0""",12.0,6.625,12.0,0.0
1614967257272401094,,71671,,1614895230,338854086,"""0""",12.0,7.0,12.0,0.0
1614967257331340074,,71672,,1614895230,389087732,"""0""",12.0,7.5,12.0,0.0
1614967257404238939,,71673,,1614895230,438908721,"""0""",11.0,7.375,11.8999996185,0.0
1614967257441468954,,71674,,1614895230,488849763,"""0""",11.0,7.375,11.8999996185,0.0
1614967257493215084,,71675,,1614895230,538942992,"""0""",11.0,8.0,11.8999996185,0.0
1614967257534022092,,71676,,1614895230,588797680,"""0""",11.0,8.375,11.75,0.0
1614967257576203107,,71677,,1614895230,638786117,"""0""",11.0,8.375,11.75,0.0
1614967257636883020,,71678,,1614895230,688922315,"""0""",11.0,8.125,11.75,0.0
1614967257683465957,,71679,,1614895230,738800076,"""0""",11.0,8.375,11.75,0.0
1614967257727818965,,71680,,1614895230,788828305,"""0""",11.0,8.5,11.75,0.0
1614967257777707099,,71681,,1614895230,838864034,"""0""",11.0,8.625,11.75,0.0
1614967257833272933,,71682,,1614895230,888885336,"""0""",12.0,8.5,11.75,0.0
1614967257878386974,,71683,,1614895230,938854242,"""0""",12.0,8.125,11.75,0.0
1614967257939234018,,71684,,1614895230,988834867,"""0""",12.0,8.125,11.75,0.0
1614967257997713088,,71685,,1614895231,38773357,"""0""",11.0,8.75,11.6999998093,0.0
1614967258043764114,,71686,,1614895231,88775336,"""0""",11.0,8.625,11.6999998093,0.0
1614967258095544099,,71687,,1614895231,138806638,"""0""",11.0,8.125,11.6999998093,0.0
1614967258153775930,,71688,,1614895231,188831534,"""0""",11.0,8.125,11.6999998093,0.0
1614967258191080093,,71689,,1614895231,238840909,"""0""",12.0,8.125,11.75,0.0
1614967258247934103,,71690,,1614895231,288799971,"""0""",12.0,7.625,11.75,0.0
1614967258306317090,,71691,,1614895231,338852784,"""0""",12.0,4.125,11.75,0.0
1614967258349229097,,71692,,1614895231,388939346,"""0""",11.0,2.75,12.1499996185,0.0
1614967258400649070,,71693,,1614895231,438912784,"""0""",11.0,17.625,12.1499996185,0.0
1614967258445246934,,71694,,1614895231,488881950,"""0""",11.0,16.125,12.1499996185,0.0
1614967258496851921,,71695,,1614895231,538769242,"""0""",12.0,6.75,11.9499998093,0.0
1614967258540867090,,71696,,1614895231,588809659,"""0""",12.0,2.375,11.9499998093,0.0
1614967258594003915,,71697,,1614895231,638805856,"""0""",12.0,0.625,11.9499998093,0.0
1614967258644764900,,71698,,1614895231,688760075,"""0""",12.0,0.0,12.3500003815,0.0
1614967258757364034,,71699,,1614895231,738843096,"""0""",12.0,0.0,12.3500003815,0.0
1614967258757469892,,71700,,1614895231,788785440,"""0""",12.0,0.625,12.3500003815,0.0
1614967258799278020,,71701,,1614895231,838837471,"""0""",12.0,0.375,12.3000001907,0.0
1614967258845750093,,71702,,1614895231,888848096,"""0""",12.0,0.0,12.3000001907,0.0
1614967258907706022,,71703,,1614895231,938818096,"""0""",12.0,0.0,12.3000001907,0.0
1614967258964030981,,71704,,1614895231,988817783,"""0""",12.0,0.0,12.3000001907,0.0
1614967259027250051,,71705,,1614895232,38824085,"""0""",12.0,0.0,12.3500003815,0.0
1614967259027477025,,71706,,1614895232,88851690,"""0""",12.0,0.0,12.3500003815,0.0
1614967259075484991,,71707,,1614895232,138821742,"""0""",12.0,0.0,12.3500003815,0.0
1614967259119848966,,71708,,1614895232,189359137,"""0""",12.0,0.0,12.3500003815,0.0
1614967259174343109,,71709,,1614895232,238863252,"""0""",12.0,0.0,12.3500003815,0.0
1614967259271162033,,71710,,1614895232,288856429,"""0""",12.0,0.0,12.3500003815,0.0
1614967259330564975,,71711,,1614895232,338878044,"""0""",12.0,0.0,12.3500003815,0.0
1614967259330945968,,71712,,1614895232,388844450,"""0""",12.0,0.0,12.3500003815,0.0
1614967259371071100,,71713,,1614895232,438879658,"""0""",12.0,0.0,12.3500003815,0.0
1614967259423098087,,71714,,1614895232,488740856,"""0""",12.0,0.0,12.3500003815,0.0
1614967259498400926,,71715,,1614895232,538932627,"""0""",12.0,0.625,12.3500003815,0.0
1614967259529350042,,71716,,1614895232,588857419,"""0""",12.0,0.625,12.3500003815,0.0
1614967259578269958,,71717,,1614895232,638795335,"""0""",12.0,1.375,12.1499996185,0.0
1614967259629463911,,71718,,1614895232,688773512,"""0""",12.0,1.75,12.1499996185,0.0
1614967259677568912,,71719,,1614895232,738883460,"""0""",12.0,1.75,12.1499996185,0.0
1614967259723078012,,71720,,1614895232,788757939,"""0""",12.0,1.75,12.1499996185,0.0
1614967259782490015,,71721,,1614895232,838973564,"""0""",12.0,1.75,12.1999998093,0.0
1614967259823959112,,71722,,1614895232,888762471,"""0""",12.0,2.0,12.1999998093,0.0
1614967259877199888,,71723,,1614895232,938802054,"""0""",12.0,3.0,12.1999998093,0.0
1614967259927428007,,71724,,1614895232,988861585,"""0""",11.0,3.75,12.0500001907,0.0
1614967259993046998,,71725,,1614895233,38857106,"""0""",11.0,3.75,12.0500001907,0.0
1614967260105540037,,71726,,1614895233,88814241,"""0""",11.0,4.125,12.0500001907,0.0
1614967260105669021,,71727,,1614895233,138829345,"""0""",11.0,6.75,12.0,0.0
1614967260140378952,,71728,,1614895233,188803252,"""0""",11.0,6.5,12.0,0.0
1614967260212301969,,71729,,1614895233,238825752,"""0""",11.0,5.75,12.0,0.0
1614967260247668027,,71730,,1614895233,288765387,"""0""",11.0,6.75,11.9499998093,0.0
1614967260319889068,,71731,,1614895233,338891377,"""0""",11.0,6.875,11.9499998093,0.0
1614967260364670991,,71732,,1614895233,388770856,"""0""",11.0,6.875,11.9499998093,0.0
1614967260406769990,,71733,,1614895233,438832574,"""0""",11.0,6.75,11.9499998093,0.0
1614967260463534116,,71734,,1614895233,488813147,"""0""",11.0,6.875,11.9499998093,0.0
1614967260510461091,,71735,,1614895233,539352627,"""0""",11.0,6.875,11.9499998093,0.0
1614967260562251091,,71736,,1614895233,588835283,"""0""",11.0,6.875,11.9499998093,0.0
1614967260594564914,,71737,,1614895233,638965856,"""0""",11.0,6.75,11.9499998093,0.0
1614967260632121086,,71738,,1614895233,689101220,"""0""",11.0,6.875,11.9499998093,0.0
1614967260679044961,,71739,,1614895233,738830699,"""0""",11.0,6.875,11.9499998093,0.0
1614967260733228921,,71740,,1614895233,788764606,"""0""",12.0,6.75,11.8999996185,0.0
1614967260770945072,,71741,,1614895233,838788043,"""0""",12.0,6.625,11.8999996185,0.0
1614967260819977998,,71742,,1614895233,888783668,"""0""",12.0,6.5,11.8999996185,0.0
1614967260869281053,,71743,,1614895233,938896324,"""0""",12.0,6.75,11.9499998093,0.0
1614967260946094036,,71744,,1614895233,988860803,"""0""",12.0,6.75,11.9499998093,0.0
1614967260997565984,,71745,,1614895234,38831897,"""0""",12.0,6.625,11.9499998093,0.0
1614967261069797039,,71746,,1614895234,88774397,"""0""",12.0,6.5,12.0,0.0
1614967261117724895,,71747,,1614895234,138804189,"""0""",12.0,5.5,12.0,0.0
1614967261149383068,,71748,,1614895234,188813564,"""0""",12.0,5.125,12.0,0.0
1614967261213109970,,71749,,1614895234,238790803,"""0""",11.0,5.5,12.0,0.0
1614967261365458965,,71750,,1614895234,288802001,"""0""",11.0,5.125,12.0,0.0
1614967261365607023,,71751,,1614895234,338806168,"""0""",11.0,5.75,12.0,0.0
1614967261365644931,,71752,,1614895234,388763043,"""0""",11.0,6.5,12.0,0.0
1614967261409296989,,71753,,1614895234,438785230,"""0""",12.0,6.125,12.0,0.0
1614967261453394889,,71754,,1614895234,488756324,"""0""",12.0,4.75,12.0,0.0
1614967261500773906,,71755,,1614895234,538824553,"""0""",12.0,3.75,12.0,0.0
1614967261620338916,,71756,,1614895234,588821584,"""0""",11.0,4.375,12.0,0.0
1614967261620491981,,71757,,1614895234,638818564,"""0""",11.0,6.125,12.0,0.0
1614967261654335021,,71758,,1614895234,688895803,"""0""",11.0,5.75,12.0,0.0
1614967261729434967,,71759,,1614895234,738794084,"""0""",11.0,3.75,12.0500001907,0.0
1614967261789797067,,71760,,1614895234,788781220,"""0""",11.0,3.75,12.0500001907,0.0
1614967261789913892,,71761,,1614895234,838772105,"""0""",11.0,4.375,12.0500001907,0.0
1614967261867175102,,71762,,1614895234,888810751,"""0""",12.0,5.125,12.0500001907,0.0
1614967261897700071,,71763,,1614895234,938814918,"""0""",12.0,6.625,12.0500001907,0.0
1614967262014945983,,71764,,1614895234,988825543,"""0""",12.0,6.75,12.0500001907,0.0
1614967262015048980,,71765,,1614895235,38783511,"""0""",12.0,6.5,12.0,0.0
1614967262062213897,,71766,,1614895235,88815959,"""0""",12.0,5.125,12.0,0.0
1614967262133342027,,71767,,1614895235,139017991,"""0""",12.0,4.375,12.0,0.0
1614967262205024957,,71768,,1614895235,188800543,"""0""",12.0,5.5,12.0,0.0
1614967262205193996,,71769,,1614895235,238808043,"""0""",12.0,5.75,11.9499998093,0.0
1614967262266875982,,71770,,1614895235,288871272,"""0""",12.0,5.125,11.9499998093,0.0
1614967262346218109,,71771,,1614895235,339054865,"""0""",12.0,4.375,11.9499998093,0.0
1614967262346359968,,71772,,1614895235,388764240,"""0""",12.0,3.75,12.0500001907,0.0
1614967262410024881,,71773,,1614895235,438965334,"""0""",12.0,2.375,12.0500001907,0.0
1614967262467617034,,71774,,1614895235,488830907,"""0""",12.0,2.0,12.0500001907,0.0
1614967262512609004,,71775,,1614895235,538784397,"""0""",12.0,2.0,12.1000003815,0.0
1614967262550093889,,71776,,1614895235,588790595,"""0""",12.0,2.0,12.1000003815,0.0
1614967262582077026,,71777,,1614895235,638782105,"""0""",12.0,1.375,12.1000003815,0.0
1614967262631757974,,71778,,1614895235,688779084,"""0""",12.0,1.375,12.1499996185,0.0
1614967262676080942,,71779,,1614895235,738788042,"""0""",12.0,1.75,12.1499996185,0.0
1614967262739557981,,71780,,1614895235,788777209,"""0""",12.0,2.0,12.1499996185,0.0
1614967262793061971,,71781,,1614895235,838788355,"""0""",12.0,1.75,12.1499996185,0.0
1614967262862684965,,71782,,1614895235,888815490,"""0""",12.0,1.375,12.1499996185,0.0
1614967262938416004,,71783,,1614895235,938766532,"""0""",12.0,1.0,12.1499996185,0.0
1614967262976262092,,71784,,1614895235,988903042,"""0""",12.0,1.375,12.1499996185,0.0
1614967263066267967,,71785,,1614895236,38791948,"""0""",11.0,2.0,12.1499996185,0.0
1614967263066478013,,71786,,1614895236,88786896,"""0""",11.0,2.375,12.1499996185,0.0
1614967263117105007,,71787,,1614895236,138785542,"""0""",11.0,3.0,12.1499996185,0.0
1614967263156964063,,71788,,1614895236,188845959,"""0""",12.0,2.0,12.1000003815,0.0
1614967263196225881,,71789,,1614895236,238873251,"""0""",12.0,1.0,12.1000003815,0.0
1614967263317640066,,71790,,1614895236,288825750,"""0""",12.0,1.0,12.1000003815,0.0
1614967263318048954,,71791,,1614895236,338763667,"""0""",11.0,1.0,12.1999998093,0.0
1614967263365931034,,71792,,1614895236,389009761,"""0""",11.0,0.625,12.1999998093,0.0
1614967263417220115,,71793,,1614895236,438815125,"""0""",11.0,1.75,12.1999998093,0.0
1614967263472829103,,71794,,1614895236,488968511,"""0""",12.0,2.0,12.1499996185,0.0
1614967263502512931,,71795,,1614895236,538804500,"""0""",12.0,1.375,12.1499996185,0.0
1614967263557651042,,71796,,1614895236,588793198,"""0""",12.0,1.375,12.1499996185,0.0
1614967263599168062,,71797,,1614895236,638795021,"""0""",12.0,2.0,12.1000003815,0.0
1614967263657900094,,71798,,1614895236,688825230,"""0""",12.0,1.375,12.1000003815,0.0
1614967263704025030,,71799,,1614895236,738836375,"""0""",12.0,1.75,12.1000003815,0.0
1614967263743360042,,71800,,1614895236,788821115,"""0""",12.0,2.375,12.1000003815,0.0
1614967263787895917,,71801,,1614895236,838826063,"""0""",12.0,0.25,12.0500001907,0.0
1614967263832695007,,71802,,1614895236,888790907,"""0""",12.0,0.0,12.0500001907,0.0
1614967263880103111,,71803,,1614895236,938788771,"""0""",12.0,0.0,12.0500001907,0.0
1614967263929871082,,71804,,1614895236,988788615,"""0""",12.0,0.0,12.3500003815,0.0
1614967263999320030,,71805,,1614895237,38810542,"""0""",12.0,0.0,12.3500003815,0.0
1614967264044387102,,71806,,1614895237,88809761,"""0""",12.0,0.0,12.3500003815,0.0
1614967264081238985,,71807,,1614895237,138820698,"""0""",12.0,0.0,12.3500003815,0.0
1614967264133074998,,71808,,1614895237,188795802,"""0""",12.0,0.0,12.3500003815,0.0
1614967264185918092,,71809,,1614895237,238782313,"""0""",12.0,0.0,12.3500003815,0.0
1614967264223810911,,71810,,1614895237,288785906,"""0""",12.0,0.0,12.3500003815,0.0
1614967264275991916,,71811,,1614895237,338954656,"""0""",12.0,0.0,12.3500003815,0.0
1614967264344207048,,71812,,1614895237,388876688,"""0""",12.0,0.0,12.3500003815,0.0
1614967264387192010,,71813,,1614895237,438791844,"""0""",12.0,0.0,12.3500003815,0.0
1614967264424959897,,71814,,1614895237,488850594,"""0""",12.0,0.0,12.3500003815,0.0
1614967264485162973,,71815,,1614895237,538772313,"""0""",12.0,0.0,12.3500003815,0.0
1614967264526904106,,71816,,1614895237,588802156,"""0""",12.0,0.0,12.3500003815,0.0
1614967264592140913,,71817,,1614895237,638774187,"""0""",12.0,0.0,12.3500003815,0.0
1614967264626036882,,71818,,1614895237,688861323,"""0""",12.0,0.0,12.3500003815,0.0
1614967264679609060,,71819,,1614895237,738834969,"""0""",12.0,0.0,12.3500003815,0.0
1614967264731494903,,71820,,1614895237,788790594,"""0""",12.0,0.0,12.3500003815,0.0
1614967264779464960,,71821,,1614895237,838893927,"""0""",12.0,0.0,12.3500003815,0.0
1614967264823702096,,71822,,1614895237,888798875,"""0""",12.0,0.0,12.3500003815,0.0
1614967264897042989,,71823,,1614895237,938811583,"""0""",12.0,0.0,12.3500003815,0.0
1614967264943542003,,71824,,1614895237,988858094,"""0""",12.0,0.0,12.3500003815,0.0
1614967264997371912,,71825,,1614895238,38913146,"""0""",12.0,0.0,12.3500003815,0.0
1614967265038904905,,71826,,1614895238,88800802,"""0""",12.0,0.0,12.3500003815,0.0
1614967265082889080,,71827,,1614895238,138785229,"""0""",12.0,0.0,12.3500003815,0.0
1614967265130274057,,71828,,1614895238,188787104,"""0""",12.0,0.0,12.3500003815,0.0
1614967265205514907,,71829,,1614895238,238736323,"""0""",12.0,0.0,12.3500003815,0.0
1614967265256370067,,71830,,1614895238,288771948,"""0""",12.0,0.0,12.3500003815,0.0
1614967265311151027,,71831,,1614895238,338805541,"""0""",12.0,0.0,12.3500003815,0.0
1614967265354530096,,71832,,1614895238,388841687,"""0""",12.0,0.0,12.3500003815,0.0
1614967265440603017,,71833,,1614895238,438801062,"""0""",12.0,0.0,12.3500003815,0.0
1614967265506747007,,71834,,1614895238,488819083,"""0""",12.0,0.0,12.3500003815,0.0
1614967265506934881,,71835,,1614895238,538787520,"""0""",12.0,0.0,12.3500003815,0.0
1614967265565119981,,71836,,1614895238,588809500,"""0""",12.0,0.0,12.3500003815,0.0
1614967265629858970,,71837,,1614895238,638742677,"""0""",12.0,0.0,12.3500003815,0.0
1614967265684576988,,71838,,1614895238,688782989,"""0""",12.0,0.0,12.3500003815,0.0
1614967265684684038,,71839,,1614895238,738871947,"""0""",12.0,0.0,12.3500003815,0.0
1614967265726978063,,71840,,1614895238,788856479,"""0""",12.0,0.0,12.3500003815,0.0
1614967265808760881,,71841,,1614895238,838786791,"""0""",12.0,0.0,12.3500003815,0.0
1614967265859199047,,71842,,1614895238,888791479,"""0""",12.0,0.0,12.3500003815,0.0
1614967265901664018,,71843,,1614895238,938803302,"""0""",12.0,0.0,12.3500003815,0.0
1614967265949388980,,71844,,1614895238,988777677,"""0""",12.0,0.0,12.3500003815,0.0
1614967265992166042,,71845,,1614895239,38779031,"""0""",12.0,0.0,12.3500003815,0.0
1614967266046273946,,71846,,1614895239,88791739,"""0""",12.0,0.0,12.3500003815,0.0
1614967266096230030,,71847,,1614895239,138773301,"""0""",12.0,0.0,12.3500003815,0.0
1614967266150219917,,71848,,1614895239,188893822,"""0""",12.0,0.0,12.3500003815,0.0
1614967266196290016,,71849,,1614895239,238843926,"""0""",12.0,0.0,12.3500003815,0.0
1614967266246570110,,71850,,1614895239,288796166,"""0""",12.0,0.0,12.3500003815,0.0
1614967266293194055,,71851,,1614895239,338742364,"""0""",12.0,0.0,12.3500003815,0.0
1614967266346738100,,71852,,1614895239,388930697,"""0""",12.0,0.0,12.3500003815,0.0
1614967266392319917,,71853,,1614895239,438790749,"""0""",12.0,0.0,12.3500003815,0.0
1614967266426019906,,71854,,1614895239,488873562,"""0""",12.0,0.0,12.3500003815,0.0
1614967266471220016,,71855,,1614895239,538859603,"""0""",12.0,0.0,12.3500003815,0.0
1614967266531090974,,71856,,1614895239,589465697,"""0""",12.0,0.0,12.3500003815,0.0
1614967266601243019,,71857,,1614895239,638787728,"""0""",12.0,0.0,12.3500003815,0.0
1614967266645324945,,71858,,1614895239,689774499,"""0""",12.0,0.0,12.3500003815,0.0
1614967266697659969,,71859,,1614895239,738831843,"""0""",12.0,0.0,12.3500003815,0.0
1614967266728821039,,71860,,1614895239,788874812,"""0""",12.0,0.0,12.3500003815,0.0
1614967266777401924,,71861,,1614895239,838769916,"""0""",12.0,0.0,12.3500003815,0.0
1614967266838054895,,71862,,1614895239,889242364,"""0""",12.0,0.0,12.3500003815,0.0
1614967266883131027,,71863,,1614895239,938784187,"""0""",12.0,0.0,12.3500003815,0.0
1614967266938044071,,71864,,1614895239,988832520,"""0""",12.0,0.0,12.3500003815,0.0
1614967267015216112,,71865,,1614895240,38831739,"""0""",12.0,0.0,12.3500003815,0.0
1614967267048810005,,71866,,1614895240,88796843,"""0""",12.0,0.0,12.3500003815,0.0
1614967267084445953,,71867,,1614895240,138785176,"""0""",12.0,0.0,12.3500003815,0.0
1614967267135248899,,71868,,1614895240,188805280,"""0""",12.0,0.0,12.3500003815,0.0
1614967267183760881,,71869,,1614895240,238788249,"""0""",12.0,0.0,12.3500003815,0.0
1614967267231761932,,71870,,1614895240,289983718,"""0""",12.0,0.0,12.3500003815,0.0
1614967267288343906,,71871,,1614895240,338769030,"""0""",12.0,0.0,12.3500003815,0.0
1614967267345082044,,71872,,1614895240,388962832,"""0""",12.0,0.0,12.3500003815,0.0
1614967267386367082,,71873,,1614895240,438782884,"""0""",12.0,0.0,12.3500003815,0.0
1614967267431004047,,71874,,1614895240,489019603,"""0""",12.0,0.0,12.3500003815,0.0
1614967267476532936,,71875,,1614895240,538832988,"""0""",12.0,0.0,12.3500003815,0.0
1614967267537589073,,71876,,1614895240,588897728,"""0""",12.0,0.0,12.3500003815,0.0
1614967267600249052,,71877,,1614895240,638770540,"""0""",12.0,0.0,12.3500003815,0.0
1614967267648838996,,71878,,1614895240,688796530,"""0""",12.0,0.0,12.3500003815,0.0
1614967267682275056,,71879,,1614895240,738812728,"""0""",12.0,0.0,12.3500003815,0.0
1614967267724332094,,71880,,1614895240,788872259,"""0""",12.0,0.0,12.3500003815,0.0
1614967267783776044,,71881,,1614895240,838789343,"""0""",12.0,0.0,12.3500003815,0.0
1614967267838619947,,71882,,1614895240,888788665,"""0""",12.0,0.0,12.3500003815,0.0
1614967267912487030,,71883,,1614895240,938808613,"""0""",12.0,0.0,12.3500003815,0.0
1614967267937702894,,71884,,1614895240,988811322,"""0""",12.0,0.0,12.3500003815,0.0
1614967267972122907,,71885,,1614895241,38792051,"""0""",12.0,0.0,12.3500003815,0.0
1614967268038094997,,71886,,1614895241,88857624,"""0""",12.0,0.0,12.3500003815,0.0
1614967268082555055,,71887,,1614895241,138813040,"""0""",12.0,0.0,12.3500003815,0.0
1614967268125708103,,71888,,1614895241,188787467,"""0""",12.0,0.0,12.3500003815,0.0
1614967268192435026,,71889,,1614895241,238770801,"""0""",12.0,0.0,12.3500003815,0.0
1614967268228373050,,71890,,1614895241,288860853,"""0""",12.0,0.0,12.3500003815,0.0
1614967268302407979,,71891,,1614895241,338783509,"""0""",12.0,0.0,12.3500003815,0.0
1614967268339457988,,71892,,1614895241,388915853,"""0""",12.0,0.0,12.3500003815,0.0
1614967268395483016,,71893,,1614895241,438763613,"""0""",12.0,0.0,12.3500003815,0.0
1614967268444350957,,71894,,1614895241,488793821,"""0""",12.0,0.0,12.3500003815,0.0
1614967268500097990,,71895,,1614895241,538779707,"""0""",12.0,0.0,12.3500003815,0.0
1614967268545154094,,71896,,1614895241,588894811,"""0""",12.0,0.0,12.3500003815,0.0
1614967268582653045,,71897,,1614895241,638778665,"""0""",12.0,0.0,12.3500003815,0.0
1614967268624022006,,71898,,1614895241,688786894,"""0""",12.0,0.0,12.3500003815,0.0
1614967268678946018,,71899,,1614895241,738759915,"""0""",12.0,0.0,12.3500003815,0.0
1614967268727854967,,71900,,1614895241,788795853,"""0""",12.0,0.0,12.3500003815,0.0
1614967268787877082,,71901,,1614895241,838831165,"""0""",12.0,0.0,12.3500003815,0.0
1614967268841589927,,71902,,1614895241,888798300,"""0""",12.0,0.0,12.3500003815,0.0
1614967268901261091,,71903,,1614895241,938817832,"""0""",12.0,0.0,12.3500003815,0.0
1614967268939266920,,71904,,1614895241,988791321,"""0""",12.0,0.0,12.3500003815,0.0
1614967268977304935,,71905,,1614895242,38816634,"""0""",12.0,0.0,12.3500003815,0.0
1614967269025769948,,71906,,1614895242,88790800,"""0""",12.0,0.0,12.3500003815,0.0
1614967269115672111,,71907,,1614895242,138792675,"""0""",12.0,0.0,12.3500003815,0.0
1614967269155994892,,71908,,1614895242,188792102,"""0""",12.0,0.0,12.3500003815,0.0
1614967269318335056,,71909,,1614895242,238824654,"""0""",12.0,0.0,12.3500003815,0.0
1614967269318748950,,71910,,1614895242,288810904,"""0""",12.0,0.0,12.3500003815,0.0
1614967269318773984,,71911,,1614895242,338778300,"""0""",12.0,0.0,12.3500003815,0.0
1614967269318794012,,71912,,1614895242,388887102,"""0""",12.0,0.0,12.3500003815,0.0
1614967269381455898,,71913,,1614895242,438765384,"""0""",12.0,0.0,12.3500003815,0.0
1614967269458348035,,71914,,1614895242,488788509,"""0""",12.0,0.0,12.3500003815,0.0
1614967269501704931,,71915,,1614895242,538924186,"""0""",12.0,0.0,12.3500003815,0.0
1614967269553427934,,71916,,1614895242,588910123,"""0""",12.0,0.0,12.3500003815,0.0
1614967269606482028,,71917,,1614895242,638877675,"""0""",12.0,0.0,12.3500003815,0.0
1614967269689502954,,71918,,1614895242,688816477,"""0""",12.0,0.0,12.3500003815,0.0
1614967269689675092,,71919,,1614895242,738772311,"""0""",12.0,0.0,12.3500003815,0.0
1614967269757716894,,71920,,1614895242,788885904,"""0""",12.0,0.0,12.3500003815,0.0
1614967269795339107,,71921,,1614895242,838848300,"""0""",12.0,0.0,12.3500003815,0.0
1614967269830317020,,71922,,1614895242,888798613,"""0""",12.0,0.0,12.3500003815,0.0
1614967269877434015,,71923,,1614895242,938801425,"""0""",12.0,0.0,12.3500003815,0.0
1614967269938750982,,71924,,1614895242,988891842,"""0""",12.0,0.0,12.3500003815,0.0
1614967269994082927,,71925,,1614895243,38770175,"""0""",12.0,0.0,12.3500003815,0.0
1614967270035461902,,71926,,1614895243,88928977,"""0""",12.0,0.0,12.3500003815,0.0
1614967270084441900,,71927,,1614895243,138809862,"""0""",12.0,0.0,12.3500003815,0.0
1614967270150422096,,71928,,1614895243,188890019,"""0""",12.0,0.0,12.3500003815,0.0
1614967270202524900,,71929,,1614895243,238786217,"""0""",12.0,0.0,12.3500003815,0.0
1614967270277024984,,71930,,1614895243,288870956,"""0""",12.0,0.0,12.3500003815,0.0
1614967270313158988,,71931,,1614895243,338879914,"""0""",12.0,0.0,12.3500003815,0.0
1614967270354994058,,71932,,1614895243,388910227,"""0""",12.0,0.0,12.3500003815,0.0
1614967270386996984,,71933,,1614895243,438915331,"""0""",12.0,0.0,12.3500003815,0.0
1614967270439099073,,71934,,1614895243,488822675,"""0""",12.0,0.0,12.3500003815,0.0
1614967270490370035,,71935,,1614895243,538774810,"""0""",12.0,0.0,12.3500003815,0.0
1614967270589544057,,71936,,1614895243,588818144,"""0""",12.0,0.0,12.3500003815,0.0
1614967270589862108,,71937,,1614895243,638858925,"""0""",12.0,0.0,12.3500003815,0.0
1614967270626816987,,71938,,1614895243,688805904,"""0""",12.0,0.0,12.3500003815,0.0
1614967270678561925,,71939,,1614895243,738778196,"""0""",12.0,0.0,12.3500003815,0.0
1614967270732827901,,71940,,1614895243,788832987,"""0""",12.0,0.0,12.3500003815,0.0
1614967270784534931,,71941,,1614895243,838811581,"""0""",12.0,0.0,12.3500003815,0.0
1614967270840034008,,71942,,1614895243,888784237,"""0""",12.0,0.0,12.3500003815,0.0
1614967270906548023,,71943,,1614895243,938768977,"""0""",12.0,0.0,12.3500003815,0.0
1614967270950041055,,71944,,1614895243,988774706,"""0""",12.0,0.0,12.3500003815,0.0
1614967270997071027,,71945,,1614895244,38772987,"""0""",12.0,0.0,12.3500003815,0.0
1614967271047867059,,71946,,1614895244,88796529,"""0""",12.0,0.0,12.3500003815,0.0
1614967271094974994,,71947,,1614895244,138784445,"""0""",12.0,0.0,12.3500003815,0.0
1614967271183845996,,71948,,1614895244,189006477,"""0""",12.0,0.0,12.3500003815,0.0
1614967271183882951,,71949,,1614895244,238785435,"""0""",12.0,0.0,12.3500003815,0.0
1614967271234467983,,71950,,1614895244,288792518,"""0""",12.0,0.0,12.3500003815,0.0
1614967271279401063,,71951,,1614895244,338788352,"""0""",12.0,0.0,12.3500003815,0.0
1614967271330425024,,71952,,1614895244,388867518,"""0""",12.0,0.0,12.3500003815,0.0
1614967271382963895,,71953,,1614895244,438843039,"""0""",12.0,0.0,12.3500003815,0.0
