rosbagTimestamp,header,seq,stamp,secs,nsecs,frame_id,Temperature,OutputCurrent,BusVoltage,ClosedLoopError
1614972270301935911,,171923,,1614900242,938752434,"""0""",13.0,0.0,12.3999996185,0.0
1614972270350728034,,171924,,1614900242,988774257,"""0""",13.0,0.0,12.3999996185,0.0
1614972270400583028,,171925,,1614900243,38779778,"""0""",13.0,0.0,12.3999996185,0.0
1614972270463893890,,171926,,1614900243,88923111,"""0""",13.0,0.0,12.3999996185,0.0
1614972270501497983,,171927,,1614900243,138799153,"""0""",13.0,0.0,12.3999996185,0.0
1614972270565588951,,171928,,1614900243,188821705,"""0""",13.0,0.0,12.3999996185,0.0
1614972270603707075,,171929,,1614900243,238939257,"""0""",13.0,0.0,12.3999996185,0.0
1614972270670759916,,171930,,1614900243,288787070,"""0""",13.0,0.0,12.3999996185,0.0
1614972270710710048,,171931,,1614900243,338799830,"""0""",13.0,0.0,12.3999996185,0.0
1614972270767354965,,171932,,1614900243,388789153,"""0""",13.0,0.0,12.3999996185,0.0
1614972270812822103,,171933,,1614900243,438791601,"""0""",13.0,0.0,12.3999996185,0.0
1614972270868375062,,171934,,1614900243,488776913,"""0""",13.0,0.0,12.3999996185,0.0
1614972270912813901,,171935,,1614900243,538915663,"""0""",13.0,0.0,12.3999996185,0.0
1614972270977199077,,171936,,1614900243,588847070,"""0""",13.0,0.0,12.3999996185,0.0
1614972271015774965,,171937,,1614900243,638797070,"""0""",13.0,0.0,12.3999996185,0.0
1614972271075081110,,171938,,1614900243,688814986,"""0""",13.0,0.0,12.3999996185,0.0
1614972271102107048,,171939,,1614900243,738880767,"""0""",13.0,0.0,12.3999996185,0.0
1614972271168106079,,171940,,1614900243,788808372,"""0""",13.0,0.0,12.3999996185,0.0
1614972271213989019,,171941,,1614900243,838868476,"""0""",13.0,0.0,12.3999996185,0.0
1614972271263446092,,171942,,1614900243,888777278,"""0""",13.0,0.0,12.3999996185,0.0
1614972271317956924,,171943,,1614900243,938829205,"""0""",13.0,0.0,12.3999996185,0.0
1614972271370218992,,171944,,1614900243,988807278,"""0""",13.0,0.0,12.3999996185,0.0
1614972271415180921,,171945,,1614900244,38791444,"""0""",13.0,0.0,12.3999996185,0.0
1614972271472064018,,171946,,1614900244,88873736,"""0""",13.0,0.0,12.3999996185,0.0
1614972271518500089,,171947,,1614900244,138918580,"""0""",13.0,0.0,12.3999996185,0.0
1614972271564784049,,171948,,1614900244,188824309,"""0""",13.0,0.0,12.3999996185,0.0
1614972271616934061,,171949,,1614900244,238792017,"""0""",13.0,0.0,12.3999996185,0.0
1614972271684231042,,171950,,1614900244,288809569,"""0""",13.0,0.0,12.3999996185,0.0
1614972271722027063,,171951,,1614900244,338825246,"""0""",13.0,0.0,12.3999996185,0.0
1614972271769579887,,171952,,1614900244,389227330,"""0""",12.0,0.0,12.3999996185,0.0
1614972271825897932,,171953,,1614900244,438984205,"""0""",12.0,0.0,12.3999996185,0.0
1614972271879744052,,171954,,1614900244,488843111,"""0""",12.0,0.0,12.3999996185,0.0
1614972271926120042,,171955,,1614900244,538827955,"""0""",12.0,0.0,12.3999996185,0.0
1614972271977653026,,171956,,1614900244,588893684,"""0""",13.0,0.0,12.3999996185,0.0
1614972272018299102,,171957,,1614900244,638790975,"""0""",13.0,0.0,12.3999996185,0.0
1614972272074599981,,171958,,1614900244,688858580,"""0""",13.0,0.0,12.3999996185,0.0
1614972272118663072,,171959,,1614900244,738798684,"""0""",13.0,0.0,12.3999996185,0.0
1614972272178327083,,171960,,1614900244,788793267,"""0""",13.0,0.0,12.3999996185,0.0
1614972272215131044,,171961,,1614900244,838930090,"""0""",13.0,0.0,12.3999996185,0.0
1614972272274534940,,171962,,1614900244,888778267,"""0""",12.0,0.0,12.3999996185,0.0
1614972272318804025,,171963,,1614900244,938817382,"""0""",12.0,0.0,12.3999996185,0.0
1614972272374882936,,171964,,1614900244,988812121,"""0""",12.0,0.0,12.3999996185,0.0
1614972272444520950,,171965,,1614900245,38801184,"""0""",12.0,0.0,12.3999996185,0.0
1614972272477670907,,171966,,1614900245,88864829,"""0""",12.0,0.0,12.3999996185,0.0
1614972272518848896,,171967,,1614900245,138870871,"""0""",12.0,0.0,12.3999996185,0.0
1614972272567234039,,171968,,1614900245,188762069,"""0""",13.0,0.0,12.3999996185,0.0
1614972272624325037,,171969,,1614900245,238819829,"""0""",13.0,0.0,12.3999996185,0.0
1614972272670022010,,171970,,1614900245,288808736,"""0""",13.0,0.0,12.3999996185,0.0
1614972272721115112,,171971,,1614900245,339880142,"""0""",13.0,0.0,12.3999996185,0.0
1614972272771631956,,171972,,1614900245,388787642,"""0""",13.0,0.0,12.3999996185,0.0
1614972272823332071,,171973,,1614900245,438919517,"""0""",13.0,0.0,12.3999996185,0.0
1614972272878000020,,171974,,1614900245,488783840,"""0""",13.0,0.0,12.3999996185,0.0
1614972272921768903,,171975,,1614900245,538883788,"""0""",13.0,0.0,12.3999996185,0.0
1614972272986164093,,171976,,1614900245,588832121,"""0""",13.0,0.0,12.3999996185,0.0
1614972273064984083,,171977,,1614900245,638808006,"""0""",13.0,0.0,12.3999996185,0.0
1614972273099375963,,171978,,1614900245,688780454,"""0""",13.0,0.0,12.3999996185,0.0
1614972273138331890,,171979,,1614900245,738872277,"""0""",13.0,0.0,12.3999996185,0.0
1614972273175688982,,171980,,1614900245,788770819,"""0""",13.0,0.0,12.3999996185,0.0
1614972273243882894,,171981,,1614900245,838901339,"""0""",13.0,0.0,12.3999996185,0.0
1614972273288084983,,171982,,1614900245,888773579,"""0""",13.0,0.0,12.3999996185,0.0
1614972273355761051,,171983,,1614900245,938829152,"""0""",13.0,0.0,12.3999996185,0.0
1614972273423976898,,171984,,1614900245,988768162,"""0""",13.0,0.0,12.3999996185,0.0
1614972273490389108,,171985,,1614900246,38831183,"""0""",13.0,0.0,12.3999996185,0.0
1614972273490499973,,171986,,1614900246,88863058,"""0""",13.0,0.0,12.3999996185,0.0
1614972273522567033,,171987,,1614900246,138791496,"""0""",13.0,0.0,12.3999996185,0.0
1614972273579689979,,171988,,1614900246,188790037,"""0""",13.0,0.0,12.3999996185,0.0
1614972273633143901,,171989,,1614900246,238793996,"""0""",13.0,0.0,12.3999996185,0.0
1614972273679409027,,171990,,1614900246,288790714,"""0""",13.0,0.0,12.3999996185,0.0
1614972273740418910,,171991,,1614900246,338848996,"""0""",13.0,0.0,12.3999996185,0.0
1614972273786200046,,171992,,1614900246,388831704,"""0""",13.0,0.0,12.3999996185,0.0
1614972273822387933,,171993,,1614900246,438893214,"""0""",13.0,0.0,12.3999996185,0.0
1614972273873718976,,171994,,1614900246,488776027,"""0""",13.0,0.0,12.3999996185,0.0
1614972273921837091,,171995,,1614900246,539012589,"""0""",13.0,0.0,12.3999996185,0.0
1614972273965655088,,171996,,1614900246,588820037,"""0""",13.0,0.0,12.3999996185,0.0
1614972274025471925,,171997,,1614900246,638790610,"""0""",13.0,0.0,12.3999996185,0.0
1614972274077790975,,171998,,1614900246,688778891,"""0""",13.0,0.0,12.3999996185,0.0
1614972274128257036,,171999,,1614900246,738871495,"""0""",13.0,0.0,12.3999996185,0.0
1614972274175081014,,172000,,1614900246,788763839,"""0""",13.0,0.0,12.3999996185,0.0
1614972274227878093,,172001,,1614900246,838790922,"""0""",13.0,0.0,12.3999996185,0.0
1614972274273597002,,172002,,1614900246,888849100,"""0""",13.0,0.0,12.3999996185,0.0
1614972274337503910,,172003,,1614900246,938871027,"""0""",13.0,0.0,12.3999996185,0.0
1614972274375145912,,172004,,1614900246,988779412,"""0""",13.0,0.0,12.3999996185,0.0
1614972274422005891,,172005,,1614900247,38822797,"""0""",13.0,0.0,12.3999996185,0.0
1614972274470967054,,172006,,1614900247,88852381,"""0""",13.0,0.0,12.3999996185,0.0
1614972274541188001,,172007,,1614900247,138790454,"""0""",13.0,0.0,12.3999996185,0.0
1614972274589813947,,172008,,1614900247,188796026,"""0""",13.0,0.0,12.3999996185,0.0
1614972274623895883,,172009,,1614900247,238797068,"""0""",13.0,0.0,12.3999996185,0.0
1614972274689814090,,172010,,1614900247,288792901,"""0""",13.0,0.0,12.3999996185,0.0
1614972274725902080,,172011,,1614900247,338794360,"""0""",13.0,0.0,12.3999996185,0.0
1614972274773920059,,172012,,1614900247,388874412,"""0""",13.0,0.0,12.3999996185,0.0
1614972274821831941,,172013,,1614900247,438813370,"""0""",13.0,0.0,12.3999996185,0.0
1614972274894084930,,172014,,1614900247,488821131,"""0""",13.0,0.0,12.3999996185,0.0
1614972274921330928,,172015,,1614900247,538792641,"""0""",13.0,0.0,12.3999996185,0.0
1614972274978887081,,172016,,1614900247,588754828,"""0""",13.0,0.0,12.3999996185,0.0
1614972275020085096,,172017,,1614900247,638923787,"""0""",13.0,0.0,12.3999996185,0.0
1614972275074949979,,172018,,1614900247,688863787,"""0""",13.0,0.0,12.3999996185,0.0
1614972275129548072,,172019,,1614900247,738853995,"""0""",13.0,0.0,12.3999996185,0.0
1614972275181304931,,172020,,1614900247,788816339,"""0""",13.0,0.0,12.3999996185,0.0
1614972275220438003,,172021,,1614900247,838792380,"""0""",13.0,0.0,12.3999996185,0.0
1614972275276652097,,172022,,1614900247,888841755,"""0""",13.0,0.0,12.3999996185,0.0
1614972275319966077,,172023,,1614900247,938900662,"""0""",13.0,0.0,12.3999996185,0.0
1614972275373589992,,172024,,1614900247,988770766,"""0""",13.0,0.0,12.3999996185,0.0
1614972275419455051,,172025,,1614900248,38786443,"""0""",13.0,0.0,12.3999996185,0.0
1614972275480855941,,172026,,1614900248,88808526,"""0""",13.0,0.0,12.3999996185,0.0
1614972275536756038,,172027,,1614900248,138882380,"""0""",13.0,0.0,12.3999996185,0.0
1614972275590117931,,172028,,1614900248,188802901,"""0""",13.0,0.0,12.3999996185,0.0
1614972275620898008,,172029,,1614900248,238981703,"""0""",13.0,0.0,12.3999996185,0.0
1614972275672987937,,172030,,1614900248,288786443,"""0""",13.0,0.0,12.3999996185,0.0
1614972275727427959,,172031,,1614900248,338824880,"""0""",13.0,0.0,12.3999996185,0.0
1614972275777218103,,172032,,1614900248,388761964,"""0""",13.0,0.0,12.3999996185,0.0
1614972275825998067,,172033,,1614900248,438787484,"""0""",13.0,0.0,12.3999996185,0.0
1614972275875277996,,172034,,1614900248,488773578,"""0""",13.0,0.0,12.3999996185,0.0
1614972275930088043,,172035,,1614900248,538783838,"""0""",13.0,0.0,12.3999996185,0.0
1614972275975528955,,172036,,1614900248,588772432,"""0""",12.0,0.0,12.3999996185,0.0
1614972276033660888,,172037,,1614900248,638839984,"""0""",12.0,0.0,12.3999996185,0.0
1614972276076517105,,172038,,1614900248,688779724,"""0""",12.0,0.0,12.3999996185,0.0
1614972276124313116,,172039,,1614900248,738795713,"""0""",13.0,0.0,12.3999996185,0.0
1614972276197952985,,172040,,1614900248,788817797,"""0""",13.0,0.0,12.3999996185,0.0
1614972276250324010,,172041,,1614900248,838855922,"""0""",13.0,0.0,12.3999996185,0.0
1614972276283942937,,172042,,1614900248,888783838,"""0""",13.0,0.0,12.3999996185,0.0
1614972276379192113,,172043,,1614900248,938887692,"""0""",13.0,0.0,12.3999996185,0.0
1614972276379303932,,172044,,1614900248,988784828,"""0""",13.0,0.0,12.3999996185,0.0
1614972276425631046,,172045,,1614900249,38790661,"""0""",13.0,0.0,12.3999996185,0.0
1614972276471652984,,172046,,1614900249,88790140,"""0""",13.0,0.0,12.3999996185,0.0
1614972276527746915,,172047,,1614900249,138795974,"""0""",13.0,0.0,12.3999996185,0.0
1614972276576406002,,172048,,1614900249,188832953,"""0""",13.0,0.0,12.3999996185,0.0
1614972276622792959,,172049,,1614900249,238781442,"""0""",13.0,0.0,12.3999996185,0.0
1614972276674251079,,172050,,1614900249,288787172,"""0""",13.0,0.0,12.3999996185,0.0
1614972276733903884,,172051,,1614900249,338815765,"""0""",13.0,0.0,12.3999996185,0.0
1614972276774777889,,172052,,1614900249,388836807,"""0""",13.0,0.0,12.3999996185,0.0
1614972276822227001,,172053,,1614900249,438792588,"""0""",13.0,0.0,12.3999996185,0.0
1614972276880024909,,172054,,1614900249,488751182,"""0""",13.0,0.0,12.3999996185,0.0
1614972276951188087,,172055,,1614900249,538828421,"""0""",12.0,0.0,12.3999996185,0.0
1614972276994390964,,172056,,1614900249,588833994,"""0""",12.0,0.0,12.3999996185,0.0
1614972277045944929,,172057,,1614900249,638788526,"""0""",12.0,0.0,12.3999996185,0.0
1614972277074760913,,172058,,1614900249,688788473,"""0""",13.0,0.0,12.3999996185,0.0
1614972277146434068,,172059,,1614900249,738805661,"""0""",13.0,0.0,12.3999996185,0.0
1614972277187752962,,172060,,1614900249,788786286,"""0""",13.0,0.0,12.3999996185,0.0
1614972277224487066,,172061,,1614900249,838794723,"""0""",13.0,0.0,12.3999996185,0.0
1614972277271673917,,172062,,1614900249,888855973,"""0""",13.0,0.0,12.3999996185,0.0
1614972277325721025,,172063,,1614900249,938851182,"""0""",13.0,0.0,12.3999996185,0.0
1614972277380247116,,172064,,1614900249,988756130,"""0""",13.0,0.0,12.3999996185,0.0
1614972277424168109,,172065,,1614900250,38884046,"""0""",13.0,0.0,12.3999996185,0.0
1614972277476005077,,172066,,1614900250,88813734,"""0""",13.0,0.0,12.3999996185,0.0
1614972277529778957,,172067,,1614900250,138895817,"""0""",13.0,0.0,12.3999996185,0.0
1614972277589587926,,172068,,1614900250,188788525,"""0""",13.0,0.0,12.3999996185,0.0
1614972277625897884,,172069,,1614900250,238794827,"""0""",13.0,0.0,12.3999996185,0.0
1614972277681760072,,172070,,1614900250,288813004,"""0""",13.0,31.125,12.3999996185,0.0
1614972277721986055,,172071,,1614900250,338860400,"""0""",12.0,25.25,10.8000001907,0.0
1614972277773211002,,172072,,1614900250,388779567,"""0""",12.0,18.125,10.8000001907,0.0
1614972277818947076,,172073,,1614900250,438803109,"""0""",12.0,17.25,10.8000001907,0.0
1614972277888637065,,172074,,1614900250,488781234,"""0""",12.0,19.125,11.1499996185,0.0
1614972277962174892,,172075,,1614900250,538795765,"""0""",12.0,17.375,11.1499996185,0.0
1614972278020749092,,172076,,1614900250,588808056,"""0""",12.0,11.375,11.1499996185,0.0
1614972278049475908,,172077,,1614900250,639146911,"""0""",12.0,10.0,11.8500003815,0.0
1614972278090363025,,172078,,1614900250,688862327,"""0""",12.0,3.375,11.8500003815,0.0
1614972278125170946,,172079,,1614900250,738803577,"""0""",12.0,2.0,11.8500003815,0.0
1614972278170821905,,172080,,1614900250,788820296,"""0""",12.0,1.0,12.25,0.0
1614972278218528032,,172081,,1614900250,838936286,"""0""",12.0,0.625,12.25,0.0
1614972278270234107,,172082,,1614900250,888830765,"""0""",12.0,1.0,12.25,0.0
1614972278319442033,,172083,,1614900250,938915556,"""0""",12.0,1.0,12.25,0.0
1614972278368005037,,172084,,1614900250,988774671,"""0""",12.0,0.625,12.25,0.0
1614972278435686111,,172085,,1614900251,38794723,"""0""",12.0,1.0,12.25,0.0
1614972278470422983,,172086,,1614900251,88777171,"""0""",12.0,1.75,12.25,0.0
1614972278523534059,,172087,,1614900251,138860712,"""0""",12.0,3.75,12.0500001907,0.0
1614972278572805881,,172088,,1614900251,188864931,"""0""",12.0,7.125,12.0500001907,0.0
1614972278624116897,,172089,,1614900251,238807587,"""0""",12.0,8.125,12.0500001907,0.0
1614972278673293113,,172090,,1614900251,288862483,"""0""",12.0,8.125,11.8999996185,0.0
1614972278739679098,,172091,,1614900251,338874098,"""0""",12.0,9.625,11.8999996185,0.0
1614972278786016941,,172092,,1614900251,388869931,"""0""",12.0,10.25,11.8999996185,0.0
1614972278846854925,,172093,,1614900251,438797848,"""0""",12.0,9.625,12.0,0.0
1614972278874650955,,172094,,1614900251,488831598,"""0""",12.0,8.5,12.0,0.0
1614972278920434951,,172095,,1614900251,538772431,"""0""",12.0,10.0,12.0,0.0
1614972278979891061,,172096,,1614900251,588826233,"""0""",12.0,3.375,12.1000003815,0.0
1614972279058682918,,172097,,1614900251,638944879,"""0""",12.0,3.75,12.1000003815,0.0
1614972279109183073,,172098,,1614900251,688777066,"""0""",12.0,7.875,12.1000003815,0.0
1614972279148605108,,172099,,1614900251,738801025,"""0""",12.0,8.125,12.1000003815,0.0
1614972279176945924,,172100,,1614900251,788779046,"""0""",12.0,9.5,11.8999996185,0.0
1614972279215020895,,172101,,1614900251,838797639,"""0""",12.0,9.625,11.8999996185,0.0
1614972279273067951,,172102,,1614900251,888810400,"""0""",12.0,7.5,11.8999996185,0.0
1614972279324613094,,172103,,1614900251,938796441,"""0""",12.0,5.75,11.9499998093,0.0
1614972279381443023,,172104,,1614900251,988790035,"""0""",12.0,2.75,11.9499998093,0.0
1614972279436234951,,172105,,1614900252,38968837,"""0""",12.0,2.375,11.9499998093,0.0
1614972279473917007,,172106,,1614900252,88808004,"""0""",12.0,2.375,12.1000003815,0.0
1614972279520349025,,172107,,1614900252,138801077,"""0""",12.0,2.375,12.1000003815,0.0
1614972279571084976,,172108,,1614900252,188786129,"""0""",12.0,4.125,12.1000003815,0.0
1614972279636239051,,172109,,1614900252,238795764,"""0""",12.0,4.375,12.0500001907,0.0
1614972279680322885,,172110,,1614900252,288754931,"""0""",12.0,4.75,12.0500001907,0.0
1614972279716207027,,172111,,1614900252,338797743,"""0""",12.0,3.75,12.0500001907,0.0
1614972279774455070,,172112,,1614900252,388893837,"""0""",12.0,3.375,12.1000003815,0.0
1614972279818264007,,172113,,1614900252,438799097,"""0""",12.0,2.375,12.1000003815,0.0
1614972279875426054,,172114,,1614900252,488773941,"""0""",12.0,6.75,12.1000003815,0.0
1614972279918689966,,172115,,1614900252,538808056,"""0""",12.0,10.625,12.1000003815,0.0
1614972279974874019,,172116,,1614900252,588807952,"""0""",12.0,9.75,11.75,0.0
1614972280026576995,,172117,,1614900252,638797535,"""0""",12.0,9.75,11.75,0.0
1614972280066140890,,172118,,1614900252,688764358,"""0""",12.0,10.625,11.75,0.0
1614972280118928909,,172119,,1614900252,738797118,"""0""",12.0,10.0,11.8500003815,0.0
1614972280173247098,,172120,,1614900252,788782222,"""0""",12.0,12.25,11.8500003815,0.0
1614972280222064018,,172121,,1614900252,838802222,"""0""",12.0,13.0,11.8500003815,0.0
1614972280265449047,,172122,,1614900252,888833003,"""0""",12.0,10.875,11.6999998093,0.0
1614972280322592020,,172123,,1614900252,938805972,"""0""",12.0,12.5,11.6999998093,0.0
1614972280376760959,,172124,,1614900252,988776233,"""0""",12.0,11.375,11.6999998093,0.0
1614972280439933061,,172125,,1614900253,38798160,"""0""",12.0,11.5,11.5500001907,0.0
1614972280512088060,,172126,,1614900253,88886649,"""0""",12.0,12.0,11.5500001907,0.0
1614972280583219051,,172127,,1614900253,138862795,"""0""",12.0,11.5,11.5500001907,0.0
1614972280583368062,,172128,,1614900253,188776128,"""0""",12.0,12.0,11.5500001907,0.0
1614972280636516094,,172129,,1614900253,238923837,"""0""",12.0,11.25,11.5500001907,0.0
1614972280706871032,,172130,,1614900253,288774514,"""0""",12.0,10.625,11.5500001907,0.0
1614972280736347913,,172131,,1614900253,339144566,"""0""",12.0,10.625,11.5500001907,0.0
1614972280780232906,,172132,,1614900253,388777274,"""0""",12.0,9.875,11.6999998093,0.0
1614972280839257001,,172133,,1614900253,438842795,"""0""",12.0,7.875,11.6999998093,0.0
1614972280876390933,,172134,,1614900253,488814305,"""0""",12.0,3.75,11.6999998093,0.0
1614972280918874025,,172135,,1614900253,538803628,"""0""",12.0,2.75,12.0500001907,0.0
1614972280974745988,,172136,,1614900253,588771441,"""0""",12.0,1.75,12.0500001907,0.0
1614972281015889883,,172137,,1614900253,638857066,"""0""",12.0,1.75,12.0500001907,0.0
1614972281081708908,,172138,,1614900253,688818732,"""0""",12.0,1.75,12.1499996185,0.0
1614972281146209955,,172139,,1614900253,738960711,"""0""",12.0,1.75,12.1499996185,0.0
1614972281179596900,,172140,,1614900253,788742899,"""0""",12.0,1.75,12.1499996185,0.0
1614972281218230962,,172141,,1614900253,838799566,"""0""",12.0,1.375,12.1999998093,0.0
1614972281279300928,,172142,,1614900253,888783472,"""0""",12.0,1.375,12.1999998093,0.0
1614972281328402996,,172143,,1614900253,938804461,"""0""",12.0,1.75,12.1999998093,0.0
1614972281372037887,,172144,,1614900253,988771232,"""0""",12.0,2.375,12.0500001907,0.0
1614972281441313028,,172145,,1614900254,38821753,"""0""",12.0,6.5,12.0500001907,0.0
1614972281510341882,,172146,,1614900254,88846336,"""0""",12.0,7.5,12.0500001907,0.0
1614972281541460990,,172147,,1614900254,138912586,"""0""",12.0,9.875,12.0500001907,0.0
1614972281589261054,,172148,,1614900254,188779305,"""0""",12.0,10.0,11.75,0.0
1614972281622889995,,172149,,1614900254,238783784,"""0""",12.0,10.625,11.75,0.0
1614972281676079034,,172150,,1614900254,288981493,"""0""",12.0,11.0,11.75,0.0
1614972281736258029,,172151,,1614900254,338782638,"""0""",12.0,11.0,11.6499996185,0.0
1614972281769772052,,172152,,1614900254,389011284,"""0""",12.0,11.0,11.6499996185,0.0
1614972281822657108,,172153,,1614900254,438791753,"""0""",12.0,10.625,11.6499996185,0.0
1614972281870579957,,172154,,1614900254,488861024,"""0""",12.0,10.125,11.75,0.0
1614972281927529096,,172155,,1614900254,538769357,"""0""",12.0,9.75,11.75,0.0
1614972281967575073,,172156,,1614900254,588827482,"""0""",12.0,9.75,11.75,0.0
1614972282021244049,,172157,,1614900254,638777117,"""0""",12.0,9.625,11.8000001907,0.0
1614972282070003032,,172158,,1614900254,688833211,"""0""",12.0,9.625,11.8000001907,0.0
1614972282132973909,,172159,,1614900254,738882169,"""0""",12.0,9.875,11.8000001907,0.0
1614972282178298950,,172160,,1614900254,791046284,"""0""",12.0,9.5,11.8500003815,0.0
1614972282224239110,,172161,,1614900254,838882430,"""0""",12.0,7.5,11.8500003815,0.0
1614972282268495082,,172162,,1614900254,888794721,"""0""",12.0,9.25,11.8500003815,0.0
1614972282324954986,,172163,,1614900254,938817846,"""0""",12.0,8.5,11.8500003815,0.0
1614972282371998071,,172164,,1614900254,988880451,"""0""",12.0,8.125,11.8999996185,0.0
1614972282423096895,,172165,,1614900255,38787273,"""0""",12.0,8.875,11.8999996185,0.0
1614972282471601009,,172166,,1614900255,88824461,"""0""",12.0,8.5,11.8999996185,0.0
1614972282542759895,,172167,,1614900255,138854878,"""0""",12.0,7.875,11.8999996185,0.0
1614972282610564947,,172168,,1614900255,188790919,"""0""",12.0,9.5,11.8999996185,0.0
1614972282694498062,,172169,,1614900255,238764357,"""0""",12.0,9.625,11.8999996185,0.0
1614972282694610118,,172170,,1614900255,288848628,"""0""",12.0,9.25,11.8999996185,0.0
1614972282729855060,,172171,,1614900255,338788003,"""0""",12.0,9.75,11.8999996185,0.0
1614972282778525114,,172172,,1614900255,388798628,"""0""",12.0,9.5,11.8999996185,0.0
1614972282828617095,,172173,,1614900255,438775242,"""0""",12.0,8.5,11.8500003815,0.0
1614972282869856119,,172174,,1614900255,488834669,"""0""",12.0,6.5,11.8500003815,0.0
1614972282935260057,,172175,,1614900255,538804200,"""0""",12.0,7.125,11.8500003815,0.0
1614972282971039056,,172176,,1614900255,589062898,"""0""",12.0,9.75,11.8000001907,0.0
1614972283024487018,,172177,,1614900255,638796596,"""0""",12.0,9.25,11.8000001907,0.0
1614972283102243900,,172178,,1614900255,688866648,"""0""",12.0,9.5,11.8000001907,0.0
1614972283143265008,,172179,,1614900255,738833523,"""0""",12.0,9.625,11.8000001907,0.0
1614972283183387041,,172180,,1614900255,788825502,"""0""",12.0,9.75,11.8000001907,0.0
1614972283279926061,,172181,,1614900255,838797065,"""0""",12.0,10.0,11.8000001907,0.0
1614972283303766965,,172182,,1614900255,888791752,"""0""",12.0,9.625,11.8000001907,0.0
1614972283331765890,,172183,,1614900255,938752221,"""0""",12.0,9.5,11.8500003815,0.0
1614972283367547035,,172184,,1614900255,988877325,"""0""",12.0,8.875,11.8500003815,0.0
1614972283415061950,,172185,,1614900256,38770138,"""0""",12.0,9.5,11.8500003815,0.0
1614972283469614028,,172186,,1614900256,88830398,"""0""",12.0,8.875,11.8500003815,0.0
1614972283544238090,,172187,,1614900256,138795815,"""0""",12.0,9.25,11.8500003815,0.0
1614972283573940038,,172188,,1614900256,188883627,"""0""",12.0,7.5,11.8500003815,0.0
1614972283623873949,,172189,,1614900256,238893419,"""0""",12.0,9.25,11.8000001907,0.0
1614972283682121038,,172190,,1614900256,288894617,"""0""",12.0,9.625,11.8000001907,0.0
1614972283744307994,,172191,,1614900256,338778367,"""0""",12.0,9.625,11.8000001907,0.0
1614972283810256004,,172192,,1614900256,388802481,"""0""",12.0,9.5,11.8000001907,0.0
1614972283856074094,,172193,,1614900256,438858471,"""0""",12.0,9.5,11.8000001907,0.0
1614972283896971940,,172194,,1614900256,488970033,"""0""",12.0,7.875,11.8000001907,0.0
1614972283947556972,,172195,,1614900256,538795554,"""0""",12.0,7.125,11.8000001907,0.0
1614972283976694107,,172196,,1614900256,588863002,"""0""",12.0,5.75,11.8999996185,0.0
1614972284030292034,,172197,,1614900256,638919669,"""0""",12.0,5.75,11.8999996185,0.0
1614972284067318916,,172198,,1614900256,688777898,"""0""",12.0,5.125,11.8999996185,0.0
1614972284131606101,,172199,,1614900256,738785971,"""0""",12.0,4.375,11.9499998093,0.0
1614972284167665958,,172200,,1614900256,790056648,"""0""",12.0,2.0,11.9499998093,0.0
1614972284241651058,,172201,,1614900256,838789148,"""0""",12.0,1.75,11.9499998093,0.0
1614972284269897937,,172202,,1614900256,888853575,"""0""",12.0,2.0,12.1000003815,0.0
1614972284328360080,,172203,,1614900256,938819460,"""0""",12.0,2.0,12.1000003815,0.0
1614972284395348072,,172204,,1614900256,988786231,"""0""",12.0,1.75,12.1000003815,0.0
1614972284465634107,,172205,,1614900257,38833106,"""0""",12.0,1.75,12.1000003815,0.0
1614972284509614944,,172206,,1614900257,88824200,"""0""",12.0,1.75,12.1000003815,0.0
1614972284545722007,,172207,,1614900257,138777481,"""0""",12.0,1.75,12.1000003815,0.0
1614972284581351041,,172208,,1614900257,188819616,"""0""",12.0,2.0,12.0500001907,0.0
1614972284622471094,,172209,,1614900257,238778991,"""0""",12.0,2.75,12.0500001907,0.0
1614972284674380064,,172210,,1614900257,288816700,"""0""",12.0,3.75,12.0500001907,0.0
1614972284740648984,,172211,,1614900257,338791491,"""0""",12.0,4.375,12.0500001907,0.0
1614972284770782947,,172212,,1614900257,388844096,"""0""",12.0,4.375,12.0,0.0
1614972284828371047,,172213,,1614900257,438763210,"""0""",12.0,7.5,12.0,0.0
1614972284868974924,,172214,,1614900257,488915606,"""0""",12.0,3.75,12.0,0.0
1614972284923460006,,172215,,1614900257,538784252,"""0""",12.0,4.375,11.8999996185,0.0
1614972284976305007,,172216,,1614900257,588792116,"""0""",12.0,3.375,11.8999996185,0.0
1614972285034750938,,172217,,1614900257,639756335,"""0""",12.0,3.0,11.8999996185,0.0
1614972285073457002,,172218,,1614900257,688751856,"""0""",12.0,5.125,11.8999996185,0.0
1614972285128463983,,172219,,1614900257,738768887,"""0""",12.0,6.125,11.8999996185,0.0
1614972285164453029,,172220,,1614900257,788801231,"""0""",12.0,4.375,11.8999996185,0.0
1614972285224253892,,172221,,1614900257,838859200,"""0""",12.0,5.125,11.8999996185,0.0
1614972285273868083,,172222,,1614900257,888855449,"""0""",12.0,6.5,11.8999996185,0.0
1614972285363018989,,172223,,1614900257,938797324,"""0""",12.0,4.75,11.8999996185,0.0
1614972285393019914,,172224,,1614900257,988822168,"""0""",12.0,3.0,12.0,0.0
1614972285430013895,,172225,,1614900258,38789043,"""0""",12.0,3.75,12.0,0.0
1614972285482078075,,172226,,1614900258,88772481,"""0""",12.0,3.375,12.0,0.0
1614972285536922931,,172227,,1614900258,138761699,"""0""",12.0,9.5,12.0,0.0
1614972285584714889,,172228,,1614900258,188815606,"""0""",12.0,11.125,11.5500001907,0.0
1614972285656514883,,172229,,1614900258,238767012,"""0""",12.0,10.125,11.5500001907,0.0
1614972285685729980,,172230,,1614900258,289132064,"""0""",12.0,10.375,11.5500001907,0.0
1614972285718730926,,172231,,1614900258,338766387,"""0""",12.0,11.375,11.5500001907,0.0
1614972285779545068,,172232,,1614900258,388789564,"""0""",12.0,12.875,11.5500001907,0.0
1614972285815423011,,172233,,1614900258,438846960,"""0""",12.0,11.5,11.5500001907,0.0
1614972285880182981,,172234,,1614900258,488805814,"""0""",12.0,11.375,11.6000003815,0.0
1614972285927037000,,172235,,1614900258,538773314,"""0""",12.0,15.25,11.6000003815,0.0
1614972285993915081,,172236,,1614900258,588789199,"""0""",12.0,13.625,11.6000003815,0.0
1614972286069809913,,172237,,1614900258,638807376,"""0""",12.0,10.5,11.6999998093,0.0
1614972286145467042,,172238,,1614900258,688924876,"""0""",12.0,14.25,11.6999998093,0.0
1614972286146065950,,172239,,1614900258,738832532,"""0""",12.0,14.5,11.6999998093,0.0
1614972286184490919,,172240,,1614900258,788759095,"""0""",12.0,9.625,11.8000001907,0.0
1614972286233539104,,172241,,1614900258,838792116,"""0""",12.0,7.5,11.8000001907,0.0
1614972286338438034,,172242,,1614900258,888838678,"""0""",12.0,6.125,11.8000001907,0.0
1614972286338541984,,172243,,1614900258,938759303,"""0""",12.0,4.75,11.8000001907,0.0
1614972286395359992,,172244,,1614900258,988946699,"""0""",12.0,3.0,11.8999996185,0.0
1614972286421777009,,172245,,1614900259,38840814,"""0""",12.0,0.625,11.8999996185,0.0
1614972286472357988,,172246,,1614900259,89100553,"""0""",12.0,0.0,11.8999996185,0.0
1614972286527242898,,172247,,1614900259,138898366,"""0""",12.0,0.0,12.25,0.0
1614972286594034910,,172248,,1614900259,188810605,"""0""",12.0,0.0,12.25,0.0
1614972286649126052,,172249,,1614900259,238910605,"""0""",12.0,0.0,12.25,0.0
1614972286679286003,,172250,,1614900259,288841439,"""0""",12.0,0.0,12.3500003815,0.0
1614972286735059022,,172251,,1614900259,338900345,"""0""",12.0,0.0,12.3500003815,0.0
1614972286781179904,,172252,,1614900259,388826751,"""0""",12.0,1.0,12.3500003815,0.0
1614972286828110933,,172253,,1614900259,438795605,"""0""",12.0,1.375,12.1000003815,0.0
1614972286879442930,,172254,,1614900259,488788418,"""0""",12.0,1.75,12.1000003815,0.0
1614972286932271957,,172255,,1614900259,538851178,"""0""",12.0,1.75,12.1000003815,0.0
1614972286976355075,,172256,,1614900259,588779043,"""0""",12.0,7.125,11.75,0.0
1614972287027775049,,172257,,1614900259,638802376,"""0""",12.0,10.0,11.75,0.0
1614972287081056118,,172258,,1614900259,688766595,"""0""",12.0,10.375,11.75,0.0
1614972287125564098,,172259,,1614900259,738792636,"""0""",12.0,10.625,11.75,0.0
1614972287186311006,,172260,,1614900259,788759147,"""0""",12.0,10.5,11.6499996185,0.0
1614972287231446027,,172261,,1614900259,838809199,"""0""",12.0,10.875,11.6499996185,0.0
1614972287286257028,,172262,,1614900259,888750292,"""0""",12.0,11.375,11.6499996185,0.0
1614972287352870941,,172263,,1614900259,939021126,"""0""",12.0,11.125,11.5500001907,0.0
1614972287402724981,,172264,,1614900259,988847376,"""0""",12.0,10.875,11.5500001907,0.0
1614972287436876058,,172265,,1614900260,38943417,"""0""",12.0,10.875,11.5500001907,0.0
1614972287479756116,,172266,,1614900260,88785084,"""0""",12.0,10.75,11.6000003815,0.0
1614972287521868944,,172267,,1614900260,138921230,"""0""",12.0,10.5,11.6000003815,0.0
1614972287577837944,,172268,,1614900260,188797844,"""0""",12.0,10.5,11.6000003815,0.0
1614972287623270988,,172269,,1614900260,238776594,"""0""",12.0,10.625,11.6000003815,0.0
1614972287680572986,,172270,,1614900260,288778365,"""0""",12.0,10.5,11.6000003815,0.0
1614972287718990087,,172271,,1614900260,338791594,"""0""",12.0,10.5,11.6000003815,0.0
1614972287795294046,,172272,,1614900260,388753626,"""0""",12.0,10.5,11.6999998093,0.0
1614972287839135885,,172273,,1614900260,438849719,"""0""",12.0,10.375,11.6999998093,0.0
1614972287880100965,,172274,,1614900260,488788730,"""0""",12.0,10.0,11.6999998093,0.0
1614972287920921087,,172275,,1614900260,538800813,"""0""",12.0,10.0,11.6999998093,0.0
1614972287980338096,,172276,,1614900260,588772688,"""0""",12.0,10.25,11.6999998093,0.0
1614972288050160884,,172277,,1614900260,638769928,"""0""",12.0,10.25,11.6999998093,0.0
1614972288079895019,,172278,,1614900260,688759771,"""0""",12.0,10.0,11.6999998093,0.0
1614972288129635095,,172279,,1614900260,738800761,"""0""",12.0,10.0,11.75,0.0
1614972288196679115,,172280,,1614900260,788780969,"""0""",12.0,10.25,11.75,0.0
1614972288236041069,,172281,,1614900260,838817532,"""0""",12.0,10.125,11.75,0.0
1614972288273561954,,172282,,1614900260,888858730,"""0""",12.0,9.875,11.75,0.0
1614972288328049898,,172283,,1614900260,938822896,"""0""",12.0,9.75,11.75,0.0
1614972288400896072,,172284,,1614900260,988794146,"""0""",12.0,9.25,11.75,0.0
1614972288430767059,,172285,,1614900261,38908105,"""0""",12.0,8.125,11.8500003815,0.0
1614972288482920885,,172286,,1614900261,88784667,"""0""",12.0,8.125,11.8500003815,0.0
1614972288516793966,,172287,,1614900261,138828677,"""0""",12.0,7.125,11.8500003815,0.0
1614972288591984033,,172288,,1614900261,188829511,"""0""",12.0,5.75,11.8999996185,0.0
1614972288640686988,,172289,,1614900261,238832219,"""0""",12.0,5.125,11.8999996185,0.0
1614972288678184032,,172290,,1614900261,288787479,"""0""",12.0,4.375,11.8999996185,0.0
1614972288727370023,,172291,,1614900261,338801386,"""0""",12.0,3.75,11.8999996185,0.0
1614972288779702901,,172292,,1614900261,388762479,"""0""",12.0,3.0,12.0,0.0
1614972288821768999,,172293,,1614900261,438778938,"""0""",12.0,2.75,12.0,0.0
1614972288883769035,,172294,,1614900261,488769406,"""0""",12.0,2.75,12.0,0.0
1614972288981548070,,172295,,1614900261,538796906,"""0""",12.0,3.375,12.0,0.0
1614972288981859922,,172296,,1614900261,588783313,"""0""",12.0,2.75,12.0,0.0
1614972289022368907,,172297,,1614900261,638828781,"""0""",12.0,2.75,12.0,0.0
1614972289077553987,,172298,,1614900261,688813052,"""0""",12.0,2.375,12.0500001907,0.0
1614972289142018079,,172299,,1614900261,739052323,"""0""",12.0,3.0,12.0500001907,0.0
1614972289189719915,,172300,,1614900261,788894563,"""0""",12.0,5.125,12.0500001907,0.0
1614972289278158903,,172301,,1614900261,838853208,"""0""",12.0,6.125,11.8500003815,0.0
1614972289308809995,,172302,,1614900261,888790552,"""0""",12.0,5.75,11.8500003815,0.0
1614972289338279008,,172303,,1614900261,938834979,"""0""",12.0,6.75,11.8500003815,0.0
1614972289382786035,,172304,,1614900261,988978938,"""0""",12.0,3.375,12.0500001907,0.0
1614972289427567958,,172305,,1614900262,38835292,"""0""",12.0,2.75,12.0500001907,0.0
1614972289475014925,,172306,,1614900262,88884406,"""0""",12.0,2.375,12.0500001907,0.0
1614972289555607080,,172307,,1614900262,138878365,"""0""",12.0,2.0,12.0500001907,0.0
1614972289596224069,,172308,,1614900262,188767635,"""0""",12.0,1.75,12.1000003815,0.0
1614972289651514053,,172309,,1614900262,238797323,"""0""",12.0,1.75,12.1000003815,0.0
1614972289696466922,,172310,,1614900262,288755187,"""0""",12.0,1.75,12.1000003815,0.0
1614972289727778911,,172311,,1614900262,338828104,"""0""",12.0,1.75,12.1000003815,0.0
1614972289779819965,,172312,,1614900262,388767531,"""0""",12.0,1.75,12.1000003815,0.0
1614972289862770080,,172313,,1614900262,438878937,"""0""",12.0,1.75,12.1000003815,0.0
1614972289903147935,,172314,,1614900262,488776489,"""0""",12.0,1.75,12.1000003815,0.0
1614972289941343069,,172315,,1614900262,538802010,"""0""",12.0,2.375,12.1000003815,0.0
1614972289972918987,,172316,,1614900262,588779302,"""0""",12.0,5.75,12.1000003815,0.0
1614972290027844905,,172317,,1614900262,638902739,"""0""",12.0,3.375,12.0,0.0
1614972290073668003,,172318,,1614900262,688766073,"""0""",12.0,4.375,12.0,0.0
1614972290158555030,,172319,,1614900262,738860239,"""0""",12.0,9.875,12.0,0.0
1614972290231652021,,172320,,1614900262,788762843,"""0""",12.0,3.75,12.0,0.0
1614972290268039941,,172321,,1614900262,838891906,"""0""",12.0,5.75,12.0,0.0
1614972290304831027,,172322,,1614900262,888773573,"""0""",12.0,9.625,12.0,0.0
1614972290358298063,,172323,,1614900262,938822114,"""0""",12.0,3.375,12.0,0.0
1614972290416724920,,172324,,1614900262,988824198,"""0""",12.0,9.75,11.9499998093,0.0
1614972290498265027,,172325,,1614900263,38837635,"""0""",12.0,9.5,11.9499998093,0.0
1614972290498341083,,172326,,1614900263,88787010,"""0""",12.0,3.375,11.9499998093,0.0
1614972290579103946,,172327,,1614900263,138796020,"""0""",12.0,6.125,11.8999996185,0.0
1614972290579252004,,172328,,1614900263,188772270,"""0""",12.0,9.625,11.8999996185,0.0
1614972290641741991,,172329,,1614900263,238845083,"""0""",12.0,9.875,11.8999996185,0.0
1614972290676129102,,172330,,1614900263,288789354,"""0""",12.0,9.625,11.8500003815,0.0
1614972290721836090,,172331,,1614900263,338798624,"""0""",12.0,9.875,11.8500003815,0.0
1614972290770204067,,172332,,1614900263,388806229,"""0""",12.0,6.75,11.8500003815,0.0
1614972290826678037,,172333,,1614900263,438813520,"""0""",12.0,4.125,11.9499998093,0.0
1614972290877667903,,172334,,1614900263,488756385,"""0""",12.0,2.75,11.9499998093,0.0
1614972290939472913,,172335,,1614900263,538833520,"""0""",12.0,2.75,11.9499998093,0.0
1614972290973824024,,172336,,1614900263,588913520,"""0""",12.0,2.375,12.0,0.0
1614972291042583942,,172337,,1614900263,638864093,"""0""",12.0,3.0,12.0,0.0
1614972291078567981,,172338,,1614900263,688797479,"""0""",12.0,4.375,12.0,0.0
1614972291125267982,,172339,,1614900263,738821958,"""0""",12.0,4.125,12.0,0.0
1614972291175421953,,172340,,1614900263,788746958,"""0""",12.0,3.75,11.9499998093,0.0
1614972291223210096,,172341,,1614900263,838884666,"""0""",12.0,3.375,11.9499998093,0.0
1614972291269654035,,172342,,1614900263,888913468,"""0""",12.0,3.75,11.9499998093,0.0
1614972291370510101,,172343,,1614900263,938789249,"""0""",12.0,3.0,12.0,0.0
1614972291370623111,,172344,,1614900263,988769978,"""0""",12.0,9.5,12.0,0.0
1614972291438141107,,172345,,1614900264,38819770,"""0""",12.0,10.625,12.0,0.0
1614972291484750032,,172346,,1614900264,88780291,"""0""",12.0,9.25,11.75,0.0
1614972291541444063,,172347,,1614900264,138781385,"""0""",12.0,9.25,11.75,0.0
1614972291584999084,,172348,,1614900264,188847062,"""0""",12.0,10.5,11.75,0.0
1614972291625758886,,172349,,1614900264,238776489,"""0""",12.0,9.625,11.8000001907,0.0
1614972291670945882,,172350,,1614900264,288829249,"""0""",12.0,12.75,11.8000001907,0.0
1614972291725270986,,172351,,1614900264,338839093,"""0""",12.0,12.5,11.8000001907,0.0
1614972291771951913,,172352,,1614900264,388777895,"""0""",12.0,11.0,11.5,0.0
1614972291821899890,,172353,,1614900264,438776905,"""0""",12.0,13.875,11.5,0.0
1614972291873475074,,172354,,1614900264,488779249,"""0""",12.0,11.25,11.5,0.0
1614972291949992895,,172355,,1614900264,538867166,"""0""",12.0,12.125,11.5,0.0
1614972291996073961,,172356,,1614900264,588807218,"""0""",12.0,12.125,11.3999996185,0.0
1614972292044980049,,172357,,1614900264,638822686,"""0""",12.0,11.875,11.3999996185,0.0
1614972292084448099,,172358,,1614900264,688809509,"""0""",12.0,12.125,11.3999996185,0.0
1614972292124634027,,172359,,1614900264,738834718,"""0""",12.0,11.25,11.5500001907,0.0
1614972292191477060,,172360,,1614900264,788794822,"""0""",12.0,10.5,11.5500001907,0.0
1614972292240391969,,172361,,1614900264,838759718,"""0""",12.0,10.75,11.5500001907,0.0
1614972292291635990,,172362,,1614900264,888817530,"""0""",12.0,9.5,11.75,0.0
1614972292331064939,,172363,,1614900264,938809405,"""0""",12.0,6.125,11.75,0.0
1614972292369672060,,172364,,1614900264,988804145,"""0""",12.0,3.75,11.75,0.0
1614972292427541017,,172365,,1614900265,38772634,"""0""",12.0,2.375,12.0500001907,0.0
1614972292473929882,,172366,,1614900265,88957426,"""0""",12.0,1.75,12.0500001907,0.0
1614972292539405107,,172367,,1614900265,138781488,"""0""",12.0,1.75,12.0500001907,0.0
1614972292579756021,,172368,,1614900265,188798259,"""0""",12.0,1.75,12.0500001907,0.0
1614972292683679103,,172369,,1614900265,238835759,"""0""",12.0,1.75,12.0500001907,0.0
1614972292683795928,,172370,,1614900265,288904874,"""0""",12.0,1.75,12.0500001907,0.0
1614972292730021953,,172371,,1614900265,338953467,"""0""",12.0,1.75,12.0500001907,0.0
1614972292773849010,,172372,,1614900265,388886176,"""0""",12.0,1.375,12.0500001907,0.0
1614972292860487937,,172373,,1614900265,438795238,"""0""",12.0,1.375,12.0500001907,0.0
1614972292893965959,,172374,,1614900265,488800134,"""0""",12.0,3.75,12.0500001907,0.0
1614972292922288894,,172375,,1614900265,538844769,"""0""",12.0,5.75,11.8999996185,0.0
1614972292970633029,,172376,,1614900265,588782009,"""0""",12.0,7.5,11.8999996185,0.0
1614972293037338018,,172377,,1614900265,638751124,"""0""",12.0,9.625,11.8999996185,0.0
1614972293075829982,,172378,,1614900265,688815238,"""0""",12.0,9.25,11.8500003815,0.0
1614972293162157058,,172379,,1614900265,738823624,"""0""",12.0,10.25,11.8500003815,0.0
1614972293222970008,,172380,,1614900265,788801124,"""0""",12.0,10.875,11.8500003815,0.0
1614972293331645965,,172381,,1614900265,838774249,"""0""",12.0,10.625,11.6499996185,0.0
1614972293331763982,,172382,,1614900265,888842374,"""0""",12.0,10.625,11.6499996185,0.0
1614972293331787109,,172383,,1614900265,938759092,"""0""",12.0,10.5,11.6499996185,0.0
1614972293384582042,,172384,,1614900265,993752478,"""0""",12.0,9.75,11.8000001907,0.0
1614972293467724084,,172385,,1614900266,38784665,"""0""",12.0,9.25,11.8000001907,0.0
1614972293522181034,,172386,,1614900266,88782009,"""0""",12.0,8.125,11.8000001907,0.0
1614972293570851087,,172387,,1614900266,138789457,"""0""",12.0,7.875,11.8000001907,0.0
1614972293604693889,,172388,,1614900266,188840030,"""0""",12.0,7.125,11.8500003815,0.0
1614972293643038988,,172389,,1614900266,238786696,"""0""",12.0,7.875,11.8500003815,0.0
1614972293675709009,,172390,,1614900266,288890603,"""0""",12.0,6.5,11.8500003815,0.0
1614972293766331911,,172391,,1614900266,338766228,"""0""",12.0,6.125,11.8999996185,0.0
1614972293793220043,,172392,,1614900266,389588467,"""0""",12.0,6.75,11.8999996185,0.0
1614972293831352949,,172393,,1614900266,438824092,"""0""",12.0,6.75,11.8999996185,0.0
1614972293876245975,,172394,,1614900266,488891540,"""0""",12.0,7.5,11.8500003815,0.0
1614972293924985885,,172395,,1614900266,538774040,"""0""",12.0,6.75,11.8500003815,0.0
1614972293981256961,,172396,,1614900266,588831540,"""0""",12.0,5.75,11.8500003815,0.0
1614972294048979043,,172397,,1614900266,638790290,"""0""",12.0,7.125,11.8500003815,0.0
1614972294110016107,,172398,,1614900266,688784665,"""0""",12.0,6.125,11.8500003815,0.0
1614972294156796932,,172399,,1614900266,738762529,"""0""",12.0,5.75,11.8500003815,0.0
1614972294197422027,,172400,,1614900266,788824873,"""0""",12.0,8.5,11.8500003815,0.0
1614972294228775024,,172401,,1614900266,838771436,"""0""",12.0,7.5,11.8500003815,0.0
1614972294274404048,,172402,,1614900266,888842634,"""0""",12.0,6.75,11.8500003815,0.0
1614972294344954967,,172403,,1614900266,938761644,"""0""",12.0,6.75,11.8500003815,0.0
1614972294367052078,,172404,,1614900266,989318936,"""0""",12.0,6.75,11.8500003815,0.0
1614972294425921916,,172405,,1614900267,38754456,"""0""",12.0,6.75,11.8500003815,0.0
1614972294490283012,,172406,,1614900267,88790238,"""0""",12.0,5.75,11.8500003815,0.0
1614972294521574020,,172407,,1614900267,138775238,"""0""",12.0,6.5,11.8500003815,0.0
1614972294579440116,,172408,,1614900267,188855967,"""0""",12.0,5.5,11.8500003815,0.0
1614972294674556016,,172409,,1614900267,239529040,"""0""",12.0,7.125,11.8500003815,0.0
1614972294711154937,,172410,,1614900267,288819665,"""0""",12.0,9.25,11.75,0.0
1614972294760013103,,172411,,1614900267,338762842,"""0""",12.0,7.125,11.75,0.0
1614972294811772108,,172412,,1614900267,388795185,"""0""",12.0,7.125,11.75,0.0
1614972294842117071,,172413,,1614900267,438795498,"""0""",12.0,7.875,11.8000001907,0.0
1614972294877331972,,172414,,1614900267,488868779,"""0""",12.0,7.125,11.8000001907,0.0
1614972294959270000,,172415,,1614900267,538818050,"""0""",12.0,6.125,11.8000001907,0.0
1614972295009069919,,172416,,1614900267,588772633,"""0""",12.0,5.75,11.8999996185,0.0
1614972295052453994,,172417,,1614900267,638787112,"""0""",12.0,5.5,11.8999996185,0.0
1614972295091696023,,172418,,1614900267,688947529,"""0""",12.0,5.5,11.8999996185,0.0
1614972295127588033,,172419,,1614900267,738785602,"""0""",12.0,6.5,11.8999996185,0.0
1614972295174278974,,172420,,1614900267,788804300,"""0""",12.0,7.5,11.8500003815,0.0
1614972295257282018,,172421,,1614900267,838766383,"""0""",12.0,6.75,11.8500003815,0.0
1614972295285510063,,172422,,1614900267,888829404,"""0""",12.0,6.75,11.8500003815,0.0
1614972295320658922,,172423,,1614900267,938794144,"""0""",12.0,6.75,11.8500003815,0.0
1614972295379935026,,172424,,1614900267,989082060,"""0""",12.0,5.125,11.8500003815,0.0
1614972295428258895,,172425,,1614900268,38746331,"""0""",12.0,3.75,11.8500003815,0.0
1614972295484289884,,172426,,1614900268,89208987,"""0""",12.0,3.375,11.9499998093,0.0
1614972295560445070,,172427,,1614900268,138898050,"""0""",12.0,2.75,11.9499998093,0.0
1614972295602175951,,172428,,1614900268,188842789,"""0""",12.0,2.0,11.9499998093,0.0
1614972295633711099,,172429,,1614900268,238919248,"""0""",12.0,1.75,12.1000003815,0.0
1614972295676354885,,172430,,1614900268,288815966,"""0""",12.0,1.75,12.1000003815,0.0
1614972295727660894,,172431,,1614900268,338785706,"""0""",12.0,2.375,12.1000003815,0.0
1614972295775639057,,172432,,1614900268,388797268,"""0""",12.0,2.0,12.0500001907,0.0
1614972295851114034,,172433,,1614900268,438786227,"""0""",12.0,1.75,12.0500001907,0.0
1614972295886218070,,172434,,1614900268,488779508,"""0""",12.0,1.75,12.0500001907,0.0
1614972295932452917,,172435,,1614900268,538779925,"""0""",12.0,2.0,12.0500001907,0.0
1614972296009032964,,172436,,1614900268,588798831,"""0""",12.0,2.375,12.0500001907,0.0
1614972296046145915,,172437,,1614900268,638847112,"""0""",12.0,2.375,12.0500001907,0.0
1614972296080434083,,172438,,1614900268,688874456,"""0""",12.0,3.375,12.0500001907,0.0
1614972296139188051,,172439,,1614900268,738787581,"""0""",12.0,4.125,11.9499998093,0.0
1614972296177988052,,172440,,1614900268,788840497,"""0""",12.0,3.0,11.9499998093,0.0
1614972296241354942,,172441,,1614900268,838959612,"""0""",12.0,7.5,11.9499998093,0.0
1614972296308561086,,172442,,1614900268,888778935,"""0""",12.0,4.75,11.9499998093,0.0
1614972296360421895,,172443,,1614900268,938830654,"""0""",12.0,5.5,11.9499998093,0.0
1614972296391040086,,172444,,1614900268,988790081,"""0""",12.0,2.75,11.9499998093,0.0
1614972296450716972,,172445,,1614900269,38786695,"""0""",12.0,2.375,12.0500001907,0.0
1614972296492882013,,172446,,1614900269,88839195,"""0""",12.0,4.375,12.0500001907,0.0
1614972296529881000,,172447,,1614900269,138809612,"""0""",12.0,4.75,12.0500001907,0.0
1614972296593065023,,172448,,1614900269,188775029,"""0""",12.0,4.125,11.9499998093,0.0
1614972296645602941,,172449,,1614900269,238884872,"""0""",12.0,3.75,11.9499998093,0.0
1614972296674160957,,172450,,1614900269,288797841,"""0""",12.0,5.75,11.9499998093,0.0
1614972296743602991,,172451,,1614900269,338856226,"""0""",12.0,4.75,11.9499998093,0.0
1614972296781631946,,172452,,1614900269,388868883,"""0""",12.0,3.0,11.9499998093,0.0
1614972296840208053,,172453,,1614900269,438836330,"""0""",12.0,3.75,11.9499998093,0.0
1614972296869040966,,172454,,1614900269,488781591,"""0""",12.0,3.75,11.9499998093,0.0
1614972296922121047,,172455,,1614900269,538781539,"""0""",12.0,9.875,11.8999996185,0.0
1614972296973893880,,172456,,1614900269,588907372,"""0""",12.0,11.5,11.8999996185,0.0
1614972297043776988,,172457,,1614900269,638818726,"""0""",12.0,10.375,11.8999996185,0.0
1614972297108334064,,172458,,1614900269,688784612,"""0""",12.0,10.375,11.6999998093,0.0
1614972297147176980,,172459,,1614900269,738782685,"""0""",12.0,11.5,11.6999998093,0.0
1614972297182854890,,172460,,1614900269,788780341,"""0""",12.0,12.125,11.6999998093,0.0
1614972297220587015,,172461,,1614900269,839008049,"""0""",12.0,11.375,11.5500001907,0.0
1614972297273838996,,172462,,1614900269,888901747,"""0""",12.0,12.75,11.5500001907,0.0
1614972297372723102,,172463,,1614900269,938854612,"""0""",12.0,15.0,11.5500001907,0.0
1614972297414336919,,172464,,1614900269,989014039,"""0""",12.0,12.75,11.5500001907,0.0
1614972297485975980,,172465,,1614900270,38780445,"""0""",12.0,11.875,11.5500001907,0.0
1614972297486087083,,172466,,1614900270,88795341,"""0""",12.0,13.0,11.5500001907,0.0
1614972297535284996,,172467,,1614900270,138760601,"""0""",12.0,12.375,11.5500001907,0.0
1614972297579741954,,172468,,1614900270,188822476,"""0""",12.0,10.25,11.5500001907,0.0
1614972297648598909,,172469,,1614900270,238896330,"""0""",12.0,8.875,11.5500001907,0.0
1614972297693046092,,172470,,1614900270,288829403,"""0""",12.0,3.375,11.5500001907,0.0
1614972297732254028,,172471,,1614900270,338800132,"""0""",12.0,2.75,12.0,0.0
1614972297776786088,,172472,,1614900270,388839872,"""0""",12.0,1.375,12.0,0.0
1614972297825634956,,172473,,1614900270,438784663,"""0""",12.0,0.0,12.0,0.0
1614972297873913049,,172474,,1614900270,488890028,"""0""",12.0,0.0,12.3000001907,0.0
1614972297962552070,,172475,,1614900270,538839663,"""0""",12.0,0.0,12.3000001907,0.0
1614972298046596050,,172476,,1614900270,588787320,"""0""",12.0,0.0,12.3000001907,0.0
1614972298046700000,,172477,,1614900270,638858413,"""0""",12.0,0.0,12.3500003815,0.0
1614972298108295917,,172478,,1614900270,688780705,"""0""",12.0,0.0,12.3500003815,0.0
1614972298145001888,,172479,,1614900270,738761955,"""0""",12.0,0.375,12.3500003815,0.0
1614972298180339097,,172480,,1614900270,789104195,"""0""",12.0,1.375,12.1000003815,0.0
1614972298264489889,,172481,,1614900270,838852059,"""0""",12.0,1.375,12.1000003815,0.0
1614972298314167976,,172482,,1614900270,888800809,"""0""",12.0,1.375,12.1000003815,0.0
1614972298353955984,,172483,,1614900270,938800601,"""0""",12.0,1.75,12.1000003815,0.0
1614972298390486001,,172484,,1614900270,988788517,"""0""",12.0,9.5,12.0,0.0
1614972298454041004,,172485,,1614900271,38808986,"""0""",12.0,9.625,12.0,0.0
1614972298503698110,,172486,,1614900271,88785288,"""0""",12.0,10.25,12.0,0.0
1614972298579828977,,172487,,1614900271,138941955,"""0""",12.0,10.625,11.6000003815,0.0
1614972298580296993,,172488,,1614900271,188852059,"""0""",12.0,10.0,11.6000003815,0.0
1614972298627011060,,172489,,1614900271,238829403,"""0""",12.0,10.625,11.6000003815,0.0
1614972298670090913,,172490,,1614900271,288824819,"""0""",12.0,10.875,11.6000003815,0.0
1614972298724308013,,172491,,1614900271,338879403,"""0""",12.0,10.75,11.6000003815,0.0
1614972298777044057,,172492,,1614900271,388773465,"""0""",12.0,10.875,11.6000003815,0.0
1614972298837099075,,172493,,1614900271,438855444,"""0""",12.0,10.625,11.6499996185,0.0
1614972298877890110,,172494,,1614900271,488902736,"""0""",12.0,10.125,11.6499996185,0.0
1614972298926811933,,172495,,1614900271,538886955,"""0""",12.0,9.75,11.6499996185,0.0
1614972298980555057,,172496,,1614900271,588907892,"""0""",12.0,9.625,11.75,0.0
1614972299026921033,,172497,,1614900271,638789194,"""0""",12.0,9.625,11.75,0.0
1614972299077351093,,172498,,1614900271,688785913,"""0""",12.0,9.25,11.75,0.0
1614972299150738954,,172499,,1614900271,738863778,"""0""",12.0,9.625,11.75,0.0
1614972299189326047,,172500,,1614900271,788734975,"""0""",12.0,10.0,11.6999998093,0.0
1614972299231647014,,172501,,1614900271,838776955,"""0""",12.0,9.75,11.6999998093,0.0
1614972299288723945,,172502,,1614900271,888759402,"""0""",12.0,9.75,11.6999998093,0.0
1614972299327518939,,172503,,1614900271,938768777,"""0""",12.0,9.75,11.75,0.0
1614972299386984109,,172504,,1614900271,988781642,"""0""",12.0,9.75,11.75,0.0
1614972299442835092,,172505,,1614900272,38849975,"""0""",12.0,8.875,11.75,0.0
1614972299470985889,,172506,,1614900272,88732007,"""0""",12.0,7.125,11.8500003815,0.0
1614972299523657083,,172507,,1614900272,138806382,"""0""",12.0,8.125,11.8500003815,0.0
1614972299578372001,,172508,,1614900272,188771486,"""0""",12.0,8.875,11.8500003815,0.0
1614972299629663944,,172509,,1614900272,239012788,"""0""",12.0,7.5,11.8500003815,0.0
1614972299675668001,,172510,,1614900272,288769975,"""0""",12.0,8.125,11.8500003815,0.0
1614972299751676082,,172511,,1614900272,339029611,"""0""",12.0,7.5,11.8500003815,0.0
1614972299791471958,,172512,,1614900272,388797319,"""0""",12.0,6.75,11.8500003815,0.0
1614972299861099004,,172513,,1614900272,438838986,"""0""",12.0,6.75,11.8500003815,0.0
1614972299893207073,,172514,,1614900272,488818152,"""0""",12.0,4.75,11.8500003815,0.0
1614972299942676067,,172515,,1614900272,538839194,"""0""",12.0,3.75,11.8500003815,0.0
1614972299974441051,,172516,,1614900272,588773361,"""0""",12.0,2.75,11.9499998093,0.0
1614972300049031019,,172517,,1614900272,638912006,"""0""",12.0,2.75,11.9499998093,0.0
1614972300090497970,,172518,,1614900272,688796694,"""0""",12.0,3.0,11.9499998093,0.0
1614972300138586997,,172519,,1614900272,738792840,"""0""",12.0,2.0,12.0,0.0
1614972300175801038,,172520,,1614900272,788882683,"""0""",12.0,2.0,12.0,0.0
1614972300235538959,,172521,,1614900272,838946902,"""0""",12.0,2.75,12.0,0.0
1614972300273292064,,172522,,1614900272,888778308,"""0""",12.0,3.375,12.0,0.0
1614972300347131013,,172523,,1614900272,938914402,"""0""",12.0,3.0,12.0,0.0
1614972300393219947,,172524,,1614900272,988761017,"""0""",12.0,2.75,12.0,0.0
1614972300493889093,,172525,,1614900273,38801433,"""0""",12.0,2.0,12.0500001907,0.0
1614972300494100093,,172526,,1614900273,88830392,"""0""",12.0,3.75,12.0500001907,0.0
1614972300602550029,,172527,,1614900273,138921485,"""0""",12.0,5.5,12.0500001907,0.0
1614972300602659940,,172528,,1614900273,188858569,"""0""",12.0,4.125,11.9499998093,0.0
1614972300660532951,,172529,,1614900273,238827527,"""0""",12.0,4.125,11.9499998093,0.0
1614972300693802118,,172530,,1614900273,288793517,"""0""",12.0,3.75,11.9499998093,0.0
1614972300737885951,,172531,,1614900273,338807006,"""0""",12.0,2.75,11.9499998093,0.0
1614972300784461021,,172532,,1614900273,388763933,"""0""",12.0,2.375,12.0,0.0
1614972300824342012,,172533,,1614900273,438800860,"""0""",12.0,2.0,12.0,0.0
1614972300875197887,,172534,,1614900273,488814089,"""0""",12.0,1.75,12.0,0.0
1614972300955065011,,172535,,1614900273,538795808,"""0""",12.0,1.75,12.0500001907,0.0
1614972300987560987,,172536,,1614900273,588788777,"""0""",12.0,1.375,12.0500001907,0.0
1614972301030952930,,172537,,1614900273,638816537,"""0""",12.0,1.375,12.0500001907,0.0
1614972301081000089,,172538,,1614900273,688823985,"""0""",12.0,1.75,12.1000003815,0.0
1614972301129168033,,172539,,1614900273,738824923,"""0""",12.0,1.375,12.1000003815,0.0
1614972301194109916,,172540,,1614900273,788779454,"""0""",12.0,1.375,12.1000003815,0.0
1614972301257859945,,172541,,1614900273,838903308,"""0""",12.0,1.75,12.0500001907,0.0
1614972301301309108,,172542,,1614900273,888862162,"""0""",12.0,5.125,12.0500001907,0.0
1614972301330446004,,172543,,1614900273,938913777,"""0""",12.0,5.125,12.0500001907,0.0
1614972301372486114,,172544,,1614900273,988771798,"""0""",12.0,3.375,12.0,0.0
1614972301427099943,,172545,,1614900274,38829818,"""0""",12.0,6.125,12.0,0.0
1614972301484786033,,172546,,1614900274,88780079,"""0""",12.0,5.75,12.0,0.0
1614972301543390035,,172547,,1614900274,138841225,"""0""",12.0,4.375,12.0,0.0
1614972301571228027,,172548,,1614900274,188766277,"""0""",12.0,8.125,11.8500003815,0.0
1614972301622118949,,172549,,1614900274,238815079,"""0""",12.0,4.75,11.8500003815,0.0
1614972301676410913,,172550,,1614900274,288753933,"""0""",12.0,9.5,11.8500003815,0.0
1614972301718787908,,172551,,1614900274,339038724,"""0""",12.0,9.25,11.75,0.0
1614972301776880025,,172552,,1614900274,388794558,"""0""",12.0,2.375,11.75,0.0
1614972301820852994,,172553,,1614900274,438822058,"""0""",12.0,3.75,11.75,0.0
1614972301887057065,,172554,,1614900274,488790704,"""0""",12.0,7.5,11.8500003815,0.0
1614972301925913095,,172555,,1614900274,538888047,"""0""",12.0,9.625,11.8500003815,0.0
1614972301979266881,,172556,,1614900274,588759714,"""0""",12.0,9.25,11.8500003815,0.0
1614972302023689031,,172557,,1614900274,638825547,"""0""",12.0,9.625,11.75,0.0
1614972302075706958,,172558,,1614900274,688858203,"""0""",12.0,8.875,11.75,0.0
1614972302141484975,,172559,,1614900274,738787683,"""0""",12.0,5.125,11.75,0.0
1614972302177936077,,172560,,1614900274,788753985,"""0""",12.0,4.75,11.8999996185,0.0
1614972302219531059,,172561,,1614900274,838790756,"""0""",12.0,4.125,11.8999996185,0.0
1614972302306407928,,172562,,1614900274,888896328,"""0""",12.0,3.375,11.8999996185,0.0
1614972302330049991,,172563,,1614900274,938848933,"""0""",12.0,3.375,11.8999996185,0.0
1614972302370033979,,172564,,1614900274,988786433,"""0""",12.0,3.75,12.0,0.0
1614972302423155069,,172565,,1614900275,38899453,"""0""",12.0,3.75,12.0,0.0
1614972302489234924,,172566,,1614900275,88783308,"""0""",12.0,3.75,12.0,0.0
1614972302526885032,,172567,,1614900275,138911797,"""0""",12.0,3.375,11.9499998093,0.0
1614972302569716930,,172568,,1614900275,188791797,"""0""",12.0,3.375,11.9499998093,0.0
1614972302643364906,,172569,,1614900275,238909922,"""0""",12.0,2.75,11.9499998093,0.0
1614972302699466943,,172570,,1614900275,288780495,"""0""",12.0,4.375,11.8999996185,0.0
1614972302750452995,,172571,,1614900275,338833412,"""0""",12.0,10.25,11.8999996185,0.0
1614972302784753084,,172572,,1614900275,388789245,"""0""",12.0,9.875,11.8999996185,0.0
1614972302830589056,,172573,,1614900275,438868464,"""0""",12.0,6.75,11.8999996185,0.0
1614972302872039079,,172574,,1614900275,488817787,"""0""",12.0,10.375,11.8999996185,0.0
1614972302922581911,,172575,,1614900275,538792161,"""0""",12.0,9.75,11.8999996185,0.0
1614972302975531101,,172576,,1614900275,589172943,"""0""",12.0,10.625,11.5,0.0
1614972303071836948,,172577,,1614900275,638781224,"""0""",12.0,13.25,11.5,0.0
1614972303147574901,,172578,,1614900275,688824141,"""0""",12.0,10.75,11.5,0.0
1614972303147689104,,172579,,1614900275,738805234,"""0""",12.0,13.375,11.5,0.0
1614972303182208061,,172580,,1614900275,788843620,"""0""",12.0,11.375,11.3500003815,0.0
1614972303257059097,,172581,,1614900275,838773151,"""0""",12.0,11.875,11.3500003815,0.0
1614972303289522886,,172582,,1614900275,888848047,"""0""",12.0,12.25,11.3500003815,0.0
1614972303356174945,,172583,,1614900275,938805599,"""0""",12.0,11.375,11.5500001907,0.0
1614972303384870052,,172584,,1614900275,988784245,"""0""",12.0,12.125,11.5500001907,0.0
1614972303425133943,,172585,,1614900276,38832682,"""0""",12.0,11.0,11.5500001907,0.0
1614972303471510887,,172586,,1614900276,88888932,"""0""",12.0,10.625,11.6000003815,0.0
1614972303531006097,,172587,,1614900276,138867057,"""0""",12.0,10.25,11.6000003815,0.0
1614972303574924945,,172588,,1614900276,188865182,"""0""",12.0,10.375,11.6000003815,0.0
1614972303672162055,,172589,,1614900276,238788932,"""0""",12.0,9.625,11.8000001907,0.0
1614972303711829900,,172590,,1614900276,288800338,"""0""",12.0,4.375,11.8000001907,0.0
1614972303742640018,,172591,,1614900276,338871328,"""0""",12.0,3.375,11.8000001907,0.0
1614972303770123958,,172592,,1614900276,388774765,"""0""",12.0,2.375,12.0500001907,0.0
1614972303827824115,,172593,,1614900276,438796172,"""0""",12.0,2.0,12.0500001907,0.0
1614972303868897914,,172594,,1614900276,488867942,"""0""",12.0,1.75,12.0500001907,0.0
1614972303949831962,,172595,,1614900276,538796536,"""0""",12.0,1.75,12.0500001907,0.0
1614972303978952884,,172596,,1614900276,588791380,"""0""",12.0,1.375,12.0500001907,0.0
1614972304031296014,,172597,,1614900276,638761276,"""0""",12.0,1.375,12.0500001907,0.0
1614972304078892946,,172598,,1614900276,688926640,"""0""",12.0,1.375,12.0500001907,0.0
1614972304136894941,,172599,,1614900276,738852578,"""0""",12.0,1.0,12.1000003815,0.0
1614972304177850008,,172600,,1614900276,788791640,"""0""",12.0,1.375,12.1000003815,0.0
1614972304269964933,,172601,,1614900276,838782317,"""0""",12.0,3.75,12.1000003815,0.0
1614972304304999113,,172602,,1614900276,889020859,"""0""",12.0,5.75,11.8500003815,0.0
1614972304393817901,,172603,,1614900276,938909661,"""0""",12.0,7.5,11.8500003815,0.0
1614972304393927097,,172604,,1614900276,988847526,"""0""",12.0,7.875,11.8500003815,0.0
1614972304439158916,,172605,,1614900277,38810963,"""0""",11.0,9.25,11.75,0.0
1614972304469597101,,172606,,1614900277,88815078,"""0""",11.0,10.375,11.75,0.0
1614972304542185068,,172607,,1614900277,138788723,"""0""",11.0,10.5,11.75,0.0
1614972304604696035,,172608,,1614900277,188831015,"""0""",12.0,10.125,11.6999998093,0.0
1614972304669070959,,172609,,1614900277,238953307,"""0""",12.0,10.25,11.6999998093,0.0
1614972304704355001,,172610,,1614900277,288802682,"""0""",12.0,10.0,11.6999998093,0.0
1614972304744585990,,172611,,1614900277,338790077,"""0""",12.0,9.625,11.6999998093,0.0
1614972304781513929,,172612,,1614900277,388809921,"""0""",12.0,9.25,11.8000001907,0.0
1614972304849769115,,172613,,1614900277,438783567,"""0""",12.0,8.5,11.8000001907,0.0
1614972304901758909,,172614,,1614900277,488842057,"""0""",12.0,6.75,11.8000001907,0.0
1614972304945528030,,172615,,1614900277,538761848,"""0""",12.0,6.125,11.8500003815,0.0
1614972304985194921,,172616,,1614900277,588788567,"""0""",12.0,4.75,11.8500003815,0.0
1614972305026817083,,172617,,1614900277,638780494,"""0""",12.0,4.375,11.8500003815,0.0
1614972305076374053,,172618,,1614900277,688847577,"""0""",12.0,4.75,11.8999996185,0.0
1614972305138951063,,172619,,1614900277,738778671,"""0""",12.0,4.75,11.8999996185,0.0
1614972305171802043,,172620,,1614900277,788815546,"""0""",12.0,6.75,11.8999996185,0.0
1614972305225578069,,172621,,1614900277,838845390,"""0""",12.0,7.5,11.8500003815,0.0
