rosbagTimestamp,header,seq,stamp,secs,nsecs,frame_id,Temperature,OutputCurrent,BusVoltage,ClosedLoopError
1614970661370491981,,139745,,1614898634,39024559,"""0""",12.0,0.0,12.3999996185,0.0
1614970661424715042,,139746,,1614898634,88794142,"""0""",12.0,0.0,12.3999996185,0.0
1614970661473689079,,139747,,1614898634,138810340,"""0""",12.0,0.0,12.3999996185,0.0
1614970661527349948,,139748,,1614898634,188771642,"""0""",12.0,0.0,12.3999996185,0.0
1614970661573215961,,139749,,1614898634,238847736,"""0""",12.0,0.0,12.3999996185,0.0
1614970661627882003,,139750,,1614898634,288774871,"""0""",12.0,0.0,12.3999996185,0.0
1614970661669810056,,139751,,1614898634,338824819,"""0""",12.0,0.0,12.3999996185,0.0
1614970661728792905,,139752,,1614898634,388797215,"""0""",12.0,0.0,12.3999996185,0.0
1614970661784049987,,139753,,1614898634,438902423,"""0""",12.0,0.0,12.3999996185,0.0
1614970661827634096,,139754,,1614898634,488777996,"""0""",12.0,0.0,12.3999996185,0.0
1614970661878046989,,139755,,1614898634,538809767,"""0""",12.0,0.0,12.3999996185,0.0
1614970661930839061,,139756,,1614898634,588840392,"""0""",12.0,0.0,12.3999996185,0.0
1614970661983531951,,139757,,1614898634,638801017,"""0""",12.0,0.0,12.3999996185,0.0
1614970662037189006,,139758,,1614898634,688781746,"""0""",12.0,0.0,12.3999996185,0.0
1614970662075824022,,139759,,1614898634,738827006,"""0""",12.0,0.0,12.3999996185,0.0
1614970662128768920,,139760,,1614898634,788825912,"""0""",12.0,0.0,12.3999996185,0.0
1614970662170217037,,139761,,1614898634,838796537,"""0""",12.0,0.0,12.3999996185,0.0
1614970662226536989,,139762,,1614898634,888860704,"""0""",12.0,0.0,12.3999996185,0.0
1614970662269010066,,139763,,1614898634,938825704,"""0""",12.0,0.0,12.3999996185,0.0
1614970662333204984,,139764,,1614898634,988827996,"""0""",12.0,0.0,12.3999996185,0.0
1614970662380650043,,139765,,1614898635,38914819,"""0""",12.0,0.0,12.3999996185,0.0
1614970662430429935,,139766,,1614898635,88790652,"""0""",12.0,0.0,12.3999996185,0.0
1614970662488584995,,139767,,1614898635,138927423,"""0""",12.0,0.0,12.3999996185,0.0
1614970662531434059,,139768,,1614898635,188823204,"""0""",12.0,0.0,12.3999996185,0.0
1614970662585067987,,139769,,1614898635,238907475,"""0""",12.0,0.0,12.3999996185,0.0
1614970662639136075,,139770,,1614898635,288837527,"""0""",12.0,0.0,12.3999996185,0.0
1614970662684407949,,139771,,1614898635,338796381,"""0""",12.0,0.0,12.3999996185,0.0
1614970662736838102,,139772,,1614898635,388813516,"""0""",12.0,0.0,12.3999996185,0.0
1614970662782867908,,139773,,1614898635,439311537,"""0""",12.0,0.0,12.3999996185,0.0
1614970662848002910,,139774,,1614898635,488803100,"""0""",12.0,0.0,12.3999996185,0.0
1614970662889307022,,139775,,1614898635,539033985,"""0""",12.0,0.0,12.3999996185,0.0
1614970662943228960,,139776,,1614898635,588769558,"""0""",12.0,0.0,12.3999996185,0.0
1614970662989698886,,139777,,1614898635,638988725,"""0""",12.0,0.0,12.3999996185,0.0
1614970663043330907,,139778,,1614898635,688778829,"""0""",12.0,0.0,12.3999996185,0.0
1614970663097029924,,139779,,1614898635,738865495,"""0""",12.0,0.0,12.3999996185,0.0
1614970663132050037,,139780,,1614898635,788777683,"""0""",12.0,0.0,12.3999996185,0.0
1614970663186168909,,139781,,1614898635,838824558,"""0""",12.0,0.0,12.3999996185,0.0
1614970663238744020,,139782,,1614898635,888790443,"""0""",12.0,0.0,12.3999996185,0.0
1614970663288619995,,139783,,1614898635,938798933,"""0""",12.0,0.0,12.3999996185,0.0
1614970663335747003,,139784,,1614898635,988773047,"""0""",12.0,0.0,12.3999996185,0.0
1614970663405888080,,139785,,1614898636,38964402,"""0""",12.0,0.0,12.3999996185,0.0
1614970663439853906,,139786,,1614898636,88787162,"""0""",12.0,0.0,12.3999996185,0.0
1614970663493657112,,139787,,1614898636,138820964,"""0""",12.0,0.0,12.3999996185,0.0
1614970663539304971,,139788,,1614898636,188775860,"""0""",12.0,0.0,12.3999996185,0.0
1614970663590102910,,139789,,1614898636,238894037,"""0""",12.0,0.0,12.3999996185,0.0
1614970663634212970,,139790,,1614898636,288783412,"""0""",12.0,0.0,12.3999996185,0.0
1614970663685301065,,139791,,1614898636,338796849,"""0""",12.0,0.0,12.3999996185,0.0
1614970663733246088,,139792,,1614898636,388933620,"""0""",12.0,0.0,12.3999996185,0.0
1614970663785336971,,139793,,1614898636,438940808,"""0""",12.0,0.0,12.3999996185,0.0
1614970663838188886,,139794,,1614898636,488837266,"""0""",12.0,0.0,12.3999996185,0.0
1614970663888258934,,139795,,1614898636,538815599,"""0""",12.0,0.0,12.3999996185,0.0
1614970663934806108,,139796,,1614898636,588777787,"""0""",12.0,0.0,12.3999996185,0.0
1614970663997560977,,139797,,1614898636,638911797,"""0""",12.0,0.0,12.3999996185,0.0
1614970664030112981,,139798,,1614898636,688769349,"""0""",12.0,0.0,12.3999996185,0.0
1614970664095913887,,139799,,1614898636,738790860,"""0""",12.0,0.0,12.3999996185,0.0
1614970664151242017,,139800,,1614898636,788787735,"""0""",12.0,0.0,12.3999996185,0.0
1614970664181854963,,139801,,1614898636,838875182,"""0""",12.0,0.0,12.3999996185,0.0
1614970664235815048,,139802,,1614898636,888824662,"""0""",12.0,0.0,12.3999996185,0.0
1614970664303216934,,139803,,1614898636,938799714,"""0""",12.0,0.0,12.3999996185,0.0
1614970664345509052,,139804,,1614898636,988775912,"""0""",12.0,0.0,12.3999996185,0.0
1614970664384452104,,139805,,1614898637,39142109,"""0""",12.0,0.0,12.3999996185,0.0
1614970664438807010,,139806,,1614898637,88873047,"""0""",12.0,0.0,12.3999996185,0.0
1614970664485820055,,139807,,1614898637,138795651,"""0""",12.0,0.0,12.3999996185,0.0
1614970664538017988,,139808,,1614898637,188778047,"""0""",12.0,0.0,12.3999996185,0.0
1614970664608274936,,139809,,1614898637,238920130,"""0""",12.0,0.0,12.3999996185,0.0
1614970664636529922,,139810,,1614898637,288799245,"""0""",12.0,0.0,12.3999996185,0.0
1614970664694071054,,139811,,1614898637,338836224,"""0""",12.0,0.0,12.3999996185,0.0
1614970664739152908,,139812,,1614898637,388817474,"""0""",12.0,0.0,12.3999996185,0.0
1614970664784751892,,139813,,1614898637,438818411,"""0""",12.0,0.0,12.3999996185,0.0
1614970664837213993,,139814,,1614898637,488807786,"""0""",12.0,0.0,12.3999996185,0.0
1614970664902234077,,139815,,1614898637,538907266,"""0""",12.0,0.0,12.3999996185,0.0
1614970664962920904,,139816,,1614898637,588845859,"""0""",12.0,0.0,12.3999996185,0.0
1614970664995053052,,139817,,1614898637,638802109,"""0""",12.0,0.0,12.3999996185,0.0
1614970665038295030,,139818,,1614898637,688912786,"""0""",12.0,0.0,12.3999996185,0.0
1614970665096254110,,139819,,1614898637,738794453,"""0""",12.0,0.0,12.3999996185,0.0
1614970665137075901,,139820,,1614898637,788786172,"""0""",12.0,0.0,12.3999996185,0.0
1614970665201536893,,139821,,1614898637,838914870,"""0""",12.0,0.0,12.3999996185,0.0
1614970665232650041,,139822,,1614898637,888777317,"""0""",12.0,0.0,12.3999996185,0.0
1614970665294584989,,139823,,1614898637,938810755,"""0""",12.0,0.0,12.3999996185,0.0
1614970665338987112,,139824,,1614898637,988783411,"""0""",12.0,0.0,12.3999996185,0.0
1614970665392213106,,139825,,1614898638,38845494,"""0""",12.0,0.0,12.3999996185,0.0
1614970665439341068,,139826,,1614898638,88759297,"""0""",12.0,0.0,12.3999996185,0.0
1614970665512058019,,139827,,1614898638,138792630,"""0""",12.0,0.0,12.3999996185,0.0
1614970665554555892,,139828,,1614898638,188773359,"""0""",12.0,0.0,12.3999996185,0.0
1614970665590589046,,139829,,1614898638,238978411,"""0""",12.0,0.0,12.3999996185,0.0
1614970665634980916,,139830,,1614898638,288796744,"""0""",12.0,0.0,12.3999996185,0.0
1614970665689053058,,139831,,1614898638,338906744,"""0""",12.0,0.0,12.3999996185,0.0
1614970665738429069,,139832,,1614898638,388806276,"""0""",12.0,0.0,12.3999996185,0.0
1614970665803534984,,139833,,1614898638,438813776,"""0""",12.0,0.0,12.3999996185,0.0
1614970665835129976,,139834,,1614898638,488782265,"""0""",12.0,0.0,12.3999996185,0.0
1614970665892488002,,139835,,1614898638,538933984,"""0""",12.0,0.0,12.3999996185,0.0
1614970665939503908,,139836,,1614898638,588843776,"""0""",12.0,0.0,12.3999996185,0.0
1614970665989511013,,139837,,1614898638,638924921,"""0""",12.0,0.0,12.3999996185,0.0
1614970666037770986,,139838,,1614898638,688861640,"""0""",12.0,0.0,12.3999996185,0.0
1614970666090889930,,139839,,1614898638,738780390,"""0""",12.0,0.0,12.3999996185,0.0
1614970666145690917,,139840,,1614898638,788777525,"""0""",12.0,0.0,12.3999996185,0.0
1614970666193686008,,139841,,1614898638,838793098,"""0""",12.0,0.0,12.3999996185,0.0
1614970666239814996,,139842,,1614898638,888750025,"""0""",12.0,0.0,12.3999996185,0.0
1614970666292464017,,139843,,1614898638,938912838,"""0""",12.0,0.0,12.3999996185,0.0
1614970666338259935,,139844,,1614898638,988782682,"""0""",12.0,0.0,12.3999996185,0.0
1614970666405844926,,139845,,1614898639,38904921,"""0""",12.0,0.0,12.3999996185,0.0
1614970666463037967,,139846,,1614898639,88801692,"""0""",12.0,0.0,12.3999996185,0.0
1614970666508585929,,139847,,1614898639,138885650,"""0""",12.0,0.0,12.3999996185,0.0
1614970666538477897,,139848,,1614898639,188813567,"""0""",12.0,0.0,12.3999996185,0.0
1614970666589641094,,139849,,1614898639,238991900,"""0""",12.0,0.0,12.3999996185,0.0
1614970666640711069,,139850,,1614898639,288789921,"""0""",12.0,0.0,12.3999996185,0.0
1614970666702866077,,139851,,1614898639,338759244,"""0""",12.0,0.0,12.3999996185,0.0
1614970666742851018,,139852,,1614898639,388819973,"""0""",12.0,0.0,12.3999996185,0.0
1614970666816104888,,139853,,1614898639,438883775,"""0""",12.0,0.0,12.3999996185,0.0
1614970666854326009,,139854,,1614898639,488882786,"""0""",12.0,0.0,12.3999996185,0.0
1614970666887644052,,139855,,1614898639,538843150,"""0""",12.0,0.0,12.3999996185,0.0
1614970666970276117,,139856,,1614898639,588805858,"""0""",12.0,0.0,12.3999996185,0.0
1614970667024507045,,139857,,1614898639,638808306,"""0""",12.0,0.0,12.3999996185,0.0
1614970667056476116,,139858,,1614898639,688774244,"""0""",12.0,0.0,12.3999996185,0.0
1614970667130279064,,139859,,1614898639,738796692,"""0""",12.0,0.0,12.3999996185,0.0
1614970667130548954,,139860,,1614898639,788775129,"""0""",12.0,0.0,12.3999996185,0.0
1614970667189937114,,139861,,1614898639,838792108,"""0""",12.0,0.0,12.3999996185,0.0
1614970667245594024,,139862,,1614898639,888927473,"""0""",12.0,0.0,12.3999996185,0.0
1614970667297909975,,139863,,1614898639,938909400,"""0""",12.0,0.0,12.3999996185,0.0
1614970667353539943,,139864,,1614898639,988799452,"""0""",12.0,0.0,12.3999996185,0.0
1614970667400496959,,139865,,1614898640,38823410,"""0""",12.0,0.0,12.3999996185,0.0
1614970667444714069,,139866,,1614898640,88812942,"""0""",12.0,0.0,12.3999996185,0.0
1614970667490458965,,139867,,1614898640,138947942,"""0""",12.0,0.0,12.3999996185,0.0
1614970667559489011,,139868,,1614898640,188872212,"""0""",12.0,0.0,12.3999996185,0.0
1614970667611210107,,139869,,1614898640,238798202,"""0""",12.0,0.0,12.3999996185,0.0
1614970667641510009,,139870,,1614898640,288817837,"""0""",12.0,0.0,12.3999996185,0.0
1614970667694070100,,139871,,1614898640,338794244,"""0""",12.0,15.0,12.3999996185,0.0
1614970667740609884,,139872,,1614898640,388776587,"""0""",12.0,12.5,12.3999996185,0.0
1614970667790304899,,139873,,1614898640,438919973,"""0""",12.0,10.5,11.6999998093,0.0
1614970667842611074,,139874,,1614898640,488776119,"""0""",12.0,9.5,11.6999998093,0.0
1614970667915430068,,139875,,1614898640,538886639,"""0""",12.0,9.0,11.6999998093,0.0
1614970667955820083,,139876,,1614898640,588895181,"""0""",13.0,8.375,11.8500003815,0.0
1614970667990237951,,139877,,1614898640,638869973,"""0""",13.0,7.875,11.8500003815,0.0
1614970668043204069,,139878,,1614898640,688811691,"""0""",13.0,7.25,11.8500003815,0.0
1614970668089843034,,139879,,1614898640,738817004,"""0""",12.0,4.75,12.1000003815,0.0
1614970668138020992,,139880,,1614898640,788820858,"""0""",12.0,2.0,12.1000003815,0.0
1614970668224016904,,139881,,1614898640,838805702,"""0""",12.0,1.375,12.1000003815,0.0
1614970668224157094,,139882,,1614898640,888772473,"""0""",12.0,1.0,12.1000003815,0.0
1614970668293085098,,139883,,1614898640,938900337,"""0""",12.0,1.0,12.25,0.0
1614970668343732118,,139884,,1614898640,988933514,"""0""",12.0,1.0,12.25,0.0
1614970668391446113,,139885,,1614898641,38982785,"""0""",12.0,1.0,12.25,0.0
1614970668498655080,,139886,,1614898641,88783775,"""0""",12.0,1.0,12.25,0.0
1614970668498758077,,139887,,1614898641,138961795,"""0""",12.0,0.625,12.25,0.0
1614970668562202930,,139888,,1614898641,188796483,"""0""",12.0,0.625,12.25,0.0
1614970668598912954,,139889,,1614898641,238794400,"""0""",13.0,0.375,12.3500003815,0.0
1614970668639866113,,139890,,1614898641,288777056,"""0""",13.0,0.625,12.3500003815,0.0
1614970668688760995,,139891,,1614898641,338809139,"""0""",13.0,0.625,12.3500003815,0.0
1614970668792766094,,139892,,1614898641,388775181,"""0""",12.0,0.625,12.25,0.0
1614970668792881011,,139893,,1614898641,438813202,"""0""",12.0,0.625,12.25,0.0
1614970668840981960,,139894,,1614898641,488821066,"""0""",12.0,1.0,12.25,0.0
1614970668888283014,,139895,,1614898641,538917108,"""0""",12.0,1.375,12.1999998093,0.0
1614970668948205947,,139896,,1614898641,588801951,"""0""",12.0,1.75,12.1999998093,0.0
1614970669001270055,,139897,,1614898641,638865806,"""0""",12.0,1.75,12.1999998093,0.0
1614970669041661977,,139898,,1614898641,688788462,"""0""",12.0,3.375,12.1999998093,0.0
1614970669100555896,,139899,,1614898641,738795233,"""0""",12.0,6.125,12.1000003815,0.0
1614970669139842987,,139900,,1614898641,788838514,"""0""",12.0,3.75,12.1000003815,0.0
1614970669198076963,,139901,,1614898641,838846951,"""0""",12.0,6.125,12.1000003815,0.0
1614970669253676891,,139902,,1614898641,888733149,"""0""",12.0,6.5,12.0,0.0
1614970669339909076,,139903,,1614898641,938800285,"""0""",12.0,4.125,12.0,0.0
1614970669407491922,,139904,,1614898641,988800076,"""0""",12.0,2.75,12.0,0.0
1614970669407608985,,139905,,1614898642,38910597,"""0""",12.0,2.0,12.1999998093,0.0
1614970669462966918,,139906,,1614898642,88830493,"""0""",12.0,4.375,12.1999998093,0.0
1614970669518405914,,139907,,1614898642,138934295,"""0""",12.0,2.75,12.1999998093,0.0
1614970669546072006,,139908,,1614898642,188757368,"""0""",12.0,2.0,12.1499996185,0.0
1614970669594891071,,139909,,1614898642,238981170,"""0""",12.0,4.125,12.1499996185,0.0
1614970669705290079,,139910,,1614898642,288833566,"""0""",12.0,3.75,12.1499996185,0.0
1614970669705476045,,139911,,1614898642,338869816,"""0""",12.0,3.375,12.1000003815,0.0
1614970669755347967,,139912,,1614898642,388779139,"""0""",12.0,5.125,12.1000003815,0.0
1614970669802149057,,139913,,1614898642,439108462,"""0""",12.0,6.75,12.1000003815,0.0
1614970669844386100,,139914,,1614898642,488796482,"""0""",12.0,5.125,12.1000003815,0.0
1614970669889105081,,139915,,1614898642,538801066,"""0""",12.0,2.75,12.1499996185,0.0
1614970669950759887,,139916,,1614898642,588890857,"""0""",12.0,2.75,12.1499996185,0.0
1614970670018274068,,139917,,1614898642,638906274,"""0""",12.0,3.375,12.1499996185,0.0
1614970670054459095,,139918,,1614898642,688770441,"""0""",12.0,4.75,12.0500001907,0.0
1614970670094119071,,139919,,1614898642,738822055,"""0""",12.0,4.75,12.0500001907,0.0
1614970670138051986,,139920,,1614898642,788861274,"""0""",12.0,3.375,12.0500001907,0.0
1614970670187510013,,139921,,1614898642,838856326,"""0""",12.0,1.75,12.1999998093,0.0
1614970670243300914,,139922,,1614898642,888780961,"""0""",12.0,2.375,12.1999998093,0.0
1614970670303355932,,139923,,1614898642,938837368,"""0""",12.0,4.125,12.1999998093,0.0
1614970670346214056,,139924,,1614898642,988908878,"""0""",12.0,3.0,12.1000003815,0.0
1614970670393157005,,139925,,1614898643,39415388,"""0""",12.0,2.0,12.1000003815,0.0
1614970670471223115,,139926,,1614898643,88794920,"""0""",12.0,2.0,12.1000003815,0.0
1614970670539655923,,139927,,1614898643,138792628,"""0""",12.0,2.0,12.1499996185,0.0
1614970670613107919,,139928,,1614898643,188864347,"""0""",12.0,2.0,12.1499996185,0.0
1614970670613209962,,139929,,1614898643,238874763,"""0""",12.0,1.375,12.1499996185,0.0
1614970670669595003,,139930,,1614898643,288793461,"""0""",12.0,1.375,12.1499996185,0.0
1614970670699187040,,139931,,1614898643,338922992,"""0""",12.0,1.375,12.1999998093,0.0
1614970670739337921,,139932,,1614898643,388794242,"""0""",12.0,1.75,12.1999998093,0.0
1614970670784842014,,139933,,1614898643,438914451,"""0""",12.0,1.75,12.1999998093,0.0
1614970670840859889,,139934,,1614898643,488820492,"""0""",12.0,1.75,12.1999998093,0.0
1614970670889588117,,139935,,1614898643,538859867,"""0""",12.0,1.75,12.1999998093,0.0
1614970670941330909,,139936,,1614898643,588777367,"""0""",12.0,1.75,12.1999998093,0.0
1614970670983480930,,139937,,1614898643,638945440,"""0""",12.0,3.0,12.1000003815,0.0
1614970671039921998,,139938,,1614898643,688892367,"""0""",12.0,2.375,12.1000003815,0.0
1614970671108473062,,139939,,1614898643,738940596,"""0""",12.0,2.75,12.1000003815,0.0
1614970671151207923,,139940,,1614898643,788806638,"""0""",12.0,2.375,12.1000003815,0.0
1614970671186244010,,139941,,1614898643,839072836,"""0""",12.0,6.75,12.1000003815,0.0
1614970671242882966,,139942,,1614898643,888913982,"""0""",12.0,8.0,12.1000003815,0.0
1614970671289356946,,139943,,1614898643,938790492,"""0""",12.0,6.875,12.0,0.0
1614970671340006113,,139944,,1614898643,988784919,"""0""",12.0,7.125,12.0,0.0
1614970671390470981,,139945,,1614898644,38846117,"""0""",12.0,7.0,12.0,0.0
1614970671441276073,,139946,,1614898644,88816117,"""0""",12.0,7.25,12.0,0.0
1614970671524533033,,139947,,1614898644,138811273,"""0""",12.0,7.625,11.8500003815,0.0
1614970671597929000,,139948,,1614898644,189188513,"""0""",12.0,7.5,11.8500003815,0.0
1614970671598047971,,139949,,1614898644,238923878,"""0""",12.0,8.0,11.8500003815,0.0
1614970671651104927,,139950,,1614898644,288810492,"""0""",12.0,8.0,11.8000001907,0.0
1614970671729480981,,139951,,1614898644,338908773,"""0""",12.0,8.75,11.8000001907,0.0
1614970671786782979,,139952,,1614898644,388846221,"""0""",12.0,8.25,11.8000001907,0.0
1614970671860245943,,139953,,1614898644,438876690,"""0""",12.0,7.625,11.8500003815,0.0
1614970671860347986,,139954,,1614898644,488768565,"""0""",12.0,8.125,11.8500003815,0.0
1614970671915111064,,139955,,1614898644,538962002,"""0""",12.0,8.0,11.8500003815,0.0
1614970672004371881,,139956,,1614898644,588793617,"""0""",12.0,8.375,11.75,0.0
1614970672004554033,,139957,,1614898644,638806794,"""0""",12.0,9.0,11.75,0.0
1614970672044704914,,139958,,1614898644,688787940,"""0""",12.0,8.625,11.75,0.0
1614970672111160039,,139959,,1614898644,738791117,"""0""",12.0,8.375,11.8000001907,0.0
1614970672147047996,,139960,,1614898644,788786065,"""0""",12.0,8.375,11.8000001907,0.0
1614970672194922924,,139961,,1614898644,838856169,"""0""",12.0,8.5,11.8000001907,0.0
1614970672244740962,,139962,,1614898644,888799398,"""0""",12.0,7.5,11.8000001907,0.0
1614970672298727989,,139963,,1614898644,938889242,"""0""",12.0,7.625,11.8500003815,0.0
1614970672345567941,,139964,,1614898644,988882315,"""0""",12.0,7.5,11.8500003815,0.0
1614970672420089960,,139965,,1614898645,38822471,"""0""",12.0,6.5,11.8500003815,0.0
1614970672464811086,,139966,,1614898645,88925752,"""0""",12.0,6.75,12.0,0.0
1614970672526566028,,139967,,1614898645,138951586,"""0""",12.0,6.75,12.0,0.0
1614970672557668924,,139968,,1614898645,188795127,"""0""",12.0,5.5,12.0,0.0
1614970672587706089,,139969,,1614898645,238831846,"""0""",12.0,3.0,12.1000003815,0.0
1614970672639389038,,139970,,1614898645,288890908,"""0""",12.0,2.375,12.1000003815,0.0
1614970672701898097,,139971,,1614898645,338885700,"""0""",12.0,1.375,12.1000003815,0.0
1614970672739253997,,139972,,1614898645,388863513,"""0""",12.0,1.0,12.1999998093,0.0
1614970672787569046,,139973,,1614898645,438785544,"""0""",12.0,0.625,12.1999998093,0.0
1614970672840219020,,139974,,1614898645,488853773,"""0""",12.0,0.625,12.1999998093,0.0
1614970672887371063,,139975,,1614898645,538742575,"""0""",12.0,0.625,12.25,0.0
1614970672942641973,,139976,,1614898645,588786221,"""0""",12.0,0.375,12.25,0.0
1614970673031152963,,139977,,1614898645,638849710,"""0""",12.0,0.0,12.25,0.0
1614970673084719896,,139978,,1614898645,688847419,"""0""",12.0,0.0,12.25,0.0
1614970673129791975,,139979,,1614898645,738781585,"""0""",12.0,0.375,12.3000001907,0.0
1614970673165738105,,139980,,1614898645,788786169,"""0""",12.0,0.625,12.3000001907,0.0
1614970673191343069,,139981,,1614898645,838827887,"""0""",12.0,0.375,12.3000001907,0.0
1614970673275367021,,139982,,1614898645,888805960,"""0""",12.0,0.0,12.3000001907,0.0
1614970673302731990,,139983,,1614898645,938805856,"""0""",12.0,0.625,12.3000001907,0.0
1614970673334490060,,139984,,1614898645,988793512,"""0""",12.0,1.75,12.3000001907,0.0
1614970673395875930,,139985,,1614898646,38759085,"""0""",12.0,6.875,11.9499998093,0.0
1614970673462563037,,139986,,1614898646,88952106,"""0""",12.0,5.75,11.9499998093,0.0
1614970673499980926,,139987,,1614898646,138778252,"""0""",12.0,6.875,11.9499998093,0.0
1614970673547019004,,139988,,1614898646,188894502,"""0""",12.0,7.375,11.8500003815,0.0
1614970673595112085,,139989,,1614898646,238834866,"""0""",12.0,7.375,11.8500003815,0.0
1614970673650768995,,139990,,1614898646,288762575,"""0""",12.0,7.625,11.8500003815,0.0
1614970673700129985,,139991,,1614898646,338858408,"""0""",12.0,7.25,11.8999996185,0.0
1614970673739336013,,139992,,1614898646,388833095,"""0""",12.0,6.875,11.8999996185,0.0
1614970673799849033,,139993,,1614898646,438779398,"""0""",12.0,6.5,11.8999996185,0.0
1614970673840488910,,139994,,1614898646,488789189,"""0""",12.0,5.75,11.8999996185,0.0
1614970673914060115,,139995,,1614898646,538772575,"""0""",12.0,4.75,12.0500001907,0.0
1614970673949640989,,139996,,1614898646,588882575,"""0""",12.0,5.125,12.0500001907,0.0
1614970674005304098,,139997,,1614898646,638860960,"""0""",12.0,5.125,12.0500001907,0.0
1614970674039504051,,139998,,1614898646,688790908,"""0""",12.0,5.125,12.0500001907,0.0
1614970674097064971,,139999,,1614898646,738802731,"""0""",12.0,5.75,12.0500001907,0.0
1614970674144841909,,140000,,1614898646,788969866,"""0""",12.0,5.75,12.0500001907,0.0
1614970674217122077,,140001,,1614898646,838776793,"""0""",12.0,5.75,12.0,0.0
1614970674262105941,,140002,,1614898646,888998720,"""0""",12.0,5.5,12.0,0.0
1614970674301680088,,140003,,1614898646,938779502,"""0""",12.0,4.375,12.0,0.0
1614970674337109088,,140004,,1614898646,989246376,"""0""",12.0,4.125,12.0500001907,0.0
1614970674392805099,,140005,,1614898647,38786220,"""0""",12.0,3.75,12.0500001907,0.0
1614970674454571008,,140006,,1614898647,88840908,"""0""",12.0,3.75,12.0500001907,0.0
1614970674506028890,,140007,,1614898647,138756845,"""0""",12.0,3.0,12.1000003815,0.0
1614970674541208982,,140008,,1614898647,188899710,"""0""",12.0,2.75,12.1000003815,0.0
1614970674614708900,,140009,,1614898647,238832783,"""0""",12.0,3.0,12.1000003815,0.0
1614970674651387929,,140010,,1614898647,289470543,"""0""",12.0,3.0,12.1000003815,0.0
1614970674692408084,,140011,,1614898647,338782626,"""0""",12.0,3.75,12.1000003815,0.0
1614970674762804031,,140012,,1614898647,388952678,"""0""",12.0,3.75,12.1000003815,0.0
1614970674818216085,,140013,,1614898647,438847678,"""0""",12.0,4.125,12.1000003815,0.0
1614970674846721887,,140014,,1614898647,488892991,"""0""",12.0,4.375,12.0,0.0
1614970674898298025,,140015,,1614898647,538745283,"""0""",12.0,5.125,12.0,0.0
1614970674945332050,,140016,,1614898647,588927053,"""0""",12.0,5.125,12.0,0.0
1614970674993247032,,140017,,1614898647,638861741,"""0""",12.0,4.75,12.0500001907,0.0
1614970675042068958,,140018,,1614898647,688872782,"""0""",12.0,4.125,12.0500001907,0.0
1614970675087670087,,140019,,1614898647,738796272,"""0""",12.0,4.125,12.0500001907,0.0
1614970675146395921,,140020,,1614898647,788831428,"""0""",12.0,3.75,12.1000003815,0.0
1614970675198668956,,140021,,1614898647,838793876,"""0""",12.0,3.75,12.1000003815,0.0
1614970675254719972,,140022,,1614898647,888817001,"""0""",12.0,3.375,12.1000003815,0.0
1614970675327553987,,140023,,1614898647,938789762,"""0""",12.0,3.75,12.1000003815,0.0
1614970675360342979,,140024,,1614898647,988865074,"""0""",12.0,3.0,12.1000003815,0.0
1614970675394926071,,140025,,1614898648,38920907,"""0""",12.0,3.375,12.1000003815,0.0
1614970675442389965,,140026,,1614898648,89409918,"""0""",12.0,4.375,12.1000003815,0.0
1614970675491889953,,140027,,1614898648,138788407,"""0""",12.0,4.75,12.0500001907,0.0
1614970675544157981,,140028,,1614898648,189471532,"""0""",12.0,4.75,12.0500001907,0.0
1614970675603112936,,140029,,1614898648,238820959,"""0""",12.0,4.375,12.0500001907,0.0
1614970675640558004,,140030,,1614898648,289701063,"""0""",12.0,4.375,12.0500001907,0.0
1614970675707365036,,140031,,1614898648,338826220,"""0""",12.0,5.125,12.0500001907,0.0
1614970675743556022,,140032,,1614898648,388926480,"""0""",12.0,4.75,12.0500001907,0.0
1614970675794559955,,140033,,1614898648,438822418,"""0""",12.0,4.75,12.0500001907,0.0
1614970675874150991,,140034,,1614898648,488822938,"""0""",12.0,4.375,12.0500001907,0.0
1614970675938549041,,140035,,1614898648,538804449,"""0""",12.0,3.75,12.0500001907,0.0
1614970675979296922,,140036,,1614898648,588896115,"""0""",12.0,3.75,12.0500001907,0.0
1614970676033092975,,140037,,1614898648,638825230,"""0""",12.0,3.0,12.0500001907,0.0
1614970676076565027,,140038,,1614898648,688844865,"""0""",12.0,3.375,12.0500001907,0.0
1614970676120666027,,140039,,1614898648,738804449,"""0""",12.0,3.375,12.0500001907,0.0
1614970676160367965,,140040,,1614898648,788864501,"""0""",12.0,4.125,12.0500001907,0.0
1614970676215336084,,140041,,1614898648,838844917,"""0""",12.0,4.125,12.0500001907,0.0
1614970676266469955,,140042,,1614898648,888982782,"""0""",12.0,4.125,12.0500001907,0.0
1614970676295867919,,140043,,1614898648,938896844,"""0""",12.0,4.375,12.0,0.0
1614970676340944051,,140044,,1614898648,988811584,"""0""",12.0,4.75,12.0,0.0
1614970676393805980,,140045,,1614898649,38761897,"""0""",12.0,5.125,12.0,0.0
1614970676466979026,,140046,,1614898649,89287365,"""0""",12.0,4.375,12.0500001907,0.0
1614970676506552934,,140047,,1614898649,138789917,"""0""",12.0,3.375,12.0500001907,0.0
1614970676573156118,,140048,,1614898649,188916480,"""0""",12.0,4.125,12.0500001907,0.0
1614970676624794006,,140049,,1614898649,238800386,"""0""",12.0,4.125,12.0500001907,0.0
1614970676657335042,,140050,,1614898649,288791063,"""0""",12.0,3.375,12.0500001907,0.0
1614970676699193954,,140051,,1614898649,338879917,"""0""",12.0,2.75,12.0500001907,0.0
1614970676740133047,,140052,,1614898649,388793563,"""0""",12.0,3.0,12.0500001907,0.0
1614970676792808055,,140053,,1614898649,438803928,"""0""",12.0,3.375,12.0500001907,0.0
1614970676853548049,,140054,,1614898649,488864032,"""0""",12.0,2.375,12.0500001907,0.0
1614970676919380903,,140055,,1614898649,538755126,"""0""",12.0,2.375,12.0500001907,0.0
1614970676999501943,,140056,,1614898649,588824761,"""0""",12.0,2.75,12.0500001907,0.0
1614970676999670028,,140057,,1614898649,638765073,"""0""",12.0,3.0,12.0500001907,0.0
1614970677041207075,,140058,,1614898649,688792000,"""0""",12.0,3.0,12.0500001907,0.0
1614970677090918064,,140059,,1614898649,738846688,"""0""",12.0,2.375,12.1000003815,0.0
1614970677157970905,,140060,,1614898649,788779709,"""0""",12.0,1.75,12.1000003815,0.0
1614970677222568988,,140061,,1614898649,838788146,"""0""",12.0,1.375,12.1000003815,0.0
1614970677262211084,,140062,,1614898649,888998875,"""0""",12.0,1.0,12.1999998093,0.0
1614970677308886051,,140063,,1614898649,938827261,"""0""",12.0,0.625,12.1999998093,0.0
1614970677352097034,,140064,,1614898649,988816167,"""0""",12.0,0.625,12.1999998093,0.0
1614970677393170118,,140065,,1614898650,38853198,"""0""",12.0,1.0,12.1999998093,0.0
1614970677479988098,,140066,,1614898650,88781375,"""0""",12.0,0.625,12.1999998093,0.0
1614970677540550947,,140067,,1614898650,138806532,"""0""",12.0,0.625,12.1999998093,0.0
1614970677603569030,,140068,,1614898650,188829396,"""0""",12.0,0.625,12.25,0.0
1614970677603607892,,140069,,1614898650,238815438,"""0""",12.0,1.0,12.25,0.0
1614970677640990972,,140070,,1614898650,288755021,"""0""",12.0,1.375,12.25,0.0
1614970677690125942,,140071,,1614898650,338831792,"""0""",12.0,6.5,12.0,0.0
1614970677750217914,,140072,,1614898650,388787521,"""0""",12.0,3.75,12.0,0.0
1614970677798394918,,140073,,1614898650,439039813,"""0""",12.0,2.0,12.0,0.0
1614970677843241930,,140074,,1614898650,488789292,"""0""",12.0,4.75,12.0,0.0
1614970677893778085,,140075,,1614898650,538842781,"""0""",12.0,4.125,12.0500001907,0.0
1614970677939829111,,140076,,1614898650,588787052,"""0""",12.0,3.0,12.0500001907,0.0
1614970677996488094,,140077,,1614898650,638780073,"""0""",12.0,3.0,12.0500001907,0.0
1614970678050678014,,140078,,1614898650,688790281,"""0""",12.0,2.0,12.1000003815,0.0
1614970678110385894,,140079,,1614898650,738800854,"""0""",12.0,1.0,12.1000003815,0.0
1614970678160785913,,140080,,1614898650,788902885,"""0""",12.0,1.0,12.1000003815,0.0
1614970678201270103,,140081,,1614898650,838799708,"""0""",12.0,1.375,12.1999998093,0.0
1614970678298119068,,140082,,1614898650,888823302,"""0""",12.0,1.375,12.1999998093,0.0
1614970678335284948,,140083,,1614898650,942244969,"""0""",12.0,3.0,12.1999998093,0.0
1614970678402878999,,140084,,1614898650,988811375,"""0""",12.0,2.75,12.1999998093,0.0
1614970678403007984,,140085,,1614898651,38795906,"""0""",12.0,2.75,12.1999998093,0.0
1614970678441767930,,140086,,1614898651,88775802,"""0""",12.0,3.0,12.1999998093,0.0
1614970678516032934,,140087,,1614898651,138770594,"""0""",12.0,2.75,12.1000003815,0.0
1614970678562607049,,140088,,1614898651,188936896,"""0""",12.0,4.125,12.1000003815,0.0
1614970678598639965,,140089,,1614898651,238796479,"""0""",12.0,4.375,12.1000003815,0.0
1614970678644469976,,140090,,1614898651,288849604,"""0""",12.0,3.75,12.1000003815,0.0
1614970678726777076,,140091,,1614898651,338910073,"""0""",12.0,3.375,12.0500001907,0.0
1614970678768434047,,140092,,1614898651,388814916,"""0""",12.0,2.375,12.0500001907,0.0
1614970678817012071,,140093,,1614898651,438800437,"""0""",12.0,3.75,12.0500001907,0.0
1614970678874592065,,140094,,1614898651,488881114,"""0""",12.0,4.125,12.0500001907,0.0
1614970678910293102,,140095,,1614898651,538932937,"""0""",12.0,2.75,12.0500001907,0.0
1614970678955914020,,140096,,1614898651,588778718,"""0""",12.0,2.75,12.0500001907,0.0
1614970679013231039,,140097,,1614898651,638941218,"""0""",12.0,2.0,12.1499996185,0.0
1614970679071177005,,140098,,1614898651,688744031,"""0""",12.0,3.0,12.1499996185,0.0
1614970679129980087,,140099,,1614898651,738947937,"""0""",12.0,2.75,12.1499996185,0.0
1614970679161286115,,140100,,1614898651,788849968,"""0""",12.0,2.375,12.1499996185,0.0
1614970679193115949,,140101,,1614898651,838807781,"""0""",12.0,1.75,12.1499996185,0.0
1614970679242115974,,140102,,1614898651,888848562,"""0""",12.0,7.0,12.1499996185,0.0
1614970679313045978,,140103,,1614898651,938779864,"""0""",12.0,7.375,11.8999996185,0.0
1614970679341448068,,140104,,1614898651,988778302,"""0""",12.0,7.0,11.8999996185,0.0
1614970679395072937,,140105,,1614898652,38918145,"""0""",12.0,7.25,11.8999996185,0.0
1614970679463376998,,140106,,1614898652,88832052,"""0""",12.0,7.75,11.8999996185,0.0
1614970679497488975,,140107,,1614898652,138804552,"""0""",12.0,7.625,11.8500003815,0.0
1614970679547724962,,140108,,1614898652,188778927,"""0""",12.0,7.75,11.8500003815,0.0
1614970679588542938,,140109,,1614898652,239029916,"""0""",12.0,8.875,11.8500003815,0.0
1614970679639842033,,140110,,1614898652,288784812,"""0""",11.0,9.375,11.6999998093,0.0
1614970679690236091,,140111,,1614898652,338866479,"""0""",11.0,8.75,11.6999998093,0.0
1614970679763684034,,140112,,1614898652,388860385,"""0""",11.0,8.625,11.6999998093,0.0
1614970679804434061,,140113,,1614898652,438793822,"""0""",12.0,9.875,11.6000003815,0.0
1614970679852648019,,140114,,1614898652,488810697,"""0""",12.0,9.25,11.6000003815,0.0
1614970679894860982,,140115,,1614898652,538794135,"""0""",12.0,9.25,11.6000003815,0.0
1614970679955125093,,140116,,1614898652,588770958,"""0""",11.0,10.0,11.6499996185,0.0
1614970679995784997,,140117,,1614898652,639081479,"""0""",11.0,9.75,11.6499996185,0.0
1614970680043931961,,140118,,1614898652,688776635,"""0""",11.0,8.875,11.6499996185,0.0
1614970680090672016,,140119,,1614898652,738785437,"""0""",11.0,7.875,11.6999998093,0.0
1614970680152447938,,140120,,1614898652,788761322,"""0""",11.0,9.625,11.6999998093,0.0
1614970680203962087,,140121,,1614898652,838876322,"""0""",11.0,6.875,11.6999998093,0.0
1614970680247251033,,140122,,1614898652,888778093,"""0""",11.0,3.0,11.6999998093,0.0
1614970680288002967,,140123,,1614898652,938899395,"""0""",12.0,1.375,12.1499996185,0.0
1614970680344278097,,140124,,1614898652,988813249,"""0""",12.0,1.75,12.1499996185,0.0
1614970680397078037,,140125,,1614898653,39141687,"""0""",12.0,1.375,12.1499996185,0.0
1614970680449568986,,140126,,1614898653,88788093,"""0""",12.0,0.0,12.3000001907,0.0
1614970680505661010,,140127,,1614898653,139102051,"""0""",12.0,0.0,12.3000001907,0.0
1614970680569777011,,140128,,1614898653,188769551,"""0""",12.0,0.0,12.3000001907,0.0
1614970680602164030,,140129,,1614898653,238810593,"""0""",12.0,0.0,12.3000001907,0.0
1614970680645958900,,140130,,1614898653,288788926,"""0""",12.0,0.0,12.3000001907,0.0
1614970680690304994,,140131,,1614898653,338826062,"""0""",12.0,0.0,12.3000001907,0.0
1614970680768704891,,140132,,1614898653,388785489,"""0""",12.0,0.0,12.3999996185,0.0
1614970680806732892,,140133,,1614898653,439827155,"""0""",12.0,0.0,12.3999996185,0.0
1614970680853071928,,140134,,1614898653,488781218,"""0""",12.0,0.0,12.3999996185,0.0
1614970680893196105,,140135,,1614898653,538885853,"""0""",12.0,0.0,12.3500003815,0.0
1614970680941167116,,140136,,1614898653,588832780,"""0""",12.0,0.0,12.3500003815,0.0
1614970680985090970,,140137,,1614898653,638941582,"""0""",12.0,0.625,12.3500003815,0.0
1614970681061120033,,140138,,1614898653,688834239,"""0""",12.0,1.375,12.3500003815,0.0
1614970681104504108,,140139,,1614898653,738787363,"""0""",12.0,2.375,12.1000003815,0.0
1614970681143554925,,140140,,1614898653,788811791,"""0""",12.0,2.75,12.1000003815,0.0
1614970681200023889,,140141,,1614898653,838894811,"""0""",12.0,3.0,12.1000003815,0.0
1614970681239233016,,140142,,1614898653,888901686,"""0""",11.0,3.75,12.0500001907,0.0
1614970681293512105,,140143,,1614898653,938853822,"""0""",11.0,6.5,12.0500001907,0.0
1614970681348623037,,140144,,1614898653,988793457,"""0""",11.0,6.875,12.0500001907,0.0
1614970681425548076,,140145,,1614898654,38887259,"""0""",12.0,6.75,12.0,0.0
1614970681471299886,,140146,,1614898654,88894238,"""0""",12.0,7.125,12.0,0.0
1614970681518273115,,140147,,1614898654,138879290,"""0""",12.0,6.625,12.0,0.0
1614970681551434993,,140148,,1614898654,188878561,"""0""",12.0,6.75,11.8999996185,0.0
1614970681596425056,,140149,,1614898654,238801165,"""0""",12.0,6.875,11.8999996185,0.0
1614970681675178050,,140150,,1614898654,288783613,"""0""",12.0,6.625,11.8999996185,0.0
1614970681705498933,,140151,,1614898654,338859707,"""0""",11.0,6.875,11.9499998093,0.0
1614970681746134042,,140152,,1614898654,388750801,"""0""",11.0,6.875,11.9499998093,0.0
1614970681793777942,,140153,,1614898654,438882572,"""0""",11.0,6.75,11.9499998093,0.0
1614970681869340896,,140154,,1614898654,488822780,"""0""",11.0,6.875,11.9499998093,0.0
1614970681890413999,,140155,,1614898654,538801842,"""0""",11.0,6.875,11.9499998093,0.0
1614970681943227052,,140156,,1614898654,588785384,"""0""",11.0,6.875,11.9499998093,0.0
1614970682013897895,,140157,,1614898654,638849499,"""0""",11.0,6.75,11.9499998093,0.0
1614970682081073045,,140158,,1614898654,688772780,"""0""",12.0,6.5,11.8999996185,0.0
1614970682116348981,,140159,,1614898654,738801686,"""0""",12.0,6.625,11.8999996185,0.0
1614970682160753011,,140160,,1614898654,788775905,"""0""",12.0,6.75,11.8999996185,0.0
1614970682208348035,,140161,,1614898654,838796790,"""0""",12.0,6.75,11.9499998093,0.0
1614970682250268936,,140162,,1614898654,888788561,"""0""",12.0,6.625,11.9499998093,0.0
1614970682314021110,,140163,,1614898654,938804967,"""0""",12.0,6.125,11.9499998093,0.0
1614970682358426094,,140164,,1614898654,988766373,"""0""",11.0,6.5,12.0,0.0
1614970682406400918,,140165,,1614898655,38839603,"""0""",11.0,5.75,12.0,0.0
1614970682443587064,,140166,,1614898655,88983717,"""0""",11.0,5.5,12.0,0.0
1614970682493519067,,140167,,1614898655,138779915,"""0""",11.0,5.5,12.0,0.0
1614970682543819904,,140168,,1614898655,188794759,"""0""",11.0,5.125,12.0,0.0
1614970682600799083,,140169,,1614898655,238838040,"""0""",11.0,4.75,12.0,0.0
1614970682642946004,,140170,,1614898655,288874186,"""0""",11.0,5.125,12.0,0.0
1614970682702923059,,140171,,1614898655,338836738,"""0""",12.0,6.5,12.0,0.0
1614970682747066974,,140172,,1614898655,388788352,"""0""",12.0,6.625,12.0,0.0
1614970682792083978,,140173,,1614898655,438852988,"""0""",12.0,6.5,12.0,0.0
1614970682865741014,,140174,,1614898655,488831686,"""0""",12.0,6.75,12.0,0.0
1614970682911896944,,140175,,1614898655,538791009,"""0""",12.0,6.625,12.0,0.0
1614970682965590000,,140176,,1614898655,588831217,"""0""",12.0,6.5,12.0,0.0
1614970683015218019,,140177,,1614898655,638864707,"""0""",12.0,5.5,12.0,0.0
1614970683067248106,,140178,,1614898655,688830175,"""0""",12.0,5.125,12.0,0.0
1614970683114129066,,140179,,1614898655,738863144,"""0""",12.0,4.75,12.0,0.0
1614970683153805017,,140180,,1614898655,788777675,"""0""",11.0,4.75,12.0,0.0
1614970683218205928,,140181,,1614898655,838904967,"""0""",11.0,3.75,12.0,0.0
1614970683269247055,,140182,,1614898655,888967884,"""0""",11.0,3.0,12.0,0.0
1614970683319542884,,140183,,1614898655,938771738,"""0""",12.0,2.75,12.1000003815,0.0
1614970683348622083,,140184,,1614898655,988798873,"""0""",12.0,3.0,12.1000003815,0.0
1614970683388394117,,140185,,1614898656,38785904,"""0""",12.0,3.0,12.1000003815,0.0
1614970683439805030,,140186,,1614898656,88883092,"""0""",12.0,3.0,12.1000003815,0.0
1614970683522118091,,140187,,1614898656,138878144,"""0""",12.0,3.0,12.0500001907,0.0
1614970683547044992,,140188,,1614898656,188953092,"""0""",12.0,2.75,12.0500001907,0.0
1614970683595599889,,140189,,1614898656,238825175,"""0""",12.0,2.0,12.0500001907,0.0
1614970683651446104,,140190,,1614898656,288800123,"""0""",12.0,2.375,12.1000003815,0.0
1614970683686048030,,140191,,1614898656,338794446,"""0""",12.0,2.75,12.1000003815,0.0
1614970683744956016,,140192,,1614898656,389400696,"""0""",12.0,2.375,12.1000003815,0.0
1614970683798271894,,140193,,1614898656,438799237,"""0""",11.0,2.0,12.1000003815,0.0
1614970683839420080,,140194,,1614898656,488988196,"""0""",11.0,1.75,12.1000003815,0.0
1614970683898777961,,140195,,1614898656,538837362,"""0""",11.0,1.375,12.1000003815,0.0
1614970683959434986,,140196,,1614898656,588797206,"""0""",12.0,1.75,12.1000003815,0.0
1614970684004625082,,140197,,1614898656,638801477,"""0""",12.0,2.0,12.1000003815,0.0
1614970684046175003,,140198,,1614898656,688896685,"""0""",12.0,2.0,12.1000003815,0.0
1614970684096828937,,140199,,1614898656,740448977,"""0""",11.0,2.0,12.1000003815,0.0
1614970684142235994,,140200,,1614898656,788871269,"""0""",11.0,2.375,12.1000003815,0.0
1614970684186403989,,140201,,1614898656,838843560,"""0""",11.0,2.375,12.1000003815,0.0
1614970684240601062,,140202,,1614898656,888917935,"""0""",11.0,2.375,12.1000003815,0.0
1614970684298088073,,140203,,1614898656,938820904,"""0""",12.0,2.75,12.1499996185,0.0
1614970684348794937,,140204,,1614898656,988786269,"""0""",12.0,6.125,12.1499996185,0.0
1614970684416584014,,140205,,1614898657,38788560,"""0""",12.0,6.625,12.1499996185,0.0
1614970684447419881,,140206,,1614898657,88788196,"""0""",12.0,2.75,12.1000003815,0.0
1614970684498056888,,140207,,1614898657,138834237,"""0""",12.0,3.375,12.1000003815,0.0
1614970684560729980,,140208,,1614898657,188928143,"""0""",12.0,4.125,12.1000003815,0.0
1614970684592818021,,140209,,1614898657,238844289,"""0""",12.0,2.375,12.0500001907,0.0
1614970684661096096,,140210,,1614898657,288813091,"""0""",12.0,1.375,12.0500001907,0.0
1614970684711468935,,140211,,1614898657,338775070,"""0""",12.0,0.125,12.0500001907,0.0
1614970684755083084,,140212,,1614898657,388844810,"""0""",12.0,0.0,12.3000001907,0.0
1614970684805943965,,140213,,1614898657,438808195,"""0""",12.0,0.0,12.3000001907,0.0
1614970684843661069,,140214,,1614898657,488791060,"""0""",12.0,0.0,12.3000001907,0.0
1614970684896127939,,140215,,1614898657,538755852,"""0""",12.0,0.0,12.3000001907,0.0
1614970684949528932,,140216,,1614898657,588793456,"""0""",12.0,0.0,12.3000001907,0.0
1614970684996062994,,140217,,1614898657,638795487,"""0""",12.0,0.0,12.3000001907,0.0
1614970685055665016,,140218,,1614898657,688767674,"""0""",12.0,0.0,12.3000001907,0.0
1614970685095788002,,140219,,1614898657,738994966,"""0""",12.0,0.0,12.3000001907,0.0
1614970685148160934,,140220,,1614898657,788791841,"""0""",12.0,0.0,12.3000001907,0.0
1614970685190197944,,140221,,1614898657,838840539,"""0""",12.0,0.0,12.3000001907,0.0
1614970685257071018,,140222,,1614898657,888788299,"""0""",12.0,0.0,12.3000001907,0.0
1614970685316028118,,140223,,1614898657,938827987,"""0""",12.0,0.0,12.3000001907,0.0
1614970685369904041,,140224,,1614898657,988808091,"""0""",12.0,0.0,12.3000001907,0.0
1614970685408493995,,140225,,1614898658,38771112,"""0""",12.0,0.0,12.3000001907,0.0
1614970685446250915,,140226,,1614898658,88867310,"""0""",12.0,0.0,12.3000001907,0.0
1614970685487195968,,140227,,1614898658,138743508,"""0""",12.0,0.0,12.3000001907,0.0
1614970685560599088,,140228,,1614898658,188847310,"""0""",12.0,0.0,12.3500003815,0.0
1614970685602958917,,140229,,1614898658,238774497,"""0""",12.0,0.0,12.3500003815,0.0
1614970685642374992,,140230,,1614898658,288833872,"""0""",12.0,0.0,12.3500003815,0.0
1614970685688558101,,140231,,1614898658,338782101,"""0""",12.0,0.0,12.3500003815,0.0
1614970685744071960,,140232,,1614898658,388856685,"""0""",12.0,0.0,12.3500003815,0.0
1614970685802917957,,140233,,1614898658,438789810,"""0""",12.0,0.0,12.3500003815,0.0
1614970685847321033,,140234,,1614898658,488955643,"""0""",12.0,0.0,12.3500003815,0.0
1614970685919620037,,140235,,1614898658,538768299,"""0""",12.0,0.0,12.3500003815,0.0
1614970685963426113,,140236,,1614898658,588953143,"""0""",12.0,0.0,12.3500003815,0.0
1614970685991480112,,140237,,1614898658,638785747,"""0""",12.0,0.0,12.3500003815,0.0
1614970686039717912,,140238,,1614898658,688782205,"""0""",12.0,0.0,12.3500003815,0.0
1614970686088695049,,140239,,1614898658,738835070,"""0""",12.0,0.0,12.3500003815,0.0
1614970686152147054,,140240,,1614898658,788932987,"""0""",12.0,0.0,12.3500003815,0.0
1614970686196787118,,140241,,1614898658,838832049,"""0""",12.0,0.0,12.3500003815,0.0
1614970686237024068,,140242,,1614898658,888822726,"""0""",12.0,0.0,12.3500003815,0.0
1614970686295161008,,140243,,1614898658,938801580,"""0""",12.0,0.0,12.3500003815,0.0
1614970686340140104,,140244,,1614898658,988976372,"""0""",12.0,0.0,12.3500003815,0.0
1614970686397001028,,140245,,1614898659,38787205,"""0""",12.0,0.0,12.3500003815,0.0
1614970686443779945,,140246,,1614898659,88948039,"""0""",12.0,0.0,12.3500003815,0.0
1614970686496222019,,140247,,1614898659,138766789,"""0""",12.0,0.0,12.3500003815,0.0
1614970686561337947,,140248,,1614898659,188838403,"""0""",12.0,0.0,12.3500003815,0.0
1614970686599548101,,140249,,1614898659,238790226,"""0""",12.0,0.0,12.3500003815,0.0
1614970686643961906,,140250,,1614898659,288840278,"""0""",12.0,0.0,12.3500003815,0.0
1614970686697707891,,140251,,1614898659,338781684,"""0""",12.0,0.0,12.3500003815,0.0
1614970686738130092,,140252,,1614898659,388916372,"""0""",12.0,0.0,12.3500003815,0.0
1614970686803577899,,140253,,1614898659,438742101,"""0""",12.0,0.0,12.3500003815,0.0
1614970686843678951,,140254,,1614898659,489467361,"""0""",12.0,0.0,12.3500003815,0.0
1614970686890743017,,140255,,1614898659,538846632,"""0""",12.0,0.0,12.3500003815,0.0
1614970686945072889,,140256,,1614898659,588840070,"""0""",12.0,0.0,12.3500003815,0.0
1614970686994534015,,140257,,1614898659,638971320,"""0""",12.0,0.0,12.3500003815,0.0
1614970687038481950,,140258,,1614898659,689184340,"""0""",12.0,0.0,12.3500003815,0.0
1614970687094352006,,140259,,1614898659,738781372,"""0""",12.0,0.0,12.3500003815,0.0
1614970687140599966,,140260,,1614898659,788909132,"""0""",12.0,0.0,12.3500003815,0.0
1614970687187704086,,140261,,1614898659,838829861,"""0""",12.0,0.0,12.3500003815,0.0
1614970687251734972,,140262,,1614898659,888920330,"""0""",12.0,0.0,12.3500003815,0.0
1614970687290854930,,140263,,1614898659,938735538,"""0""",12.0,0.0,12.3500003815,0.0
1614970687339021921,,140264,,1614898659,989473507,"""0""",12.0,0.0,12.3500003815,0.0
1614970687400739908,,140265,,1614898660,38737569,"""0""",12.0,0.0,12.3500003815,0.0
1614970687444180011,,140266,,1614898660,90168246,"""0""",12.0,0.0,12.3500003815,0.0
1614970687493331909,,140267,,1614898660,138794080,"""0""",12.0,0.0,12.3500003815,0.0
1614970687536463975,,140268,,1614898660,188791215,"""0""",12.0,0.0,12.3500003815,0.0
1614970687596781969,,140269,,1614898660,238767361,"""0""",12.0,0.0,12.3500003815,0.0
1614970687640093088,,140270,,1614898660,288793819,"""0""",12.0,0.0,12.3500003815,0.0
1614970687716986894,,140271,,1614898660,338789184,"""0""",12.0,0.0,12.3500003815,0.0
1614970687767903089,,140272,,1614898660,388801111,"""0""",12.0,0.0,12.3500003815,0.0
1614970687812515974,,140273,,1614898660,438778715,"""0""",12.0,0.0,12.3500003815,0.0
1614970687846472024,,140274,,1614898660,488810590,"""0""",12.0,0.0,12.3500003815,0.0
1614970687892162084,,140275,,1614898660,538779132,"""0""",12.0,0.0,12.3500003815,0.0
1614970687941991090,,140276,,1614898660,588794132,"""0""",12.0,0.0,12.3500003815,0.0
1614970688005847930,,140277,,1614898660,638794132,"""0""",12.0,0.0,12.3500003815,0.0
1614970688036175012,,140278,,1614898660,688799184,"""0""",12.0,0.0,12.3500003815,0.0
1614970688087596893,,140279,,1614898660,738760850,"""0""",12.0,0.0,12.3500003815,0.0
1614970688144820928,,140280,,1614898660,788871475,"""0""",12.0,0.0,12.3500003815,0.0
1614970688188591957,,140281,,1614898660,838788090,"""0""",12.0,0.0,12.3500003815,0.0
1614970688244345903,,140282,,1614898660,888796944,"""0""",12.0,0.0,12.3500003815,0.0
1614970688289447069,,140283,,1614898660,938958767,"""0""",12.0,0.0,12.3500003815,0.0
1614970688347392082,,140284,,1614898660,988838142,"""0""",12.0,0.0,12.3500003815,0.0
1614970688400280952,,140285,,1614898661,38849757,"""0""",12.0,0.0,12.3500003815,0.0
1614970688459176063,,140286,,1614898661,88790850,"""0""",12.0,0.0,12.3500003815,0.0
1614970688484823942,,140287,,1614898661,138830538,"""0""",12.0,0.0,12.3500003815,0.0
1614970688546629905,,140288,,1614898661,188824548,"""0""",12.0,0.0,12.3500003815,0.0
1614970688586399078,,140289,,1614898661,238780434,"""0""",12.0,0.0,12.3500003815,0.0
1614970688642276048,,140290,,1614898661,288809756,"""0""",12.0,0.0,12.3500003815,0.0
1614970688687602996,,140291,,1614898661,338868975,"""0""",12.0,0.0,12.3500003815,0.0
1614970688747070074,,140292,,1614898661,388917673,"""0""",12.0,0.0,12.3500003815,0.0
1614970688790302991,,140293,,1614898661,438776267,"""0""",12.0,0.0,12.3500003815,0.0
1614970688842165946,,140294,,1614898661,488793715,"""0""",12.0,0.0,12.3500003815,0.0
1614970688896373987,,140295,,1614898661,538764965,"""0""",12.0,0.0,12.3500003815,0.0
1614970688942058086,,140296,,1614898661,588799027,"""0""",12.0,0.0,12.3500003815,0.0
1614970688995455980,,140297,,1614898661,638804079,"""0""",12.0,0.0,12.3500003815,0.0
1614970689045350074,,140298,,1614898661,689027621,"""0""",12.0,0.0,12.3500003815,0.0
1614970689096600055,,140299,,1614898661,738781215,"""0""",12.0,0.0,12.3500003815,0.0
1614970689151532888,,140300,,1614898661,788786006,"""0""",12.0,0.0,12.3500003815,0.0
1614970689257625102,,140301,,1614898661,838823975,"""0""",12.0,0.0,12.3500003815,0.0
1614970689257764101,,140302,,1614898661,888787100,"""0""",12.0,0.0,12.3500003815,0.0
1614970689300467967,,140303,,1614898661,938816735,"""0""",12.0,0.0,12.3500003815,0.0
1614970689337913036,,140304,,1614898661,988789392,"""0""",12.0,0.0,12.3500003815,0.0
1614970689391463041,,140305,,1614898662,38799756,"""0""",12.0,0.0,12.3500003815,0.0
1614970689440479040,,140306,,1614898662,88799496,"""0""",12.0,0.0,12.3500003815,0.0
1614970689495420932,,140307,,1614898662,138788194,"""0""",12.0,0.0,12.3500003815,0.0
1614970689550299882,,140308,,1614898662,188787152,"""0""",12.0,0.0,12.3500003815,0.0
1614970689592602968,,140309,,1614898662,238813975,"""0""",12.0,0.0,12.3500003815,0.0
1614970689638647079,,140310,,1614898662,288790902,"""0""",12.0,0.0,12.3500003815,0.0
1614970689696541070,,140311,,1614898662,338767881,"""0""",12.0,0.0,12.3500003815,0.0
1614970689736089944,,140312,,1614898662,388790746,"""0""",12.0,0.0,12.3500003815,0.0
1614970689822030067,,140313,,1614898662,438789027,"""0""",12.0,0.0,12.3500003815,0.0
1614970689863348007,,140314,,1614898662,488790121,"""0""",12.0,0.0,12.3500003815,0.0
1614970689886885881,,140315,,1614898662,538770173,"""0""",12.0,0.0,12.3500003815,0.0
1614970689940524101,,140316,,1614898662,588900225,"""0""",12.0,0.0,12.3500003815,0.0
1614970689993855953,,140317,,1614898662,638807777,"""0""",12.0,0.0,12.3500003815,0.0
1614970690044080972,,140318,,1614898662,688844027,"""0""",12.0,0.0,12.3500003815,0.0
1614970690118741035,,140319,,1614898662,738858766,"""0""",12.0,0.0,12.3500003815,0.0
1614970690154730081,,140320,,1614898662,788778818,"""0""",12.0,0.0,12.3500003815,0.0
1614970690199645042,,140321,,1614898662,838779391,"""0""",12.0,0.0,12.3500003815,0.0
1614970690244729042,,140322,,1614898662,888799443,"""0""",12.0,0.0,12.3500003815,0.0
1614970690299839973,,140323,,1614898662,938790797,"""0""",12.0,0.0,12.3500003815,0.0
1614970690350579977,,140324,,1614898662,988831266,"""0""",12.0,0.0,12.3500003815,0.0
1614970690413321971,,140325,,1614898663,38886006,"""0""",12.0,0.0,12.3500003815,0.0
1614970690571358919,,140326,,1614898663,88804704,"""0""",12.0,0.0,12.3500003815,0.0
1614970690571611881,,140327,,1614898663,138862412,"""0""",12.0,0.0,12.3500003815,0.0
1614970690571635007,,140328,,1614898663,188821422,"""0""",12.0,0.0,12.3500003815,0.0
1614970690613349914,,140329,,1614898663,238852672,"""0""",12.0,0.0,12.3500003815,0.0
1614970690651304960,,140330,,1614898663,288870589,"""0""",12.0,0.0,12.3500003815,0.0
1614970690708441019,,140331,,1614898663,338795693,"""0""",12.0,0.0,12.3500003815,0.0
1614970690748145103,,140332,,1614898663,388850224,"""0""",12.0,0.0,12.3500003815,0.0
1614970690796825885,,140333,,1614898663,438782047,"""0""",12.0,0.0,12.3500003815,0.0
1614970690867934942,,140334,,1614898663,488884183,"""0""",12.0,0.0,12.3500003815,0.0
1614970690945979118,,140335,,1614898663,538912568,"""0""",12.0,0.0,12.3500003815,0.0
1614970691058820009,,140336,,1614898663,588746995,"""0""",12.0,0.0,12.3500003815,0.0
1614970691058929920,,140337,,1614898663,638802308,"""0""",12.0,0.0,12.3500003815,0.0
1614970691124476909,,140338,,1614898663,688791058,"""0""",12.0,0.0,12.3500003815,0.0
1614970691124511003,,140339,,1614898663,738813610,"""0""",12.0,0.0,12.3500003815,0.0
1614970691152579069,,140340,,1614898663,788827412,"""0""",12.0,0.0,12.3500003815,0.0
1614970691204557895,,140341,,1614898663,838796318,"""0""",12.0,0.0,12.3500003815,0.0
1614970691304614067,,140342,,1614898663,888859755,"""0""",12.0,0.0,12.3500003815,0.0
1614970691304728984,,140343,,1614898663,938851110,"""0""",12.0,0.0,12.3500003815,0.0
1614970691351393938,,140344,,1614898663,988961630,"""0""",12.0,0.0,12.3500003815,0.0
1614970691394176959,,140345,,1614898664,38832776,"""0""",12.0,0.0,12.3500003815,0.0
1614970691506637096,,140346,,1614898664,88776474,"""0""",12.0,0.0,12.3500003815,0.0
1614970691506776094,,140347,,1614898664,138839651,"""0""",12.0,0.0,12.3500003815,0.0
1614970691541213035,,140348,,1614898664,188833245,"""0""",12.0,0.0,12.3500003815,0.0
1614970691738745927,,140349,,1614898664,238964599,"""0""",12.0,0.0,12.3500003815,0.0
1614970691738869905,,140350,,1614898664,288759495,"""0""",12.0,0.0,12.3500003815,0.0
1614970691738929033,,140351,,1614898664,338861474,"""0""",12.0,0.0,12.3500003815,0.0
1614970691738945007,,140352,,1614898664,388797099,"""0""",12.0,0.0,12.3500003815,0.0
1614970691844659090,,140353,,1614898664,438928193,"""0""",12.0,0.0,12.3500003815,0.0
1614970691902946949,,140354,,1614898664,488793245,"""0""",12.0,0.0,12.3500003815,0.0
1614970691903099060,,140355,,1614898664,538903609,"""0""",12.0,0.0,12.3500003815,0.0
1614970691941504001,,140356,,1614898664,588793818,"""0""",12.0,0.0,12.3500003815,0.0
1614970691992863893,,140357,,1614898664,638885224,"""0""",12.0,0.0,12.3500003815,0.0
1614970692044629096,,140358,,1614898664,688883713,"""0""",12.0,0.0,12.3500003815,0.0
1614970692093750953,,140359,,1614898664,738867307,"""0""",12.0,0.0,12.3500003815,0.0
1614970692160542011,,140360,,1614898664,788877359,"""0""",12.0,0.0,12.3500003815,0.0
1614970692211205959,,140361,,1614898664,838806318,"""0""",12.0,0.0,12.3500003815,0.0
1614970692270884990,,140362,,1614898664,888747411,"""0""",12.0,0.0,12.3500003815,0.0
1614970692316323041,,140363,,1614898664,938799755,"""0""",12.0,0.0,12.3500003815,0.0
1614970692378573894,,140364,,1614898664,988894755,"""0""",12.0,0.0,12.3500003815,0.0
1614970692431793928,,140365,,1614898665,38802463,"""0""",12.0,0.0,12.3500003815,0.0
1614970692503173112,,140366,,1614898665,88800588,"""0""",12.0,0.0,12.3500003815,0.0
1614970692566148042,,140367,,1614898665,138874234,"""0""",12.0,0.0,12.3500003815,0.0
1614970692566587924,,140368,,1614898665,188783870,"""0""",12.0,0.0,12.3500003815,0.0
1614970692614325046,,140369,,1614898665,238809442,"""0""",12.0,0.0,12.3500003815,0.0
1614970692659810066,,140370,,1614898665,288770692,"""0""",12.0,0.0,12.3500003815,0.0
1614970692704649925,,140371,,1614898665,338870588,"""0""",12.0,0.0,12.3500003815,0.0
1614970692753658056,,140372,,1614898665,388798453,"""0""",12.0,0.0,12.3500003815,0.0
1614970692827959060,,140373,,1614898665,438816786,"""0""",12.0,0.0,12.3500003815,0.0
1614970692891670942,,140374,,1614898665,488821526,"""0""",12.0,0.0,12.3500003815,0.0
1614970692938718080,,140375,,1614898665,538871994,"""0""",12.0,0.0,12.3500003815,0.0
1614970692970118999,,140376,,1614898665,589012776,"""0""",12.0,0.0,12.3500003815,0.0
1614970693023956060,,140377,,1614898665,638800953,"""0""",12.0,0.0,12.3500003815,0.0
1614970693095659971,,140378,,1614898665,688789703,"""0""",12.0,0.0,12.3500003815,0.0
1614970693150146961,,140379,,1614898665,738799859,"""0""",12.0,0.0,12.3500003815,0.0
1614970693201699018,,140380,,1614898665,788765692,"""0""",12.0,0.0,12.3500003815,0.0
1614970693201811075,,140381,,1614898665,838859026,"""0""",12.0,0.0,12.3500003815,0.0
1614970693252501010,,140382,,1614898665,888758140,"""0""",12.0,0.0,12.3500003815,0.0
1614970693314119100,,140383,,1614898665,938863140,"""0""",12.0,0.0,12.3500003815,0.0
1614970693351448059,,140384,,1614898665,988764182,"""0""",12.0,0.0,12.3500003815,0.0
1614970693412118911,,140385,,1614898666,38810536,"""0""",12.0,0.0,12.3500003815,0.0
