rosbagTimestamp,header,seq,stamp,secs,nsecs,frame_id,Temperature,OutputCurrent,BusVoltage,ClosedLoopError
1614968145628395080,,89438,,1614896118,688779633,"""0""",12.0,0.0,12.3999996185,0.0
1614968145666874885,,89439,,1614896118,738786091,"""0""",12.0,0.0,12.3999996185,0.0
1614968145724421024,,89440,,1614896118,788798539,"""0""",12.0,0.0,12.3999996185,0.0
1614968145768603086,,89441,,1614896118,838841351,"""0""",12.0,0.0,12.3999996185,0.0
1614968145825728893,,89442,,1614896118,888842393,"""0""",12.0,0.0,12.3999996185,0.0
1614968145870687007,,89443,,1614896118,938797341,"""0""",12.0,0.0,12.3999996185,0.0
1614968145932714939,,89444,,1614896118,988976560,"""0""",12.0,0.0,12.3999996185,0.0
1614968145969155073,,89445,,1614896119,38881039,"""0""",12.0,0.0,12.3999996185,0.0
1614968146029618978,,89446,,1614896119,88794268,"""0""",12.0,0.0,12.3999996185,0.0
1614968146074826955,,89447,,1614896119,138842497,"""0""",12.0,0.0,12.3999996185,0.0
1614968146124834060,,89448,,1614896119,188772185,"""0""",12.0,0.0,12.3999996185,0.0
1614968146184560060,,89449,,1614896119,238796403,"""0""",12.0,0.0,12.3999996185,0.0
1614968146227066993,,89450,,1614896119,288783070,"""0""",12.0,0.0,12.3999996185,0.0
1614968146287646055,,89451,,1614896119,338828903,"""0""",12.0,0.0,12.3999996185,0.0
1614968146333753108,,89452,,1614896119,388831559,"""0""",12.0,0.0,12.3999996185,0.0
1614968146383192062,,89453,,1614896119,438873591,"""0""",12.0,0.0,12.3999996185,0.0
1614968146427244901,,89454,,1614896119,488810778,"""0""",12.0,0.0,12.3999996185,0.0
1614968146494415998,,89455,,1614896119,538879893,"""0""",12.0,0.0,12.3999996185,0.0
1614968146525648117,,89456,,1614896119,588777653,"""0""",12.0,0.0,12.3999996185,0.0
1614968146584811925,,89457,,1614896119,638890414,"""0""",12.0,0.0,12.3999996185,0.0
1614968146631704092,,89458,,1614896119,688773591,"""0""",12.0,0.0,12.3999996185,0.0
1614968146686229944,,89459,,1614896119,738754476,"""0""",12.0,0.0,12.3999996185,0.0
1614968146748294115,,89460,,1614896119,788827705,"""0""",12.0,0.0,12.3999996185,0.0
1614968146785969018,,89461,,1614896119,838859372,"""0""",12.0,0.0,12.3999996185,0.0
1614968146831020116,,89462,,1614896119,888901143,"""0""",12.0,0.0,12.3999996185,0.0
1614968146884763002,,89463,,1614896119,938794320,"""0""",12.0,0.0,12.3999996185,0.0
1614968146938436031,,89464,,1614896119,988790101,"""0""",12.0,0.0,12.3999996185,0.0
1614968146985971927,,89465,,1614896120,38840101,"""0""",12.0,0.0,12.3999996185,0.0
1614968147037714958,,89466,,1614896120,88768174,"""0""",12.0,0.0,12.3999996185,0.0
1614968147094095945,,89467,,1614896120,138838174,"""0""",12.0,0.0,12.3999996185,0.0
1614968147126633882,,89468,,1614896120,188862392,"""0""",12.0,0.0,12.3999996185,0.0
1614968147178004026,,89469,,1614896120,238860674,"""0""",12.0,0.0,12.3999996185,0.0
1614968147232959032,,89470,,1614896120,288766351,"""0""",12.0,0.0,12.3999996185,0.0
1614968147289161920,,89471,,1614896120,338891351,"""0""",12.0,0.0,12.3999996185,0.0
1614968147345040082,,89472,,1614896120,388802340,"""0""",12.0,0.0,12.3999996185,0.0
1614968147390223026,,89473,,1614896120,439016976,"""0""",12.0,0.0,12.3999996185,0.0
1614968147434576034,,89474,,1614896120,488772913,"""0""",12.0,0.0,12.3999996185,0.0
1614968147487135887,,89475,,1614896120,538784788,"""0""",12.0,0.0,12.3999996185,0.0
1614968147538259983,,89476,,1614896120,588888382,"""0""",12.0,0.0,12.3999996185,0.0
1614968147591237068,,89477,,1614896120,639105726,"""0""",12.0,0.0,12.3999996185,0.0
1614968147632004976,,89478,,1614896120,688837340,"""0""",12.0,0.0,12.3999996185,0.0
1614968147689235925,,89479,,1614896120,738809528,"""0""",12.0,0.0,12.3999996185,0.0
1614968147731770038,,89480,,1614896120,788780986,"""0""",12.0,0.0,12.3999996185,0.0
1614968147779216051,,89481,,1614896120,838852913,"""0""",12.0,0.0,12.3999996185,0.0
1614968147838470935,,89482,,1614896120,888781194,"""0""",12.0,0.0,12.3999996185,0.0
1614968147892734050,,89483,,1614896120,938863330,"""0""",12.0,0.0,12.3999996185,0.0
1614968147950576066,,89484,,1614896120,988860517,"""0""",12.0,0.0,12.3999996185,0.0
1614968147989180088,,89485,,1614896121,39050673,"""0""",12.0,0.0,12.3999996185,0.0
1614968148033698081,,89486,,1614896121,88789840,"""0""",12.0,0.0,12.3999996185,0.0
1614968148084846019,,89487,,1614896121,138874215,"""0""",12.0,0.0,12.3999996185,0.0
1614968148138509988,,89488,,1614896121,188778434,"""0""",12.0,0.0,12.3999996185,0.0
1614968148185216903,,89489,,1614896121,238789944,"""0""",12.0,0.0,12.3999996185,0.0
1614968148246444940,,89490,,1614896121,288800100,"""0""",12.0,0.0,12.3999996185,0.0
1614968148290292978,,89491,,1614896121,338850413,"""0""",12.0,0.0,12.3999996185,0.0
1614968148336396932,,89492,,1614896121,388783955,"""0""",12.0,0.0,12.3999996185,0.0
1614968148385416030,,89493,,1614896121,438790309,"""0""",12.0,0.0,12.3999996185,0.0
1614968148437156915,,89494,,1614896121,488811090,"""0""",12.0,0.0,12.3999996185,0.0
1614968148485980033,,89495,,1614896121,538783486,"""0""",12.0,0.0,12.3999996185,0.0
1614968148549403905,,89496,,1614896121,588790829,"""0""",12.0,0.0,12.3999996185,0.0
1614968148583666086,,89497,,1614896121,638876038,"""0""",12.0,0.0,12.3999996185,0.0
1614968148633500099,,89498,,1614896121,688742027,"""0""",12.0,0.0,12.3999996185,0.0
1614968148693715095,,89499,,1614896121,738829371,"""0""",12.0,0.0,12.3999996185,0.0
1614968148737935066,,89500,,1614896121,788923329,"""0""",12.0,0.0,12.3999996185,0.0
1614968148789758920,,89501,,1614896121,838783746,"""0""",12.0,0.0,12.3999996185,0.0
1614968148852932929,,89502,,1614896121,888794006,"""0""",12.0,0.0,12.3999996185,0.0
1614968148888456106,,89503,,1614896121,938781402,"""0""",12.0,0.0,12.3999996185,0.0
1614968148934665918,,89504,,1614896121,988776767,"""0""",12.0,0.0,12.3999996185,0.0
1614968148985392093,,89505,,1614896122,38799215,"""0""",12.0,0.0,12.3999996185,0.0
1614968149038899898,,89506,,1614896122,88838277,"""0""",12.0,0.0,12.3999996185,0.0
1614968149083472967,,89507,,1614896122,138865360,"""0""",12.0,0.0,12.3999996185,0.0
1614968149153116941,,89508,,1614896122,188756090,"""0""",12.0,0.0,12.3999996185,0.0
1614968149202107906,,89509,,1614896122,238804944,"""0""",12.0,0.0,12.3999996185,0.0
1614968149240478992,,89510,,1614896122,288761402,"""0""",12.0,0.0,12.3999996185,0.0
1614968149284815073,,89511,,1614896122,338776975,"""0""",12.0,0.0,12.3999996185,0.0
1614968149341079950,,89512,,1614896122,388861662,"""0""",12.0,0.0,12.3999996185,0.0
1614968149386471033,,89513,,1614896122,438811037,"""0""",12.0,0.0,12.3999996185,0.0
1614968149445722103,,89514,,1614896122,488802808,"""0""",12.0,0.0,12.3999996185,0.0
1614968149487622976,,89515,,1614896122,538858537,"""0""",12.0,0.0,12.3999996185,0.0
1614968149538266897,,89516,,1614896122,588905048,"""0""",12.0,0.0,12.3999996185,0.0
1614968149594436883,,89517,,1614896122,638847027,"""0""",12.0,0.0,12.3999996185,0.0
1614968149645448923,,89518,,1614896122,688845829,"""0""",12.0,0.0,12.3999996185,0.0
1614968149689121961,,89519,,1614896122,738782183,"""0""",12.0,0.0,12.3999996185,0.0
1614968149757667064,,89520,,1614896122,788820881,"""0""",12.0,0.0,12.3999996185,0.0
1614968149812577009,,89521,,1614896122,838794579,"""0""",12.0,0.0,12.3999996185,0.0
1614968149842310905,,89522,,1614896122,888868381,"""0""",12.0,0.0,12.3999996185,0.0
1614968149892745018,,89523,,1614896122,938836558,"""0""",12.0,0.0,12.3999996185,0.0
1614968149948015928,,89524,,1614896122,988774214,"""0""",12.0,0.0,12.3999996185,0.0
1614968150011939048,,89525,,1614896123,38791818,"""0""",12.0,0.0,12.3999996185,0.0
1614968150076984882,,89526,,1614896123,88786246,"""0""",12.0,0.0,12.3999996185,0.0
1614968150133596897,,89527,,1614896123,138822443,"""0""",12.0,0.0,12.3999996185,0.0
1614968150133713006,,89528,,1614896123,188785204,"""0""",12.0,0.0,12.3999996185,0.0
1614968150188456058,,89529,,1614896123,238778745,"""0""",12.0,0.0,12.3999996185,0.0
1614968150242747068,,89530,,1614896123,288797964,"""0""",12.0,0.0,12.3999996185,0.0
1614968150291657924,,89531,,1614896123,338805881,"""0""",12.0,0.0,12.3999996185,0.0
1614968150351591110,,89532,,1614896123,388805777,"""0""",12.0,0.0,12.3999996185,0.0
1614968150389494895,,89533,,1614896123,439502652,"""0""",12.0,0.0,12.3999996185,0.0
1614968150442394971,,89534,,1614896123,488960308,"""0""",12.0,0.0,12.3999996185,0.0
1614968150486366033,,89535,,1614896123,538825672,"""0""",12.0,0.0,12.3999996185,0.0
1614968150536802053,,89536,,1614896123,588805464,"""0""",12.0,0.0,12.3999996185,0.0
1614968150586265087,,89537,,1614896123,638862652,"""0""",12.0,0.0,12.3999996185,0.0
1614968150664426088,,89538,,1614896123,688794891,"""0""",12.0,0.0,12.3999996185,0.0
1614968150702517986,,89539,,1614896123,738807756,"""0""",12.0,0.0,12.3999996185,0.0
1614968150741331100,,89540,,1614896123,788802391,"""0""",12.0,0.0,12.3999996185,0.0
1614968150787261962,,89541,,1614896123,838822495,"""0""",12.0,0.0,12.3999996185,0.0
1614968150840943098,,89542,,1614896123,888815933,"""0""",12.0,0.0,12.3999996185,0.0
1614968150889950990,,89543,,1614896123,938906401,"""0""",12.0,0.0,12.3999996185,0.0
1614968150941101074,,89544,,1614896123,988759474,"""0""",12.0,0.0,12.3999996185,0.0
1614968150989520072,,89545,,1614896124,38884214,"""0""",12.0,0.0,12.3999996185,0.0
1614968151040805101,,89546,,1614896124,88759474,"""0""",12.0,0.0,12.3999996185,0.0
1614968151085469961,,89547,,1614896124,138856349,"""0""",12.0,0.0,12.3999996185,0.0
1614968151139250993,,89548,,1614896124,188832547,"""0""",12.0,0.0,12.3999996185,0.0
1614968151189184904,,89549,,1614896124,238821245,"""0""",12.0,0.0,12.3999996185,0.0
1614968151261189937,,89550,,1614896124,288763745,"""0""",12.0,0.0,12.3999996185,0.0
1614968151291033983,,89551,,1614896124,338816818,"""0""",12.0,0.0,12.3999996185,0.0
1614968151339426994,,89552,,1614896124,388822703,"""0""",12.0,0.0,12.3999996185,0.0
1614968151391957998,,89553,,1614896124,438789630,"""0""",12.0,0.0,12.3999996185,0.0
1614968151438944101,,89554,,1614896124,488977912,"""0""",12.0,0.0,12.3999996185,0.0
1614968151497257947,,89555,,1614896124,538802703,"""0""",12.0,0.0,12.3999996185,0.0
1614968151556750059,,89556,,1614896124,588775412,"""0""",12.0,0.0,12.3999996185,0.0
1614968151604207038,,89557,,1614896124,638807964,"""0""",12.0,0.0,12.3999996185,0.0
1614968151664077043,,89558,,1614896124,688799526,"""0""",12.0,0.0,12.3999996185,0.0
1614968151695158004,,89559,,1614896124,738786557,"""0""",12.0,0.0,12.3999996185,0.0
1614968151741312026,,89560,,1614896124,788800307,"""0""",12.0,0.0,12.3999996185,0.0
1614968151798185110,,89561,,1614896124,838831974,"""0""",12.0,5.0,12.3999996185,0.0
1614968151858989953,,89562,,1614896124,888792339,"""0""",12.0,2.75,12.3999996185,0.0
1614968151928850889,,89563,,1614896124,938828172,"""0""",12.0,1.75,12.3999996185,0.0
1614968151951075077,,89564,,1614896124,989025411,"""0""",12.0,2.375,12.25,0.0
1614968151999830961,,89565,,1614896125,38813797,"""0""",12.0,3.875,12.25,0.0
1614968152039834022,,89566,,1614896125,88897807,"""0""",12.0,3.875,12.25,0.0
1614968152091933965,,89567,,1614896125,138765464,"""0""",12.0,1.375,12.25,0.0
1614968152135561943,,89568,,1614896125,188777911,"""0""",12.0,1.0,12.25,0.0
1614968152197185039,,89569,,1614896125,238807234,"""0""",12.0,0.625,12.25,0.0
1614968152241480112,,89570,,1614896125,288788693,"""0""",12.0,0.375,12.3500003815,0.0
1614968152292088031,,89571,,1614896125,339273068,"""0""",12.0,0.375,12.3500003815,0.0
1614968152345401048,,89572,,1614896125,388811609,"""0""",12.0,0.375,12.3500003815,0.0
1614968152400023937,,89573,,1614896125,438888484,"""0""",12.0,0.375,12.3500003815,0.0
1614968152465970039,,89574,,1614896125,488777234,"""0""",12.0,0.625,12.3500003815,0.0
1614968152502361059,,89575,,1614896125,538883484,"""0""",12.0,0.375,12.3500003815,0.0
1614968152560060977,,89576,,1614896125,588825307,"""0""",12.0,0.375,12.3500003815,0.0
1614968152610470056,,89577,,1614896125,638951817,"""0""",12.0,2.0,12.3500003815,0.0
1614968152659557104,,89578,,1614896125,688894942,"""0""",12.0,3.875,12.3500003815,0.0
1614968152710058927,,89579,,1614896125,738876661,"""0""",12.0,2.375,12.3500003815,0.0
1614968152755841016,,89580,,1614896125,788849578,"""0""",12.0,2.0,12.25,0.0
1614968152805010080,,89581,,1614896125,838863744,"""0""",12.0,1.375,12.25,0.0
1614968152845670938,,89582,,1614896125,888904994,"""0""",12.0,1.375,12.25,0.0
1614968152889033079,,89583,,1614896125,938874630,"""0""",12.0,2.0,12.25,0.0
1614968152939505100,,89584,,1614896125,988786453,"""0""",12.0,1.75,12.25,0.0
1614968153001657009,,89585,,1614896126,38823380,"""0""",12.0,0.625,12.25,0.0
1614968153043077945,,89586,,1614896126,88801453,"""0""",12.0,0.625,12.3000001907,0.0
1614968153094314098,,89587,,1614896126,138814526,"""0""",12.0,0.625,12.3000001907,0.0
1614968153141900062,,89588,,1614896126,188812286,"""0""",12.0,0.625,12.3000001907,0.0
1614968153193154096,,89589,,1614896126,238866296,"""0""",12.0,0.625,12.3500003815,0.0
1614968153239829063,,89590,,1614896126,288843276,"""0""",12.0,0.375,12.3500003815,0.0
1614968153288763999,,89591,,1614896126,338831401,"""0""",12.0,0.375,12.3500003815,0.0
1614968153349421977,,89592,,1614896126,388776921,"""0""",12.0,0.375,12.3500003815,0.0
1614968153398448944,,89593,,1614896126,439381921,"""0""",12.0,0.625,12.3500003815,0.0
1614968153443674087,,89594,,1614896126,488791036,"""0""",12.0,0.375,12.3500003815,0.0
1614968153488440036,,89595,,1614896126,538806453,"""0""",12.0,0.0,12.3500003815,0.0
1614968153545101881,,89596,,1614896126,590528328,"""0""",12.0,0.375,12.3999996185,0.0
1614968153629494905,,89597,,1614896126,638841557,"""0""",12.0,0.375,12.3999996185,0.0
1614968153668129920,,89598,,1614896126,688785046,"""0""",12.0,0.375,12.3999996185,0.0
1614968153702225923,,89599,,1614896126,738925307,"""0""",12.0,0.0,12.3999996185,0.0
1614968153743937015,,89600,,1614896126,788811452,"""0""",12.0,0.0,12.3999996185,0.0
1614968153788439989,,89601,,1614896126,839122702,"""0""",12.0,0.375,12.3999996185,0.0
1614968153844782114,,89602,,1614896126,888776140,"""0""",12.0,0.0,12.3999996185,0.0
1614968153897486925,,89603,,1614896126,938818275,"""0""",12.0,0.0,12.3999996185,0.0
1614968153964704990,,89604,,1614896126,988724942,"""0""",12.0,0.375,12.3999996185,0.0
1614968154006660938,,89605,,1614896127,38791557,"""0""",12.0,0.375,12.3500003815,0.0
1614968154046595096,,89606,,1614896127,88778588,"""0""",12.0,0.375,12.3500003815,0.0
1614968154096591949,,89607,,1614896127,138781192,"""0""",12.0,0.375,12.3500003815,0.0
1614968154155270099,,89608,,1614896127,188760619,"""0""",12.0,0.375,12.3500003815,0.0
1614968154188086032,,89609,,1614896127,238817702,"""0""",12.0,0.375,12.3500003815,0.0
1614968154252744913,,89610,,1614896127,288797390,"""0""",12.0,0.625,12.3500003815,0.0
1614968154287247896,,89611,,1614896127,338968483,"""0""",12.0,0.625,12.3500003815,0.0
1614968154342586040,,89612,,1614896127,388928431,"""0""",12.0,0.375,12.3500003815,0.0
1614968154393783092,,89613,,1614896127,439205931,"""0""",12.0,0.375,12.3500003815,0.0
1614968154449352979,,89614,,1614896127,488799161,"""0""",12.0,1.0,12.3500003815,0.0
1614968154510422945,,89615,,1614896127,539006348,"""0""",12.0,1.375,12.25,0.0
1614968154572992086,,89616,,1614896127,588752442,"""0""",12.0,0.625,12.25,0.0
1614968154617713928,,89617,,1614896127,638768900,"""0""",12.0,0.375,12.25,0.0
1614968154661463975,,89618,,1614896127,688812702,"""0""",12.0,0.625,12.3500003815,0.0
1614968154707050085,,89619,,1614896127,739150463,"""0""",12.0,1.0,12.3500003815,0.0
1614968154775852918,,89620,,1614896127,788766817,"""0""",12.0,0.625,12.3500003815,0.0
1614968154825392007,,89621,,1614896127,838776817,"""0""",12.0,0.375,12.3500003815,0.0
1614968154864624977,,89622,,1614896127,888835671,"""0""",12.0,0.375,12.3500003815,0.0
1614968154904851913,,89623,,1614896127,938751712,"""0""",12.0,0.375,12.3500003815,0.0
1614968154955054044,,89624,,1614896127,988781817,"""0""",12.0,0.375,12.3500003815,0.0
1614968155001394987,,89625,,1614896128,38827025,"""0""",12.0,0.375,12.3500003815,0.0
1614968155058540105,,89626,,1614896128,88857129,"""0""",12.0,0.625,12.3500003815,0.0
1614968155091763973,,89627,,1614896128,139840358,"""0""",12.0,1.0,12.3500003815,0.0
1614968155165913105,,89628,,1614896128,188825410,"""0""",12.0,1.0,12.3000001907,0.0
1614968155198317050,,89629,,1614896128,238896660,"""0""",12.0,1.0,12.3000001907,0.0
1614968155235810041,,89630,,1614896128,289261452,"""0""",12.0,1.0,12.3000001907,0.0
1614968155288383960,,89631,,1614896128,338790879,"""0""",12.0,1.0,12.3000001907,0.0
1614968155340080976,,89632,,1614896128,388832181,"""0""",12.0,1.0,12.3000001907,0.0
1614968155423732042,,89633,,1614896128,438905983,"""0""",12.0,1.75,12.3000001907,0.0
1614968155479985952,,89634,,1614896128,488897285,"""0""",12.0,2.0,12.25,0.0
1614968155534293889,,89635,,1614896128,538858171,"""0""",12.0,1.375,12.25,0.0
1614968155576636075,,89636,,1614896128,588957441,"""0""",12.0,1.0,12.25,0.0
1614968155615623950,,89637,,1614896128,638816608,"""0""",12.0,1.75,12.25,0.0
1614968155648618936,,89638,,1614896128,688928431,"""0""",12.0,2.0,12.25,0.0
1614968155694396972,,89639,,1614896128,738768900,"""0""",12.0,1.375,12.25,0.0
1614968155760730028,,89640,,1614896128,788788535,"""0""",12.0,1.0,12.3000001907,0.0
1614968155795926094,,89641,,1614896128,838789733,"""0""",12.0,0.625,12.3000001907,0.0
1614968155842005014,,89642,,1614896128,888749472,"""0""",12.0,0.375,12.3000001907,0.0
1614968155902385950,,89643,,1614896128,938790306,"""0""",12.0,0.625,12.3000001907,0.0
1614968155946028947,,89644,,1614896128,988789993,"""0""",12.0,1.0,12.3000001907,0.0
1614968155996901988,,89645,,1614896129,38910566,"""0""",12.0,0.625,12.3000001907,0.0
1614968156046611070,,89646,,1614896129,88802337,"""0""",12.0,0.625,12.3000001907,0.0
1614968156112309932,,89647,,1614896129,138836556,"""0""",12.0,0.625,12.3500003815,0.0
1614968156166685104,,89648,,1614896129,188823899,"""0""",12.0,1.375,12.3500003815,0.0
1614968156211139917,,89649,,1614896129,238765618,"""0""",12.0,1.375,12.3500003815,0.0
1614968156262574911,,89650,,1614896129,288761295,"""0""",12.0,1.0,12.3000001907,0.0
1614968156305362939,,89651,,1614896129,338801712,"""0""",12.0,1.0,12.3000001907,0.0
1614968156357948064,,89652,,1614896129,388826972,"""0""",12.0,1.75,12.3000001907,0.0
1614968156408478975,,89653,,1614896129,438885774,"""0""",12.0,1.375,12.25,0.0
1614968156449727058,,89654,,1614896129,488779681,"""0""",12.0,1.0,12.25,0.0
1614968156492095947,,89655,,1614896129,538826191,"""0""",12.0,0.625,12.25,0.0
1614968156537942886,,89656,,1614896129,588850045,"""0""",12.0,0.625,12.3500003815,0.0
1614968156594600915,,89657,,1614896129,638793170,"""0""",12.0,0.625,12.3500003815,0.0
1614968156635731935,,89658,,1614896129,688780931,"""0""",12.0,0.625,12.3500003815,0.0
1614968156702642917,,89659,,1614896129,738762962,"""0""",12.0,1.375,12.3500003815,0.0
1614968156736690044,,89660,,1614896129,788925930,"""0""",12.0,1.375,12.25,0.0
1614968156788026094,,89661,,1614896129,838790774,"""0""",12.0,1.375,12.25,0.0
1614968156837042093,,89662,,1614896129,888877597,"""0""",12.0,1.375,12.25,0.0
1614968156889504909,,89663,,1614896129,938775826,"""0""",12.0,1.0,12.25,0.0
1614968156957644939,,89664,,1614896129,988916660,"""0""",12.0,0.625,12.25,0.0
1614968157003010988,,89665,,1614896130,38807441,"""0""",12.0,1.0,12.25,0.0
1614968157048567056,,89666,,1614896130,89407753,"""0""",12.0,0.625,12.3000001907,0.0
1614968157088978052,,89667,,1614896130,138917493,"""0""",12.0,0.625,12.3000001907,0.0
1614968157138911962,,89668,,1614896130,188795149,"""0""",12.0,0.625,12.3000001907,0.0
1614968157190212965,,89669,,1614896130,238781243,"""0""",12.0,0.625,12.3000001907,0.0
1614968157266681909,,89670,,1614896130,288909055,"""0""",12.0,0.625,12.3000001907,0.0
1614968157310101032,,89671,,1614896130,338812232,"""0""",12.0,0.625,12.3000001907,0.0
1614968157357598066,,89672,,1614896130,388778691,"""0""",12.0,1.0,12.3000001907,0.0
1614968157411393880,,89673,,1614896130,438793014,"""0""",12.0,1.75,12.3000001907,0.0
1614968157440891027,,89674,,1614896130,488793899,"""0""",12.0,2.0,12.3000001907,0.0
1614968157491561889,,89675,,1614896130,539099107,"""0""",12.0,2.0,12.25,0.0
1614968157543996095,,89676,,1614896130,588873014,"""0""",12.0,1.75,12.25,0.0
1614968157604461908,,89677,,1614896130,638769159,"""0""",12.0,2.0,12.25,0.0
1614968157641922950,,89678,,1614896130,688790930,"""0""",12.0,2.0,12.25,0.0
1614968157692135095,,89679,,1614896130,738891086,"""0""",12.0,1.375,12.1999998093,0.0
1614968157740986108,,89680,,1614896130,788894211,"""0""",12.0,1.0,12.1999998093,0.0
1614968157797512054,,89681,,1614896130,838774003,"""0""",12.0,1.0,12.1999998093,0.0
1614968157859436988,,89682,,1614896130,888794993,"""0""",12.0,1.0,12.3000001907,0.0
1614968157901936054,,89683,,1614896130,938780774,"""0""",12.0,1.0,12.3000001907,0.0
1614968157950676918,,89684,,1614896130,988800670,"""0""",12.0,1.0,12.3000001907,0.0
1614968157998687028,,89685,,1614896131,38764159,"""0""",12.0,1.0,12.25,0.0
1614968158045716047,,89686,,1614896131,88838170,"""0""",12.0,0.625,12.25,0.0
1614968158092156887,,89687,,1614896131,138878690,"""0""",12.0,0.625,12.25,0.0
1614968158161211967,,89688,,1614896131,188832440,"""0""",12.0,1.0,12.25,0.0
1614968158195550918,,89689,,1614896131,238795617,"""0""",12.0,0.625,12.25,0.0
1614968158256664037,,89690,,1614896131,288800149,"""0""",12.0,0.625,12.25,0.0
1614968158292332887,,89691,,1614896131,338753274,"""0""",12.0,0.375,12.25,0.0
1614968158345314979,,89692,,1614896131,388867180,"""0""",12.0,0.375,12.3500003815,0.0
1614968158400926113,,89693,,1614896131,438776972,"""0""",12.0,0.375,12.3500003815,0.0
1614968158466052055,,89694,,1614896131,488834732,"""0""",12.0,0.375,12.3500003815,0.0
1614968158513477087,,89695,,1614896131,538813430,"""0""",12.0,0.375,12.3500003815,0.0
1614968158551388978,,89696,,1614896131,588809003,"""0""",12.0,0.375,12.3500003815,0.0
1614968158588812112,,89697,,1614896131,638786659,"""0""",12.0,0.375,12.3500003815,0.0
1614968158647185087,,89698,,1614896131,689587440,"""0""",12.0,0.375,12.3500003815,0.0
1614968158692984104,,89699,,1614896131,738860148,"""0""",12.0,0.375,12.3500003815,0.0
1614968158768989086,,89700,,1614896131,788786294,"""0""",12.0,0.375,12.3500003815,0.0
1614968158809729099,,89701,,1614896131,838838378,"""0""",12.0,0.375,12.3500003815,0.0
1614968158851355075,,89702,,1614896131,888782336,"""0""",12.0,0.375,12.3500003815,0.0
1614968158891877889,,89703,,1614896131,938781086,"""0""",12.0,0.375,12.3500003815,0.0
1614968158940057992,,89704,,1614896131,988827284,"""0""",12.0,0.375,12.3500003815,0.0
1614968159003607034,,89705,,1614896132,38765825,"""0""",12.0,0.625,12.3500003815,0.0
1614968159073678970,,89706,,1614896132,88826659,"""0""",12.0,1.0,12.3500003815,0.0
1614968159131266117,,89707,,1614896132,138768638,"""0""",12.0,1.0,12.3500003815,0.0
1614968159180862903,,89708,,1614896132,188831346,"""0""",12.0,1.0,12.3000001907,0.0
1614968159233338117,,89709,,1614896132,238789471,"""0""",12.0,1.375,12.3000001907,0.0
1614968159283591032,,89710,,1614896132,288839784,"""0""",12.0,1.375,12.3000001907,0.0
1614968159357026100,,89711,,1614896132,338769888,"""0""",12.0,1.0,12.25,0.0
1614968159422576904,,89712,,1614896132,389052440,"""0""",12.0,1.375,12.25,0.0
1614968159422662019,,89713,,1614896132,438782232,"""0""",12.0,1.375,12.25,0.0
1614968159478682041,,89714,,1614896132,488833794,"""0""",12.0,1.0,12.3000001907,0.0
1614968159536607980,,89715,,1614896132,538850461,"""0""",12.0,1.0,12.3000001907,0.0
1614968159586843967,,89716,,1614896132,588824211,"""0""",12.0,1.0,12.3000001907,0.0
1614968159638820886,,89717,,1614896132,638846659,"""0""",12.0,0.625,12.3500003815,0.0
1614968159705955982,,89718,,1614896132,689042127,"""0""",12.0,0.375,12.3500003815,0.0
1614968159767481088,,89719,,1614896132,738831242,"""0""",12.0,0.625,12.3500003815,0.0
1614968159767714023,,89720,,1614896132,789043898,"""0""",11.0,1.0,12.3000001907,0.0
1614968159813049077,,89721,,1614896132,838825096,"""0""",11.0,0.625,12.3000001907,0.0
1614968159912851095,,89722,,1614896132,888792023,"""0""",11.0,0.375,12.3000001907,0.0
1614968159912959098,,89723,,1614896132,938799731,"""0""",11.0,0.375,12.3000001907,0.0
1614968159983618974,,89724,,1614896132,988786190,"""0""",12.0,0.375,12.3500003815,0.0
1614968160059444904,,89725,,1614896133,38821033,"""0""",12.0,0.375,12.3500003815,0.0
1614968160059474945,,89726,,1614896133,88800721,"""0""",12.0,0.375,12.3500003815,0.0
1614968160115080118,,89727,,1614896133,138786971,"""0""",12.0,0.375,12.3500003815,0.0
1614968160162585020,,89728,,1614896133,188926190,"""0""",12.0,0.625,12.3500003815,0.0
1614968160240410089,,89729,,1614896133,238741554,"""0""",12.0,1.0,12.3500003815,0.0
1614968160288219928,,89730,,1614896133,288857283,"""0""",11.0,1.375,12.25,0.0
1614968160329340934,,89731,,1614896133,338778533,"""0""",11.0,3.875,12.25,0.0
1614968160392004966,,89732,,1614896133,389065617,"""0""",11.0,4.125,12.25,0.0
1614968160452056884,,89733,,1614896133,438757387,"""0""",12.0,4.0,12.1999998093,0.0
1614968160530631065,,89734,,1614896133,488991033,"""0""",12.0,3.75,12.1999998093,0.0
1614968160530807018,,89735,,1614896133,538766658,"""0""",12.0,3.75,12.1999998093,0.0
1614968160600122928,,89736,,1614896133,588861033,"""0""",11.0,3.875,12.1499996185,0.0
1614968160677968025,,89737,,1614896133,639028846,"""0""",11.0,4.0,12.1499996185,0.0
1614968160678680896,,89738,,1614896133,689049991,"""0""",11.0,3.875,12.1499996185,0.0
1614968160741347074,,89739,,1614896133,738821502,"""0""",11.0,4.0,12.1499996185,0.0
1614968160788784980,,89740,,1614896133,789300096,"""0""",12.0,4.125,12.1999998093,0.0
1614968160844299077,,89741,,1614896133,838808794,"""0""",12.0,4.0,12.1999998093,0.0
1614968160903611898,,89742,,1614896133,889044262,"""0""",12.0,3.875,12.1999998093,0.0
1614968160968251943,,89743,,1614896133,938764523,"""0""",12.0,3.375,12.1999998093,0.0
1614968160968393087,,89744,,1614896133,988820096,"""0""",12.0,3.75,12.1999998093,0.0
1614968161068237066,,89745,,1614896134,38770825,"""0""",12.0,3.875,12.1999998093,0.0
1614968161068439006,,89746,,1614896134,89041450,"""0""",11.0,3.875,12.1999998093,0.0
1614968161106882095,,89747,,1614896134,138769002,"""0""",11.0,3.875,12.1999998093,0.0
1614968161151303052,,89748,,1614896134,188822283,"""0""",11.0,4.0,12.1999998093,0.0
1614968161225470066,,89749,,1614896134,238782856,"""0""",11.0,4.0,12.1999998093,0.0
1614968161274348020,,89750,,1614896134,288781241,"""0""",11.0,4.0,12.1999998093,0.0
1614968161321891069,,89751,,1614896134,338784783,"""0""",11.0,4.125,12.1999998093,0.0
1614968161360589027,,89752,,1614896134,388837595,"""0""",12.0,4.0,12.1000003815,0.0
1614968161396837949,,89753,,1614896134,438779210,"""0""",12.0,4.25,12.1000003815,0.0
1614968161458961963,,89754,,1614896134,488854679,"""0""",12.0,4.125,12.1000003815,0.0
1614968161490514993,,89755,,1614896134,538805616,"""0""",12.0,4.125,12.1000003815,0.0
1614968161540337085,,89756,,1614896134,588775304,"""0""",11.0,4.25,12.1000003815,0.0
1614968161587985992,,89757,,1614896134,638763533,"""0""",11.0,4.25,12.1000003815,0.0
1614968161640769004,,89758,,1614896134,688748168,"""0""",11.0,4.125,12.1000003815,0.0
1614968161695003986,,89759,,1614896134,738784418,"""0""",11.0,4.125,12.1499996185,0.0
1614968161741420984,,89760,,1614896134,788821085,"""0""",11.0,4.125,12.1499996185,0.0
1614968161791094064,,89761,,1614896134,838783845,"""0""",11.0,4.25,12.1499996185,0.0
1614968161835189104,,89762,,1614896134,888827335,"""0""",11.0,4.0,12.1499996185,0.0
1614968161889045000,,89763,,1614896134,938933741,"""0""",11.0,4.0,12.1499996185,0.0
1614968161947617053,,89764,,1614896134,988779106,"""0""",11.0,4.0,12.1499996185,0.0
1614968161994487047,,89765,,1614896135,38816085,"""0""",12.0,4.125,12.1000003815,0.0
1614968162045236110,,89766,,1614896135,88802439,"""0""",12.0,4.0,12.1000003815,0.0
1614968162091198921,,89767,,1614896135,138787074,"""0""",12.0,4.0,12.1000003815,0.0
1614968162142229080,,89768,,1614896135,188831658,"""0""",11.0,4.0,12.1000003815,0.0
1614968162191375970,,89769,,1614896135,238781866,"""0""",11.0,4.25,12.1000003815,0.0
1614968162259840965,,89770,,1614896135,288781241,"""0""",11.0,4.125,12.1000003815,0.0
1614968162293661117,,89771,,1614896135,339355251,"""0""",11.0,4.0,12.1499996185,0.0
1614968162360735893,,89772,,1614896135,388781241,"""0""",11.0,4.0,12.1499996185,0.0
1614968162397181034,,89773,,1614896135,438798741,"""0""",11.0,4.0,12.1499996185,0.0
1614968162478369951,,89774,,1614896135,488861241,"""0""",11.0,4.0,12.1499996185,0.0
1614968162535387992,,89775,,1614896135,538762178,"""0""",12.0,4.0,12.1499996185,0.0
1614968162590034961,,89776,,1614896135,588921397,"""0""",12.0,4.0,12.1499996185,0.0
1614968162643999099,,89777,,1614896135,638789991,"""0""",12.0,4.0,12.1499996185,0.0
1614968162695987939,,89778,,1614896135,688766137,"""0""",11.0,3.875,12.1499996185,0.0
1614968162696104049,,89779,,1614896135,738961501,"""0""",11.0,4.0,12.1499996185,0.0
1614968162750838994,,89780,,1614896135,788780980,"""0""",11.0,4.0,12.1499996185,0.0
1614968162788248062,,89781,,1614896135,838774418,"""0""",12.0,3.875,12.1499996185,0.0
1614968162847410917,,89782,,1614896135,888787751,"""0""",12.0,3.875,12.1499996185,0.0
1614968162888732910,,89783,,1614896135,938814001,"""0""",12.0,4.125,12.1499996185,0.0
1614968162965325117,,89784,,1614896135,988781449,"""0""",11.0,4.125,12.1000003815,0.0
1614968163010314941,,89785,,1614896136,39105720,"""0""",11.0,4.125,12.1000003815,0.0
1614968163054615974,,89786,,1614896136,88821918,"""0""",11.0,4.125,12.1000003815,0.0
1614968163115668058,,89787,,1614896136,138958688,"""0""",11.0,4.0,12.1000003815,0.0
1614968163161858081,,89788,,1614896136,188773011,"""0""",11.0,3.375,12.1999998093,0.0
1614968163223104000,,89789,,1614896136,238854574,"""0""",11.0,1.75,12.1999998093,0.0
1614968163268878936,,89790,,1614896136,289009470,"""0""",11.0,2.0,12.1999998093,0.0
1614968163317163944,,89791,,1614896136,338781553,"""0""",11.0,2.75,12.1999998093,0.0
1614968163366820096,,89792,,1614896136,388776709,"""0""",11.0,2.75,12.1999998093,0.0
1614968163401638984,,89793,,1614896136,438790147,"""0""",11.0,1.75,12.1999998093,0.0
1614968163445724010,,89794,,1614896136,488780772,"""0""",11.0,1.75,12.1999998093,0.0
1614968163496628046,,89795,,1614896136,538852282,"""0""",11.0,1.375,12.1999998093,0.0
1614968163556464910,,89796,,1614896136,588806032,"""0""",11.0,1.0,12.1999998093,0.0
1614968163596293926,,89797,,1614896136,638840928,"""0""",11.0,0.375,12.3000001907,0.0
1614968163658677101,,89798,,1614896136,688793897,"""0""",11.0,0.375,12.3000001907,0.0
1614968163720309972,,89799,,1614896136,738847230,"""0""",11.0,0.375,12.3000001907,0.0
1614968163776549100,,89800,,1614896136,788776240,"""0""",11.0,0.375,12.3000001907,0.0
1614968163861553907,,89801,,1614896136,838854626,"""0""",11.0,0.375,12.3000001907,0.0
1614968163898633003,,89802,,1614896136,888774157,"""0""",11.0,0.375,12.3000001907,0.0
1614968163939194917,,89803,,1614896136,938817855,"""0""",11.0,0.375,12.3000001907,0.0
1614968163988768100,,89804,,1614896136,988779730,"""0""",11.0,0.0,12.3500003815,0.0
1614968164037858009,,89805,,1614896137,38832282,"""0""",11.0,0.0,12.3500003815,0.0
1614968164082355022,,89806,,1614896137,88818844,"""0""",11.0,0.0,12.3500003815,0.0
1614968164168081045,,89807,,1614896137,138876761,"""0""",12.0,0.0,12.3500003815,0.0
1614968164168220043,,89808,,1614896137,188771865,"""0""",12.0,0.0,12.3500003815,0.0
1614968164206722021,,89809,,1614896137,238777959,"""0""",12.0,0.0,12.3500003815,0.0
1614968164255280017,,89810,,1614896137,288787386,"""0""",12.0,0.0,12.3500003815,0.0
1614968164303273916,,89811,,1614896137,338755563,"""0""",12.0,0.0,12.3500003815,0.0
1614968164354728937,,89812,,1614896137,388797021,"""0""",12.0,0.0,12.3500003815,0.0
1614968164394608020,,89813,,1614896137,438816917,"""0""",11.0,0.375,12.3500003815,0.0
1614968164442929983,,89814,,1614896137,488862282,"""0""",11.0,0.375,12.3500003815,0.0
1614968164503453016,,89815,,1614896137,538871709,"""0""",11.0,0.375,12.3500003815,0.0
1614968164555336952,,89816,,1614896137,588836761,"""0""",11.0,0.375,12.3500003815,0.0
1614968164593951940,,89817,,1614896137,638881240,"""0""",11.0,0.375,12.3500003815,0.0
1614968164638247966,,89818,,1614896137,688873219,"""0""",11.0,0.375,12.3500003815,0.0
1614968164697139978,,89819,,1614896137,738800615,"""0""",11.0,0.375,12.3500003815,0.0
1614968164761384963,,89820,,1614896137,788775771,"""0""",12.0,0.0,12.3500003815,0.0
1614968164805556058,,89821,,1614896137,838787229,"""0""",12.0,0.375,12.3500003815,0.0
1614968164848350048,,89822,,1614896137,888792386,"""0""",12.0,0.375,12.3500003815,0.0
1614968164891427040,,89823,,1614896137,938824521,"""0""",12.0,0.375,12.3000001907,0.0
1614968164945194005,,89824,,1614896137,988800667,"""0""",12.0,0.375,12.3000001907,0.0
1614968165025494098,,89825,,1614896138,38919261,"""0""",12.0,0.625,12.3000001907,0.0
1614968165106848955,,89826,,1614896138,88799365,"""0""",11.0,1.0,12.25,0.0
1614968165151045083,,89827,,1614896138,138779104,"""0""",11.0,0.625,12.25,0.0
1614968165151176929,,89828,,1614896138,188850094,"""0""",11.0,0.375,12.25,0.0
1614968165194542884,,89829,,1614896138,238795146,"""0""",12.0,0.375,12.3500003815,0.0
1614968165238953113,,89830,,1614896138,288788375,"""0""",12.0,0.625,12.3500003815,0.0
1614968165297020912,,89831,,1614896138,338932333,"""0""",12.0,1.0,12.3500003815,0.0
1614968165358767986,,89832,,1614896138,388844313,"""0""",12.0,0.625,12.3000001907,0.0
1614968165419909954,,89833,,1614896138,438941188,"""0""",12.0,0.375,12.3000001907,0.0
1614968165455416917,,89834,,1614896138,488818688,"""0""",12.0,0.375,12.3000001907,0.0
1614968165487596035,,89835,,1614896138,538799885,"""0""",12.0,1.375,12.3000001907,0.0
1614968165539844036,,89836,,1614896138,588758688,"""0""",11.0,1.75,12.25,0.0
1614968165591206073,,89837,,1614896138,638796604,"""0""",11.0,2.0,12.25,0.0
1614968165636789083,,89838,,1614896138,688740927,"""0""",11.0,3.375,12.25,0.0
1614968165696665048,,89839,,1614896138,738959208,"""0""",12.0,3.375,12.1999998093,0.0
1614968165739547014,,89840,,1614896138,788867073,"""0""",12.0,3.75,12.1999998093,0.0
1614968165794456958,,89841,,1614896138,838826656,"""0""",12.0,3.75,12.1999998093,0.0
1614968165845643997,,89842,,1614896138,888899885,"""0""",11.0,3.75,12.1499996185,0.0
1614968165890486955,,89843,,1614896138,938931344,"""0""",11.0,3.75,12.1499996185,0.0
1614968165958909988,,89844,,1614896138,988824885,"""0""",11.0,3.75,12.1499996185,0.0
1614968165997194051,,89845,,1614896139,38905302,"""0""",12.0,3.375,12.1999998093,0.0
1614968166039824962,,89846,,1614896139,88778479,"""0""",12.0,3.0,12.1999998093,0.0
1614968166090934991,,89847,,1614896139,138843219,"""0""",12.0,2.375,12.1999998093,0.0
1614968166145145893,,89848,,1614896139,188842802,"""0""",11.0,2.375,12.1999998093,0.0
1614968166191243886,,89849,,1614896139,238814416,"""0""",11.0,2.75,12.1999998093,0.0
1614968166246992111,,89850,,1614896139,288835302,"""0""",11.0,2.75,12.1999998093,0.0
1614968166323353052,,89851,,1614896139,338776968,"""0""",11.0,2.75,12.1999998093,0.0
1614968166364913940,,89852,,1614896139,388789052,"""0""",11.0,2.75,12.1999998093,0.0
1614968166425064086,,89853,,1614896139,438770823,"""0""",11.0,2.375,12.1999998093,0.0
1614968166466531038,,89854,,1614896139,488786968,"""0""",11.0,2.375,12.1999998093,0.0
1614968166505631923,,89855,,1614896139,538803583,"""0""",12.0,2.375,12.1999998093,0.0
1614968166572890996,,89856,,1614896139,588786135,"""0""",12.0,2.0,12.1999998093,0.0
1614968166610968112,,89857,,1614896139,638797333,"""0""",12.0,2.0,12.1999998093,0.0
1614968166653791904,,89858,,1614896139,688780927,"""0""",11.0,2.0,12.1999998093,0.0
1614968166709611892,,89859,,1614896139,738776812,"""0""",11.0,2.375,12.1999998093,0.0
1614968166752715110,,89860,,1614896139,788780718,"""0""",11.0,2.0,12.1999998093,0.0
1614968166808475971,,89861,,1614896139,838778375,"""0""",11.0,2.0,12.1999998093,0.0
1614968166882951974,,89862,,1614896139,888785822,"""0""",11.0,2.0,12.1999998093,0.0
1614968166926546096,,89863,,1614896139,938775614,"""0""",11.0,2.0,12.1999998093,0.0
1614968166962415933,,89864,,1614896139,988783843,"""0""",11.0,1.75,12.1999998093,0.0
1614968166999752044,,89865,,1614896140,38845197,"""0""",11.0,1.75,12.1999998093,0.0
1614968167044920921,,89866,,1614896140,88859520,"""0""",11.0,1.75,12.1999998093,0.0
1614968167144051074,,89867,,1614896140,138777281,"""0""",11.0,2.0,12.1999998093,0.0
1614968167176330089,,89868,,1614896140,188822697,"""0""",11.0,2.0,12.1999998093,0.0
1614968167213099002,,89869,,1614896140,238777593,"""0""",11.0,1.75,12.1999998093,0.0
1614968167254023075,,89870,,1614896140,288818687,"""0""",11.0,2.0,12.1999998093,0.0
1614968167289238929,,89871,,1614896140,338811135,"""0""",12.0,1.75,12.1999998093,0.0
1614968167345248937,,89872,,1614896140,388814208,"""0""",12.0,1.75,12.1999998093,0.0
1614968167392610073,,89873,,1614896140,438848166,"""0""",12.0,1.75,12.1999998093,0.0
1614968167445203065,,89874,,1614896140,488799312,"""0""",11.0,1.75,12.1999998093,0.0
1614968167489166021,,89875,,1614896140,538785041,"""0""",11.0,1.75,12.1999998093,0.0
1614968167542051076,,89876,,1614896140,588806864,"""0""",11.0,1.75,12.1999998093,0.0
1614968167595367908,,89877,,1614896140,638874051,"""0""",11.0,1.75,12.1999998093,0.0
1614968167640772104,,89878,,1614896140,688788374,"""0""",11.0,1.375,12.1999998093,0.0
1614968167695441961,,89879,,1614896140,738798218,"""0""",11.0,1.375,12.1999998093,0.0
1614968167742837905,,89880,,1614896140,788767749,"""0""",11.0,1.375,12.25,0.0
1614968167788394927,,89881,,1614896140,838807958,"""0""",11.0,1.375,12.25,0.0
1614968167842895984,,89882,,1614896140,888768843,"""0""",11.0,1.375,12.25,0.0
1614968167893826961,,89883,,1614896140,938816447,"""0""",11.0,1.375,12.25,0.0
1614968167956547021,,89884,,1614896140,988864051,"""0""",11.0,1.375,12.25,0.0
1614968168101883888,,89885,,1614896141,38851082,"""0""",11.0,1.375,12.25,0.0
1614968168101990938,,89886,,1614896141,88755666,"""0""",11.0,1.375,12.25,0.0
1614968168102013111,,89887,,1614896141,138766916,"""0""",12.0,1.375,12.25,0.0
1614968168146462917,,89888,,1614896141,188838582,"""0""",12.0,1.375,12.25,0.0
1614968168228626012,,89889,,1614896141,238796551,"""0""",12.0,1.75,12.25,0.0
1614968168274100065,,89890,,1614896141,288839832,"""0""",11.0,1.375,12.25,0.0
1614968168356982946,,89891,,1614896141,338796239,"""0""",11.0,1.375,12.25,0.0
1614968168357105016,,89892,,1614896141,388815614,"""0""",11.0,1.375,12.25,0.0
1614968168389486074,,89893,,1614896141,438852072,"""0""",11.0,1.375,12.1999998093,0.0
1614968168434600114,,89894,,1614896141,488796551,"""0""",11.0,1.375,12.1999998093,0.0
1614968168494453907,,89895,,1614896141,538781238,"""0""",11.0,1.375,12.1999998093,0.0
1614968168538295984,,89896,,1614896141,588810561,"""0""",11.0,1.375,12.25,0.0
1614968168595061063,,89897,,1614896141,638857749,"""0""",11.0,1.375,12.25,0.0
1614968168711453914,,89898,,1614896141,689181395,"""0""",11.0,1.375,12.25,0.0
1614968168711556911,,89899,,1614896141,738943426,"""0""",11.0,1.0,12.25,0.0
1614968168742679119,,89900,,1614896141,788778582,"""0""",11.0,1.0,12.1999998093,0.0
1614968168814295053,,89901,,1614896141,838771343,"""0""",11.0,1.0,12.1999998093,0.0
1614968168863101005,,89902,,1614896141,888856447,"""0""",11.0,1.375,12.1999998093,0.0
1614968168916666030,,89903,,1614896141,938864884,"""0""",11.0,1.75,12.1999998093,0.0
1614968168957458019,,89904,,1614896141,988795770,"""0""",11.0,1.75,12.1999998093,0.0
1614968169017999887,,89905,,1614896142,38866551,"""0""",11.0,1.75,12.1999998093,0.0
1614968169089140892,,89906,,1614896142,89017645,"""0""",11.0,2.0,12.1999998093,0.0
1614968169124655008,,89907,,1614896142,138837697,"""0""",11.0,1.375,12.1999998093,0.0
1614968169161303043,,89908,,1614896142,189287124,"""0""",11.0,1.0,12.1999998093,0.0
1614968169208611965,,89909,,1614896142,238828165,"""0""",11.0,1.75,12.25,0.0
1614968169259871959,,89910,,1614896142,288806447,"""0""",11.0,1.75,12.25,0.0
1614968169325232982,,89911,,1614896142,338775874,"""0""",11.0,1.75,12.25,0.0
1614968169470773935,,89912,,1614896142,388793842,"""0""",11.0,1.375,12.25,0.0
1614968169470941066,,89913,,1614896142,438875092,"""0""",11.0,1.375,12.25,0.0
1614968169471142053,,89914,,1614896142,488803738,"""0""",11.0,1.375,12.25,0.0
1614968169542236089,,89915,,1614896142,538779519,"""0""",11.0,1.75,12.25,0.0
1614968169625359058,,89916,,1614896142,589129103,"""0""",11.0,1.375,12.1999998093,0.0
1614968169625503063,,89917,,1614896142,638872228,"""0""",11.0,1.375,12.1999998093,0.0
1614968169673902034,,89918,,1614896142,688880405,"""0""",11.0,1.375,12.1999998093,0.0
1614968169722476005,,89919,,1614896142,738793269,"""0""",11.0,1.75,12.25,0.0
1614968169772377014,,89920,,1614896142,789533061,"""0""",11.0,1.75,12.25,0.0
1614968169840734958,,89921,,1614896142,838866707,"""0""",11.0,1.75,12.25,0.0
1614968169904911041,,89922,,1614896142,888960300,"""0""",11.0,1.75,12.25,0.0
1614968169905045032,,89923,,1614896142,938823373,"""0""",11.0,1.375,12.25,0.0
1614968169950061082,,89924,,1614896142,988858478,"""0""",11.0,1.375,12.25,0.0
1614968170017293930,,89925,,1614896143,38767436,"""0""",11.0,1.375,12.1999998093,0.0
1614968170111659049,,89926,,1614896143,88870613,"""0""",11.0,1.375,12.1999998093,0.0
1614968170111767053,,89927,,1614896143,138833894,"""0""",11.0,1.375,12.1999998093,0.0
1614968170188318014,,89928,,1614896143,189086811,"""0""",12.0,1.375,12.1999998093,0.0
1614968170242113113,,89929,,1614896143,238787332,"""0""",12.0,1.375,12.1999998093,0.0
1614968170279078006,,89930,,1614896143,288877904,"""0""",12.0,1.0,12.1999998093,0.0
1614968170324007034,,89931,,1614896143,338771811,"""0""",12.0,1.0,12.1999998093,0.0
1614968170359350919,,89932,,1614896143,389419311,"""0""",11.0,1.375,12.25,0.0
1614968170402250051,,89933,,1614896143,438772957,"""0""",11.0,1.375,12.25,0.0
1614968170460416078,,89934,,1614896143,488784571,"""0""",11.0,1.375,12.25,0.0
1614968170511305093,,89935,,1614896143,538792488,"""0""",11.0,1.375,12.1999998093,0.0
1614968170547363996,,89936,,1614896143,588771342,"""0""",11.0,1.375,12.1999998093,0.0
1614968170592820882,,89937,,1614896143,638768165,"""0""",11.0,1.375,12.1999998093,0.0
1614968170648767948,,89938,,1614896143,689020144,"""0""",11.0,1.75,12.25,0.0
1614968170692265987,,89939,,1614896143,738787904,"""0""",11.0,1.375,12.25,0.0
1614968170747173070,,89940,,1614896143,788915873,"""0""",11.0,1.375,12.25,0.0
1614968170794395923,,89941,,1614896143,838793686,"""0""",11.0,1.375,12.1999998093,0.0
1614968170841317892,,89942,,1614896143,888783790,"""0""",11.0,1.375,12.1999998093,0.0
1614968170895129919,,89943,,1614896143,938771758,"""0""",11.0,1.375,12.1999998093,0.0
1614968170945940017,,89944,,1614896143,988779415,"""0""",11.0,1.375,12.1999998093,0.0
1614968170995299100,,89945,,1614896144,38784571,"""0""",11.0,1.375,12.1999998093,0.0
1614968171043287038,,89946,,1614896144,88839988,"""0""",11.0,1.375,12.1999998093,0.0
1614968171093132972,,89947,,1614896144,138755352,"""0""",11.0,1.375,12.25,0.0
1614968171143595933,,89948,,1614896144,188859727,"""0""",11.0,1.375,12.25,0.0
1614968171193872928,,89949,,1614896144,238751654,"""0""",11.0,1.375,12.25,0.0
1614968171249125957,,89950,,1614896144,288790925,"""0""",11.0,1.375,12.25,0.0
1614968171288260936,,89951,,1614896144,338767748,"""0""",11.0,1.375,12.25,0.0
1614968171344799995,,89952,,1614896144,388787123,"""0""",11.0,1.375,12.25,0.0
1614968171407177925,,89953,,1614896144,438807748,"""0""",11.0,1.375,12.25,0.0
1614968171462758064,,89954,,1614896144,488964571,"""0""",11.0,1.375,12.25,0.0
1614968171507673978,,89955,,1614896144,538775925,"""0""",11.0,1.75,12.25,0.0
1614968171542855978,,89956,,1614896144,588777852,"""0""",11.0,1.75,12.25,0.0
1614968171589845895,,89957,,1614896144,638767123,"""0""",11.0,1.75,12.25,0.0
1614968171653215885,,89958,,1614896144,688748946,"""0""",11.0,1.75,12.25,0.0
1614968171702764987,,89959,,1614896144,738826914,"""0""",11.0,1.375,12.25,0.0
1614968171745929002,,89960,,1614896144,788930977,"""0""",11.0,1.375,12.1999998093,0.0
1614968171823992967,,89961,,1614896144,838770716,"""0""",11.0,1.375,12.1999998093,0.0
1614968171859139919,,89962,,1614896144,888974518,"""0""",11.0,1.375,12.1999998093,0.0
1614968171900211095,,89963,,1614896144,938764675,"""0""",11.0,1.375,12.1999998093,0.0
1614968171965713977,,89964,,1614896144,989009623,"""0""",11.0,1.375,12.25,0.0
1614968172002463102,,89965,,1614896145,38792279,"""0""",11.0,1.375,12.25,0.0
1614968172043889045,,89966,,1614896145,88880143,"""0""",11.0,1.375,12.25,0.0
1614968172096323013,,89967,,1614896145,138850925,"""0""",11.0,1.375,12.1999998093,0.0
1614968172138994932,,89968,,1614896145,189012435,"""0""",11.0,1.75,12.1999998093,0.0
1614968172197957992,,89969,,1614896145,238776654,"""0""",11.0,1.75,12.1999998093,0.0
1614968172263309001,,89970,,1614896145,288953008,"""0""",11.0,1.75,12.1999998093,0.0
1614968172306535005,,89971,,1614896145,338760352,"""0""",11.0,1.75,12.1999998093,0.0
1614968172349716901,,89972,,1614896145,388828060,"""0""",11.0,1.75,12.1999998093,0.0
1614968172394370079,,89973,,1614896145,438786602,"""0""",11.0,1.75,12.1999998093,0.0
1614968172449857950,,89974,,1614896145,488892122,"""0""",11.0,1.75,12.1999998093,0.0
1614968172500081062,,89975,,1614896145,538771237,"""0""",11.0,1.75,12.1999998093,0.0
1614968172550085067,,89976,,1614896145,588863737,"""0""",11.0,1.75,12.25,0.0
1614968172598660945,,89977,,1614896145,638787331,"""0""",11.0,1.375,12.25,0.0
1614968172693373918,,89978,,1614896145,688833633,"""0""",11.0,1.75,12.25,0.0
1614968172693701028,,89979,,1614896145,738808268,"""0""",11.0,1.75,12.25,0.0
1614968172754919052,,89980,,1614896145,789289570,"""0""",11.0,1.75,12.1999998093,0.0
1614968172795923948,,89981,,1614896145,838832435,"""0""",11.0,1.75,12.1999998093,0.0
1614968172880817890,,89982,,1614896145,888879883,"""0""",11.0,1.75,12.1999998093,0.0
1614968172913487911,,89983,,1614896145,938962122,"""0""",11.0,1.375,12.1999998093,0.0
1614968172950884103,,89984,,1614896145,988829362,"""0""",11.0,1.375,12.1999998093,0.0
1614968173002984046,,89985,,1614896146,38788008,"""0""",11.0,1.375,12.1999998093,0.0
1614968173063441038,,89986,,1614896146,88788789,"""0""",11.0,1.375,12.25,0.0
1614968173108201026,,89987,,1614896146,138763841,"""0""",11.0,1.375,12.25,0.0
1614968173159754991,,89988,,1614896146,188805143,"""0""",11.0,1.375,12.25,0.0
1614968173202261924,,89989,,1614896146,238852643,"""0""",11.0,1.375,12.25,0.0
1614968173243077993,,89990,,1614896146,288759258,"""0""",11.0,1.375,12.25,0.0
1614968173299266099,,89991,,1614896146,338774257,"""0""",11.0,1.375,12.25,0.0
1614968173362253904,,89992,,1614896146,388902122,"""0""",11.0,1.375,12.1999998093,0.0
1614968173510746955,,89993,,1614896146,438873007,"""0""",11.0,1.375,12.1999998093,0.0
1614968173510865926,,89994,,1614896146,488874935,"""0""",11.0,1.375,12.1999998093,0.0
1614968173510899066,,89995,,1614896146,538837487,"""0""",11.0,1.75,12.1999998093,0.0
1614968173554524898,,89996,,1614896146,588782643,"""0""",11.0,1.75,12.1999998093,0.0
1614968173599647998,,89997,,1614896146,638741862,"""0""",11.0,1.375,12.1999998093,0.0
1614968173641531944,,89998,,1614896146,688869309,"""0""",11.0,1.375,12.1999998093,0.0
1614968173697844028,,89999,,1614896146,738985976,"""0""",11.0,1.375,12.25,0.0
1614968173760976076,,90000,,1614896146,788779726,"""0""",11.0,1.375,12.25,0.0
1614968173811218023,,90001,,1614896146,838785820,"""0""",11.0,1.375,12.25,0.0
1614968173848676919,,90002,,1614896146,888779934,"""0""",11.0,1.375,12.1999998093,0.0
1614968173901700973,,90003,,1614896146,938761236,"""0""",11.0,1.375,12.1999998093,0.0
1614968173951927900,,90004,,1614896146,988791341,"""0""",11.0,1.375,12.1999998093,0.0
1614968174033467054,,90005,,1614896147,38765716,"""0""",11.0,1.375,12.1999998093,0.0
1614968174068986892,,90006,,1614896147,88840195,"""0""",11.0,1.375,12.1999998093,0.0
1614968174111140966,,90007,,1614896147,138761236,"""0""",11.0,1.375,12.1999998093,0.0
1614968174162287950,,90008,,1614896147,188830038,"""0""",11.0,1.375,12.25,0.0
1614968174191926956,,90009,,1614896147,238796236,"""0""",11.0,1.375,12.25,0.0
1614968174244703054,,90010,,1614896147,288837747,"""0""",11.0,1.0,12.25,0.0
1614968174312324047,,90011,,1614896147,338813059,"""0""",11.0,1.0,12.25,0.0
1614968174365605115,,90012,,1614896147,388891236,"""0""",11.0,1.0,12.25,0.0
1614968174413713932,,90013,,1614896147,438769205,"""0""",11.0,1.0,12.25,0.0
1614968174466836929,,90014,,1614896147,488788840,"""0""",11.0,1.0,12.25,0.0
1614968174500581979,,90015,,1614896147,538768007,"""0""",11.0,0.625,12.25,0.0
1614968174551645994,,90016,,1614896147,588784413,"""0""",11.0,0.625,12.25,0.0
1614968174598865985,,90017,,1614896147,638819049,"""0""",11.0,0.625,12.25,0.0
1614968174669666051,,90018,,1614896147,688800247,"""0""",11.0,0.625,12.25,0.0
1614968174704942941,,90019,,1614896147,738780038,"""0""",11.0,0.375,12.25,0.0
1614968174743345975,,90020,,1614896147,788784934,"""0""",11.0,0.375,12.25,0.0
1614968174792733907,,90021,,1614896147,838768372,"""0""",11.0,0.375,12.3000001907,0.0
1614968174854002952,,90022,,1614896147,888788996,"""0""",11.0,0.375,12.3000001907,0.0
1614968174927838087,,90023,,1614896147,938918163,"""0""",11.0,0.0,12.3000001907,0.0
1614968174996521949,,90024,,1614896147,988780455,"""0""",11.0,0.0,12.3500003815,0.0
1614968175028898954,,90025,,1614896148,38765090,"""0""",11.0,0.0,12.3500003815,0.0
1614968175070734024,,90026,,1614896148,88873632,"""0""",11.0,0.0,12.3500003815,0.0
1614968175115341901,,90027,,1614896148,138884569,"""0""",11.0,0.0,12.3500003815,0.0
1614968175160506010,,90028,,1614896148,188791653,"""0""",11.0,0.0,12.3500003815,0.0
1614968175213047027,,90029,,1614896148,238793423,"""0""",11.0,0.375,12.3500003815,0.0
1614968175251173973,,90030,,1614896148,288811965,"""0""",11.0,0.375,12.3500003815,0.0
1614968175352051019,,90031,,1614896148,338784413,"""0""",11.0,0.375,12.3000001907,0.0
1614968175352159023,,90032,,1614896148,388790246,"""0""",11.0,0.375,12.3000001907,0.0
1614968175396322965,,90033,,1614896148,438784048,"""0""",11.0,0.375,12.3000001907,0.0
1614968175442220926,,90034,,1614896148,488783371,"""0""",11.0,0.625,12.3000001907,0.0
1614968175493613958,,90035,,1614896148,538787173,"""0""",11.0,0.625,12.3000001907,0.0
1614968175557440996,,90036,,1614896148,588823475,"""0""",11.0,0.625,12.3000001907,0.0
1614968175605253934,,90037,,1614896148,638797434,"""0""",11.0,0.375,12.3000001907,0.0
1614968175656888008,,90038,,1614896148,688821965,"""0""",11.0,0.625,12.3000001907,0.0
1614968175693835973,,90039,,1614896148,738788423,"""0""",11.0,1.375,12.3000001907,0.0
1614968175751182079,,90040,,1614896148,788800142,"""0""",12.0,0.625,12.25,0.0
1614968175861152887,,90041,,1614896148,838835142,"""0""",12.0,0.375,12.25,0.0
1614968175861278057,,90042,,1614896148,888787798,"""0""",12.0,0.375,12.25,0.0
1614968175910048007,,90043,,1614896148,938797121,"""0""",12.0,0.625,12.25,0.0
1614968175960227966,,90044,,1614896148,988782902,"""0""",11.0,0.625,12.3000001907,0.0
1614968176025098085,,90045,,1614896149,38790194,"""0""",11.0,0.625,12.3000001907,0.0
1614968176063026905,,90046,,1614896149,88789100,"""0""",11.0,0.625,12.3000001907,0.0
1614968176112842082,,90047,,1614896149,138862017,"""0""",11.0,1.0,12.25,0.0
1614968176157418966,,90048,,1614896149,188789673,"""0""",11.0,1.0,12.25,0.0
1614968176197974920,,90049,,1614896149,238873683,"""0""",11.0,1.0,12.25,0.0
1614968176265455961,,90050,,1614896149,288793163,"""0""",11.0,1.0,12.25,0.0
1614968176309849023,,90051,,1614896149,338844881,"""0""",11.0,1.0,12.25,0.0
1614968176348289966,,90052,,1614896149,388773058,"""0""",11.0,1.375,12.25,0.0
1614968176395935058,,90053,,1614896149,438794517,"""0""",11.0,1.0,12.25,0.0
1614968176467137098,,90054,,1614896149,488772225,"""0""",11.0,0.625,12.25,0.0
1614968176513710975,,90055,,1614896149,538790038,"""0""",11.0,0.375,12.25,0.0
1614968176558737993,,90056,,1614896149,588787798,"""0""",11.0,0.375,12.25,0.0
1614968176606396913,,90057,,1614896149,638898058,"""0""",11.0,0.375,12.25,0.0
1614968176644690990,,90058,,1614896149,688781131,"""0""",11.0,0.375,12.25,0.0
1614968176693942070,,90059,,1614896149,738772642,"""0""",11.0,0.375,12.25,0.0
1614968176744771957,,90060,,1614896149,788800506,"""0""",11.0,0.375,12.3000001907,0.0
1614968176795842885,,90061,,1614896149,838796912,"""0""",11.0,0.625,12.3000001907,0.0
1614968176840786933,,90062,,1614896149,888768892,"""0""",11.0,0.625,12.3000001907,0.0
1614968176893100023,,90063,,1614896149,938782225,"""0""",11.0,0.625,12.25,0.0
1614968176947053909,,90064,,1614896149,988842173,"""0""",11.0,0.625,12.25,0.0
1614968177060801982,,90065,,1614896150,38833319,"""0""",11.0,0.625,12.25,0.0
1614968177060906887,,90066,,1614896150,88791652,"""0""",11.0,0.625,12.25,0.0
1614968177183845996,,90067,,1614896150,138868214,"""0""",11.0,0.625,12.25,0.0
1614968177183979988,,90068,,1614896150,188796704,"""0""",11.0,0.625,12.25,0.0
1614968177223108053,,90069,,1614896150,238871808,"""0""",11.0,0.375,12.25,0.0
1614968177254725933,,90070,,1614896150,288796548,"""0""",11.0,0.375,12.25,0.0
1614968177303514957,,90071,,1614896150,338842641,"""0""",11.0,0.375,12.25,0.0
1614968177350822925,,90072,,1614896150,388759621,"""0""",11.0,0.375,12.25,0.0
1614968177403630971,,90073,,1614896150,438829412,"""0""",11.0,0.625,12.25,0.0
1614968177455076932,,90074,,1614896150,488743266,"""0""",11.0,0.625,12.25,0.0
1614968177517127990,,90075,,1614896150,538845870,"""0""",11.0,0.375,12.25,0.0
1614968177589845895,,90076,,1614896150,588863631,"""0""",11.0,0.375,12.3000001907,0.0
1614968177650696992,,90077,,1614896150,638878214,"""0""",11.0,1.0,12.3000001907,0.0
1614968177650831937,,90078,,1614896150,688781704,"""0""",11.0,1.375,12.3000001907,0.0
1614968177699307918,,90079,,1614896150,738907954,"""0""",11.0,1.0,12.1999998093,0.0
1614968177743412971,,90080,,1614896150,788776443,"""0""",11.0,1.0,12.1999998093,0.0
1614968177810646057,,90081,,1614896150,838824933,"""0""",11.0,0.625,12.1999998093,0.0
1614968177853952884,,90082,,1614896150,888750870,"""0""",11.0,0.375,12.25,0.0
1614968177927216053,,90083,,1614896150,938951287,"""0""",11.0,0.375,12.25,0.0
1614968177969077110,,90084,,1614896150,988859412,"""0""",11.0,1.0,12.25,0.0
1614968178019262075,,90085,,1614896151,38914308,"""0""",11.0,0.625,12.25,0.0
1614968178094046115,,90086,,1614896151,88796495,"""0""",11.0,0.375,12.25,0.0
1614968178130523920,,90087,,1614896151,138993526,"""0""",11.0,0.375,12.25,0.0
1614968178185106039,,90088,,1614896151,188777485,"""0""",11.0,0.375,12.3000001907,0.0
1614968178236859083,,90089,,1614896151,238940454,"""0""",11.0,0.375,12.3000001907,0.0
1614968178272123098,,90090,,1614896151,288771339,"""0""",11.0,0.625,12.3000001907,0.0
1614968178317605018,,90091,,1614896151,338849620,"""0""",11.0,0.625,12.3000001907,0.0
1614968178366875886,,90092,,1614896151,388774933,"""0""",11.0,1.0,12.25,0.0
1614968178403533935,,90093,,1614896151,438806808,"""0""",11.0,1.75,12.25,0.0
1614968178461251020,,90094,,1614896151,488858474,"""0""",11.0,1.75,12.25,0.0
1614968178539534091,,90095,,1614896151,538865401,"""0""",11.0,2.0,12.1999998093,0.0
1614968178579418897,,90096,,1614896151,588840037,"""0""",11.0,1.75,12.1999998093,0.0
1614968178632338047,,90097,,1614896151,638820714,"""0""",11.0,1.75,12.1999998093,0.0
1614968178673343896,,90098,,1614896151,688793318,"""0""",11.0,1.375,12.25,0.0
1614968178726653099,,90099,,1614896151,738816078,"""0""",11.0,0.625,12.25,0.0
1614968178853257894,,90100,,1614896151,788791287,"""0""",11.0,0.625,12.25,0.0
1614968178853431940,,90101,,1614896151,838965870,"""0""",11.0,0.375,12.3000001907,0.0
1614968178853460073,,90102,,1614896151,888885349,"""0""",11.0,0.625,12.3000001907,0.0
1614968178888596057,,90103,,1614896151,938859255,"""0""",11.0,1.375,12.3000001907,0.0
1614968178943192005,,90104,,1614896151,988750401,"""0""",11.0,1.75,12.1999998093,0.0
1614968178992098093,,90105,,1614896152,38777641,"""0""",11.0,1.75,12.1999998093,0.0
1614968179044951915,,90106,,1614896152,88779203,"""0""",11.0,1.0,12.1999998093,0.0
1614968179141483068,,90107,,1614896152,138893005,"""0""",11.0,0.625,12.1999998093,0.0
1614968179180121898,,90108,,1614896152,188800922,"""0""",11.0,1.0,12.25,0.0
1614968179234716892,,90109,,1614896152,238816599,"""0""",11.0,1.375,12.25,0.0
1614968179271414995,,90110,,1614896152,288796339,"""0""",11.0,1.0,12.25,0.0
1614968179351716995,,90111,,1614896152,338885557,"""0""",11.0,0.625,12.25,0.0
1614968179351840019,,90112,,1614896152,388805714,"""0""",11.0,0.625,12.25,0.0
1614968179431612014,,90113,,1614896152,438779359,"""0""",11.0,0.375,12.25,0.0
1614968179499875068,,90114,,1614896152,488790505,"""0""",11.0,0.375,12.3000001907,0.0
1614968179499979019,,90115,,1614896152,538812953,"""0""",11.0,0.625,12.3000001907,0.0
1614968179553467988,,90116,,1614896152,588783943,"""0""",11.0,1.0,12.3000001907,0.0
1614968179595696926,,90117,,1614896152,638920818,"""0""",11.0,0.625,12.25,0.0
1614968179641071081,,90118,,1614896152,688769151,"""0""",11.0,0.375,12.25,0.0
1614968179704221963,,90119,,1614896152,738791495,"""0""",11.0,1.0,12.25,0.0
1614968179788659095,,90120,,1614896152,788758265,"""0""",11.0,0.625,12.25,0.0
1614968179834948062,,90121,,1614896152,838843213,"""0""",11.0,0.375,12.25,0.0
1614968179873775005,,90122,,1614896152,889057588,"""0""",11.0,0.375,12.25,0.0
1614968179915683984,,90123,,1614896152,938781807,"""0""",12.0,0.375,12.3000001907,0.0
1614968179962352991,,90124,,1614896152,988793005,"""0""",12.0,0.625,12.3000001907,0.0
1614968180018321037,,90125,,1614896153,38778995,"""0""",12.0,3.375,12.3000001907,0.0
1614968180116099119,,90126,,1614896153,88825349,"""0""",12.0,3.875,12.3000001907,0.0
1614968180116214990,,90127,,1614896153,138810297,"""0""",11.0,3.875,12.1499996185,0.0
1614968180165440082,,90128,,1614896153,188777536,"""0""",11.0,4.0,12.1499996185,0.0
1614968180227464914,,90129,,1614896153,238819776,"""0""",11.0,4.125,12.1499996185,0.0
1614968180272496938,,90130,,1614896153,288844828,"""0""",11.0,4.125,12.1000003815,0.0
1614968180326510906,,90131,,1614896153,338778682,"""0""",11.0,4.25,12.1000003815,0.0
1614968180375252008,,90132,,1614896153,388783994,"""0""",11.0,4.125,12.1000003815,0.0
1614968180450457096,,90133,,1614896153,438771130,"""0""",11.0,4.25,12.0500001907,0.0
1614968180450572013,,90134,,1614896153,488864255,"""0""",11.0,4.125,12.0500001907,0.0
1614968180504652023,,90135,,1614896153,538785609,"""0""",11.0,4.0,12.0500001907,0.0
1614968180654619932,,90136,,1614896153,589022484,"""0""",11.0,4.0,12.1000003815,0.0
1614968180654747009,,90137,,1614896153,638774151,"""0""",11.0,4.0,12.1000003815,0.0
1614968180654769897,,90138,,1614896153,688778161,"""0""",11.0,4.0,12.1000003815,0.0
1614968180709873914,,90139,,1614896153,738762328,"""0""",11.0,4.0,12.0500001907,0.0
1614968180744442939,,90140,,1614896153,788817848,"""0""",11.0,4.125,12.0500001907,0.0
1614968180808254957,,90141,,1614896153,839027588,"""0""",11.0,4.125,12.0500001907,0.0
1614968180837531089,,90142,,1614896153,888840088,"""0""",11.0,4.125,12.0500001907,0.0
1614968180894452095,,90143,,1614896153,939850869,"""0""",11.0,4.125,12.1000003815,0.0
1614968180944967031,,90144,,1614896153,988819202,"""0""",11.0,4.125,12.1000003815,0.0
1614968180995245933,,90145,,1614896154,38893682,"""0""",11.0,4.125,12.1000003815,0.0
1614968181041373014,,90146,,1614896154,88968473,"""0""",11.0,4.25,12.1000003815,0.0
1614968181089099884,,90147,,1614896154,138829619,"""0""",11.0,4.125,12.1000003815,0.0
1614968181142641067,,90148,,1614896154,188808005,"""0""",11.0,4.25,12.1000003815,0.0
1614968181193347930,,90149,,1614896154,238779984,"""0""",11.0,4.25,12.0500001907,0.0
1614968181243585109,,90150,,1614896154,288934775,"""0""",11.0,4.25,12.0500001907,0.0
