rosbagTimestamp,header,seq,stamp,secs,nsecs,frame_id,Temperature,OutputCurrent,BusVoltage,ClosedLoopError
1614965080554120063,,28138,,1614893053,688909708,"""0""",12.0,0.0,12.4499998093,0.0
1614965080607670068,,28139,,1614893053,738908771,"""0""",12.0,0.0,12.4499998093,0.0
1614965080658884048,,28140,,1614893053,788879656,"""0""",12.0,0.0,12.4499998093,0.0
1614965080710263013,,28141,,1614893053,838784343,"""0""",12.0,0.0,12.4499998093,0.0
1614965080766859054,,28142,,1614893053,889859500,"""0""",12.0,0.0,12.4499998093,0.0
1614965080818804025,,28143,,1614893053,938779343,"""0""",12.0,0.0,12.4499998093,0.0
1614965080856816053,,28144,,1614893053,988786531,"""0""",12.0,0.0,12.4499998093,0.0
1614965080913621902,,28145,,1614893054,38789760,"""0""",12.0,0.0,12.4499998093,0.0
1614965080964402914,,28146,,1614893054,88898562,"""0""",12.0,0.0,12.4499998093,0.0
1614965081017992019,,28147,,1614893054,138817468,"""0""",12.0,0.0,12.4499998093,0.0
1614965081063676118,,28148,,1614893054,189242000,"""0""",12.0,0.0,12.4499998093,0.0
1614965081108014106,,28149,,1614893054,238899656,"""0""",12.0,0.0,12.4499998093,0.0
1614965081160326004,,28150,,1614893054,288968822,"""0""",12.0,0.0,12.4499998093,0.0
1614965081214883089,,28151,,1614893054,338767468,"""0""",12.0,0.0,12.4499998093,0.0
1614965081271939992,,28152,,1614893054,389272989,"""0""",12.0,0.0,12.4499998093,0.0
1614965081319247961,,28153,,1614893054,438774604,"""0""",12.0,0.0,12.4499998093,0.0
1614965081365197896,,28154,,1614893054,488963249,"""0""",12.0,0.0,12.4499998093,0.0
1614965081411746978,,28155,,1614893054,538802052,"""0""",12.0,0.0,12.4499998093,0.0
1614965081474787950,,28156,,1614893054,588855801,"""0""",12.0,0.0,12.4499998093,0.0
1614965081523911952,,28157,,1614893054,638815645,"""0""",12.0,0.0,12.4499998093,0.0
1614965081567605018,,28158,,1614893054,688925854,"""0""",12.0,0.0,12.4499998093,0.0
1614965081622353076,,28159,,1614893054,738826791,"""0""",12.0,0.0,12.4499998093,0.0
1614965081669243097,,28160,,1614893054,788816791,"""0""",12.0,0.0,12.4499998093,0.0
1614965081722585916,,28161,,1614893054,838833562,"""0""",12.0,0.0,12.4499998093,0.0
1614965081775608062,,28162,,1614893054,889108510,"""0""",12.0,0.0,12.4499998093,0.0
1614965081825591087,,28163,,1614893054,938762208,"""0""",12.0,0.0,12.4499998093,0.0
1614965081875188112,,28164,,1614893054,988811322,"""0""",12.0,0.0,12.4499998093,0.0
1614965081924186944,,28165,,1614893055,38902051,"""0""",12.0,0.0,12.4499998093,0.0
1614965081969973087,,28166,,1614893055,88936843,"""0""",12.0,0.0,12.4499998093,0.0
1614965082023410081,,28167,,1614893055,138758249,"""0""",12.0,0.0,12.4499998093,0.0
1614965082081595897,,28168,,1614893055,188818666,"""0""",12.0,0.0,12.4499998093,0.0
1614965082120687961,,28169,,1614893055,238877885,"""0""",12.0,0.0,12.4499998093,0.0
1614965082168277025,,28170,,1614893055,288830176,"""0""",12.0,0.0,12.4499998093,0.0
1614965082218286991,,28171,,1614893055,338786010,"""0""",12.0,0.0,12.4499998093,0.0
1614965082271152973,,28172,,1614893055,389264499,"""0""",12.0,0.0,12.4499998093,0.0
1614965082320410013,,28173,,1614893055,438788666,"""0""",12.0,0.0,12.4499998093,0.0
1614965082393227100,,28174,,1614893055,488918718,"""0""",12.0,0.0,12.4499998093,0.0
1614965082436531066,,28175,,1614893055,538776166,"""0""",12.0,0.0,12.4499998093,0.0
1614965082474504947,,28176,,1614893055,589141999,"""0""",12.0,0.0,12.4499998093,0.0
1614965082523845911,,28177,,1614893055,638837832,"""0""",12.0,0.0,12.4499998093,0.0
1614965082572684049,,28178,,1614893055,688865228,"""0""",12.0,0.0,12.4499998093,0.0
1614965082630918979,,28179,,1614893055,738774447,"""0""",12.0,0.0,12.4499998093,0.0
1614965082670834064,,28180,,1614893055,788794707,"""0""",12.0,0.0,12.4499998093,0.0
1614965082722801923,,28181,,1614893055,838783405,"""0""",12.0,0.0,12.4499998093,0.0
1614965082772353887,,28182,,1614893055,888824863,"""0""",12.0,0.0,12.4499998093,0.0
1614965082824626922,,28183,,1614893055,938787676,"""0""",12.0,0.0,12.4499998093,0.0
1614965082873982906,,28184,,1614893055,989048978,"""0""",12.0,0.0,12.4499998093,0.0
1614965082944230079,,28185,,1614893056,38835280,"""0""",12.0,0.0,12.4499998093,0.0
1614965083001792907,,28186,,1614893056,88799915,"""0""",12.0,0.0,12.4499998093,0.0
1614965083036072015,,28187,,1614893056,138829655,"""0""",12.0,0.0,12.4499998093,0.0
1614965083074405908,,28188,,1614893056,188936322,"""0""",12.0,0.0,12.4499998093,0.0
1614965083121939897,,28189,,1614893056,238777520,"""0""",12.0,0.0,12.4499998093,0.0
1614965083177946090,,28190,,1614893056,288873561,"""0""",12.0,0.0,12.4499998093,0.0
1614965083228753089,,28191,,1614893056,338788353,"""0""",12.0,0.0,12.4499998093,0.0
1614965083274041891,,28192,,1614893056,388866634,"""0""",12.0,0.0,12.4499998093,0.0
1614965083328325986,,28193,,1614893056,438842259,"""0""",12.0,0.0,12.4499998093,0.0
1614965083368776082,,28194,,1614893056,488819030,"""0""",12.0,0.0,12.4499998093,0.0
1614965083426012039,,28195,,1614893056,538816426,"""0""",12.0,0.0,12.4499998093,0.0
1614965083471107006,,28196,,1614893056,589037519,"""0""",12.0,0.0,12.4499998093,0.0
1614965083525635957,,28197,,1614893056,638832155,"""0""",12.0,0.0,12.4499998093,0.0
1614965083575155973,,28198,,1614893056,688860280,"""0""",12.0,0.0,12.4499998093,0.0
1614965083619401931,,28199,,1614893056,738782572,"""0""",12.0,0.0,12.4499998093,0.0
1614965083674550056,,28200,,1614893056,788800853,"""0""",12.0,0.0,12.4499998093,0.0
1614965083733046054,,28201,,1614893056,838799030,"""0""",12.0,0.0,12.4499998093,0.0
1614965083783427000,,28202,,1614893056,888944290,"""0""",12.0,0.0,12.4499998093,0.0
1614965083835726022,,28203,,1614893056,938792311,"""0""",12.0,0.0,12.4499998093,0.0
1614965083870767116,,28204,,1614893056,988820123,"""0""",12.0,0.0,12.4499998093,0.0
1614965083926820039,,28205,,1614893057,38973092,"""0""",12.0,0.0,12.4499998093,0.0
1614965083968610048,,28206,,1614893057,88785384,"""0""",12.0,0.0,12.4499998093,0.0
1614965084027040004,,28207,,1614893057,138788561,"""0""",12.0,0.0,12.4499998093,0.0
1614965084070913076,,28208,,1614893057,188849342,"""0""",12.0,0.0,12.4499998093,0.0
1614965084130407094,,28209,,1614893057,238790228,"""0""",12.0,0.0,12.4499998093,0.0
1614965084173499107,,28210,,1614893057,288806946,"""0""",12.0,0.0,12.4499998093,0.0
1614965084221940994,,28211,,1614893057,338886530,"""0""",12.0,0.0,12.4499998093,0.0
1614965084281424999,,28212,,1614893057,388817155,"""0""",12.0,0.0,12.4499998093,0.0
1614965084322477102,,28213,,1614893057,438769238,"""0""",12.0,0.0,12.4499998093,0.0
1614965084370923042,,28214,,1614893057,488826738,"""0""",12.0,0.0,12.4499998093,0.0
1614965084419207096,,28215,,1614893057,538846894,"""0""",12.0,0.0,12.4499998093,0.0
1614965084468374013,,28216,,1614893057,588826894,"""0""",12.0,0.0,12.4499998093,0.0
1614965084520904064,,28217,,1614893057,638771582,"""0""",12.0,0.0,12.4499998093,0.0
1614965084573653936,,28218,,1614893057,688957727,"""0""",12.0,0.0,12.4499998093,0.0
1614965084626112937,,28219,,1614893057,738861790,"""0""",12.0,0.0,12.4499998093,0.0
1614965084673865079,,28220,,1614893057,789025175,"""0""",12.0,0.0,12.4499998093,0.0
1614965084749681949,,28221,,1614893057,838726321,"""0""",12.0,0.0,12.4499998093,0.0
1614965084806082010,,28222,,1614893057,888846581,"""0""",12.0,0.0,12.4499998093,0.0
1614965084844595909,,28223,,1614893057,938772102,"""0""",12.0,0.0,12.4499998093,0.0
1614965084889370918,,28224,,1614893057,989084342,"""0""",12.0,0.0,12.4499998093,0.0
1614965084925005912,,28225,,1614893058,39075904,"""0""",12.0,0.0,12.4499998093,0.0
1614965084981560945,,28226,,1614893058,88868821,"""0""",12.0,0.0,12.4499998093,0.0
1614965085060295104,,28227,,1614893058,138875800,"""0""",12.0,0.0,12.4499998093,0.0
1614965085060524940,,28228,,1614893058,188883404,"""0""",12.0,0.0,12.4499998093,0.0
1614965085122378110,,28229,,1614893058,238970748,"""0""",12.0,0.0,12.4499998093,0.0
1614965085175144910,,28230,,1614893058,288843196,"""0""",12.0,0.0,12.4499998093,0.0
1614965085220638036,,28231,,1614893058,338782988,"""0""",12.0,0.0,12.4499998093,0.0
1614965085272674083,,28232,,1614893058,388819394,"""0""",12.0,0.0,12.4499998093,0.0
1614965085338860034,,28233,,1614893058,438775748,"""0""",12.0,0.0,12.4499998093,0.0
1614965085377269029,,28234,,1614893058,488794238,"""0""",12.0,0.0,12.4499998093,0.0
1614965085422103881,,28235,,1614893058,538748873,"""0""",12.0,0.0,12.4499998093,0.0
1614965085474721908,,28236,,1614893058,588911790,"""0""",12.0,0.0,12.4499998093,0.0
1614965085518970012,,28237,,1614893058,638777415,"""0""",12.0,0.0,12.4499998093,0.0
1614965085578293085,,28238,,1614893058,688874290,"""0""",12.0,0.0,12.4499998093,0.0
1614965085645078897,,28239,,1614893058,738829289,"""0""",12.0,0.0,12.4499998093,0.0
1614965085678071022,,28240,,1614893058,788851633,"""0""",11.0,13.5,11.8500003815,0.0
1614965085720774888,,28241,,1614893058,838831477,"""0""",11.0,11.625,11.8500003815,0.0
1614965085776396036,,28242,,1614893058,888841894,"""0""",11.0,11.5,11.8500003815,0.0
1614965085826493024,,28243,,1614893058,938836269,"""0""",12.0,11.125,11.75,0.0
1614965085874814987,,28244,,1614893058,988810331,"""0""",12.0,11.625,11.75,0.0
1614965085937997102,,28245,,1614893059,38789550,"""0""",12.0,10.875,11.75,0.0
1614965085987037897,,28246,,1614893059,88881946,"""0""",12.0,9.5,11.75,0.0
1614965086022289037,,28247,,1614893059,138790852,"""0""",12.0,8.0,11.75,0.0
1614965086072597980,,28248,,1614893059,188828039,"""0""",12.0,7.375,11.75,0.0
1614965086121171951,,28249,,1614893059,238771425,"""0""",12.0,6.75,12.0500001907,0.0
1614965086179888010,,28250,,1614893059,288808196,"""0""",12.0,3.0,12.0500001907,0.0
1614965086245796918,,28251,,1614893059,338801477,"""0""",12.0,1.75,12.0500001907,0.0
1614965086282706022,,28252,,1614893059,388783820,"""0""",12.0,3.75,12.0500001907,0.0
1614965086324521064,,28253,,1614893059,438801268,"""0""",12.0,4.75,12.0500001907,0.0
1614965086373045921,,28254,,1614893059,488841112,"""0""",12.0,2.0,12.0500001907,0.0
1614965086426523923,,28255,,1614893059,538807831,"""0""",12.0,1.375,12.0500001907,0.0
1614965086481467008,,28256,,1614893059,589045956,"""0""",12.0,1.0,12.25,0.0
1614965086561733007,,28257,,1614893059,638778716,"""0""",12.0,7.375,12.25,0.0
1614965086593059062,,28258,,1614893059,688802883,"""0""",12.0,7.875,12.25,0.0
1614965086632030010,,28259,,1614893059,738799289,"""0""",12.0,6.125,12.1000003815,0.0
1614965086673598051,,28260,,1614893059,789101372,"""0""",12.0,3.75,12.1000003815,0.0
1614965086720830917,,28261,,1614893059,838793039,"""0""",12.0,6.125,12.1000003815,0.0
1614965086772947072,,28262,,1614893059,888852414,"""0""",12.0,6.75,12.0500001907,0.0
1614965086860088109,,28263,,1614893059,938858247,"""0""",12.0,4.375,12.0500001907,0.0
1614965086890816926,,28264,,1614893059,988954758,"""0""",12.0,4.375,12.0500001907,0.0
1614965086921468973,,28265,,1614893060,38781476,"""0""",12.0,3.0,12.1999998093,0.0
1614965086969494104,,28266,,1614893060,88828039,"""0""",12.0,1.375,12.1999998093,0.0
1614965087031259059,,28267,,1614893060,138774862,"""0""",12.0,1.0,12.1999998093,0.0
1614965087079991102,,28268,,1614893060,188801789,"""0""",12.0,1.375,12.1999998093,0.0
1614965087159017086,,28269,,1614893060,238781737,"""0""",12.0,1.375,12.25,0.0
1614965087199058055,,28270,,1614893060,288883872,"""0""",12.0,1.0,12.25,0.0
1614965087229054927,,28271,,1614893060,338892049,"""0""",12.0,2.375,12.25,0.0
1614965087269618034,,28272,,1614893060,388908456,"""0""",12.0,7.0,12.0,0.0
1614965087328069925,,28273,,1614893060,438812987,"""0""",12.0,3.75,12.0,0.0
1614965087372052907,,28274,,1614893060,489012883,"""0""",12.0,2.375,12.0,0.0
1614965087431499958,,28275,,1614893060,538829705,"""0""",12.0,2.375,12.1999998093,0.0
1614965087513391017,,28276,,1614893060,588902518,"""0""",12.0,5.5,12.1999998093,0.0
1614965087557111024,,28277,,1614893060,638789289,"""0""",12.0,6.875,12.1999998093,0.0
1614965087613100051,,28278,,1614893060,688804497,"""0""",12.0,6.75,12.0500001907,0.0
1614965087641856908,,28279,,1614893060,738822935,"""0""",12.0,6.75,12.0500001907,0.0
1614965087671273946,,28280,,1614893060,788794862,"""0""",12.0,6.875,12.0500001907,0.0
1614965087732573986,,28281,,1614893060,838864705,"""0""",12.0,6.625,12.0500001907,0.0
1614965087774091958,,28282,,1614893060,888875747,"""0""",12.0,6.125,12.0500001907,0.0
1614965087826929092,,28283,,1614893060,938788768,"""0""",12.0,5.5,12.0500001907,0.0
1614965087873637914,,28284,,1614893060,988816320,"""0""",12.0,4.125,12.0500001907,0.0
1614965087932470083,,28285,,1614893061,38808716,"""0""",12.0,3.375,12.1499996185,0.0
1614965087980191946,,28286,,1614893061,88813299,"""0""",12.0,6.875,12.1499996185,0.0
1614965088044333934,,28287,,1614893061,138848820,"""0""",12.0,7.125,12.1499996185,0.0
1614965088084898948,,28288,,1614893061,188795955,"""0""",12.0,5.5,12.0500001907,0.0
1614965088129082918,,28289,,1614893061,238785382,"""0""",12.0,2.375,12.0500001907,0.0
1614965088173609972,,28290,,1614893061,289303768,"""0""",12.0,5.75,12.0500001907,0.0
1614965088227480888,,28291,,1614893061,338773455,"""0""",12.0,7.25,12.0,0.0
1614965088277590036,,28292,,1614893061,388926945,"""0""",12.0,7.125,12.0,0.0
1614965088347196102,,28293,,1614893061,438782986,"""0""",12.0,6.75,12.0,0.0
1614965088375752925,,28294,,1614893061,488791893,"""0""",12.0,6.875,12.0,0.0
1614965088423650026,,28295,,1614893061,538757518,"""0""",12.0,7.0,12.0,0.0
1614965088474296092,,28296,,1614893061,588874705,"""0""",12.0,6.625,12.0,0.0
1614965088519762039,,28297,,1614893061,638781580,"""0""",12.0,4.125,12.1000003815,0.0
1614965088577330112,,28298,,1614893061,688780799,"""0""",12.0,4.75,12.1000003815,0.0
1614965088643306970,,28299,,1614893061,738925538,"""0""",12.0,5.75,12.1000003815,0.0
1614965088674916982,,28300,,1614893061,788804913,"""0""",12.0,4.375,12.1000003815,0.0
1614965088734807014,,28301,,1614893061,838819497,"""0""",12.0,6.75,12.1000003815,0.0
1614965088772402048,,28302,,1614893061,888816267,"""0""",12.0,7.0,12.1000003815,0.0
1614965088827938079,,28303,,1614893061,938841684,"""0""",12.0,4.125,12.1000003815,0.0
1614965088872499942,,28304,,1614893061,988797257,"""0""",11.0,3.375,12.1000003815,0.0
1614965088955188035,,28305,,1614893062,38820226,"""0""",11.0,6.625,12.1000003815,0.0
1614965088975056886,,28306,,1614893062,88829549,"""0""",11.0,7.0,12.1000003815,0.0
1614965089021873950,,28307,,1614893062,138789861,"""0""",11.0,7.625,11.8999996185,0.0
1614965089074767112,,28308,,1614893062,188795903,"""0""",11.0,7.5,11.8999996185,0.0
1614965089124057054,,28309,,1614893062,238824653,"""0""",11.0,7.0,11.8999996185,0.0
1614965089172811985,,28310,,1614893062,288797778,"""0""",11.0,6.75,12.0,0.0
1614965089247381925,,28311,,1614893062,338767049,"""0""",11.0,6.5,12.0,0.0
1614965089290435075,,28312,,1614893062,388844444,"""0""",11.0,6.875,12.0,0.0
1614965089333759069,,28313,,1614893062,438801215,"""0""",11.0,6.875,12.0,0.0
1614965089381650924,,28314,,1614893062,488873246,"""0""",11.0,6.125,12.0,0.0
1614965089424065113,,28315,,1614893062,538784496,"""0""",11.0,3.0,12.0,0.0
1614965089475320100,,28316,,1614893062,588875330,"""0""",11.0,3.0,12.0,0.0
1614965089542464017,,28317,,1614893062,638799809,"""0""",11.0,6.125,12.1000003815,0.0
1614965089594897985,,28318,,1614893062,689078298,"""0""",11.0,5.125,12.1000003815,0.0
1614965089629257917,,28319,,1614893062,738779340,"""0""",11.0,2.75,12.1000003815,0.0
1614965089675127029,,28320,,1614893062,788877257,"""0""",11.0,2.0,12.1999998093,0.0
1614965089726393938,,28321,,1614893062,838796788,"""0""",11.0,3.375,12.1999998093,0.0
1614965089790714025,,28322,,1614893062,888798715,"""0""",11.0,4.125,12.1999998093,0.0
1614965089840482950,,28323,,1614893062,938789705,"""0""",11.0,3.75,12.1000003815,0.0
1614965089897475957,,28324,,1614893062,989001007,"""0""",11.0,4.125,12.1000003815,0.0
1614965089953615903,,28325,,1614893063,38826684,"""0""",11.0,5.125,12.1000003815,0.0
1614965090010565042,,28326,,1614893063,88799184,"""0""",12.0,5.125,12.0500001907,0.0
1614965090057794094,,28327,,1614893063,138821319,"""0""",12.0,5.125,12.0500001907,0.0
1614965090136687040,,28328,,1614893063,188851579,"""0""",12.0,5.125,12.0500001907,0.0
1614965090136801958,,28329,,1614893063,238770486,"""0""",11.0,4.125,12.1000003815,0.0
1614965090178270101,,28330,,1614893063,288834809,"""0""",11.0,4.125,12.1000003815,0.0
1614965090227999925,,28331,,1614893063,338822413,"""0""",11.0,5.75,12.1000003815,0.0
1614965090274379014,,28332,,1614893063,388978402,"""0""",11.0,6.625,12.1000003815,0.0
1614965090319082021,,28333,,1614893063,438781996,"""0""",11.0,5.125,12.0500001907,0.0
1614965090383305072,,28334,,1614893063,488814861,"""0""",11.0,3.375,12.0500001907,0.0
1614965090424627065,,28335,,1614893063,538875433,"""0""",11.0,4.125,12.0500001907,0.0
1614965090477739095,,28336,,1614893063,588860017,"""0""",11.0,5.125,12.0500001907,0.0
1614965090519753932,,28337,,1614893063,638789548,"""0""",11.0,6.75,12.0500001907,0.0
1614965090573926925,,28338,,1614893063,688863402,"""0""",11.0,6.875,12.0500001907,0.0
1614965090642316102,,28339,,1614893063,738893663,"""0""",11.0,8.25,11.8000001907,0.0
1614965090701076984,,28340,,1614893063,789185329,"""0""",11.0,8.375,11.8000001907,0.0
1614965090762238979,,28341,,1614893063,838901683,"""0""",11.0,7.25,11.8000001907,0.0
1614965090797127008,,28342,,1614893063,888785329,"""0""",12.0,7.375,11.8500003815,0.0
1614965090822993993,,28343,,1614893063,938821527,"""0""",12.0,9.625,11.8500003815,0.0
1614965090872723102,,28344,,1614893063,988778454,"""0""",12.0,8.125,11.8500003815,0.0
1614965090928051948,,28345,,1614893064,39033819,"""0""",11.0,7.625,11.8500003815,0.0
1614965090973956108,,28346,,1614893064,88903819,"""0""",11.0,10.125,11.8500003815,0.0
1614965091040060997,,28347,,1614893064,138809131,"""0""",11.0,12.625,11.8500003815,0.0
1614965091075448036,,28348,,1614893064,188779652,"""0""",11.0,9.5,11.8500003815,0.0
1614965091120403051,,28349,,1614893064,238794964,"""0""",11.0,8.0,11.8500003815,0.0
1614965091183689117,,28350,,1614893064,288791892,"""0""",11.0,9.625,11.8500003815,0.0
1614965091234349966,,28351,,1614893064,339050277,"""0""",11.0,10.625,11.8500003815,0.0
1614965091274386882,,28352,,1614893064,388995902,"""0""",11.0,11.125,11.6499996185,0.0
1614965091348566055,,28353,,1614893064,438873089,"""0""",11.0,10.125,11.6499996185,0.0
1614965091384577989,,28354,,1614893064,488829496,"""0""",11.0,9.75,11.6499996185,0.0
1614965091423044919,,28355,,1614893064,539087412,"""0""",11.0,10.25,11.6999998093,0.0
1614965091475642919,,28356,,1614893064,588842777,"""0""",11.0,10.75,11.6999998093,0.0
1614965091524641990,,28357,,1614893064,639037777,"""0""",11.0,9.875,11.6999998093,0.0
1614965091587295055,,28358,,1614893064,688922985,"""0""",11.0,9.0,11.6999998093,0.0
1614965091636018991,,28359,,1614893064,738974339,"""0""",11.0,9.875,11.6999998093,0.0
1614965091673692941,,28360,,1614893064,788815902,"""0""",11.0,10.125,11.6999998093,0.0
1614965091729732990,,28361,,1614893064,838893350,"""0""",11.0,9.25,11.6999998093,0.0
1614965091773917913,,28362,,1614893064,888792673,"""0""",11.0,9.0,11.6999998093,0.0
1614965091827164888,,28363,,1614893064,938848245,"""0""",11.0,9.875,11.6999998093,0.0
1614965091877310991,,28364,,1614893064,988822204,"""0""",11.0,11.875,11.6999998093,0.0
1614965091933356046,,28365,,1614893065,38889339,"""0""",11.0,11.625,11.5,0.0
1614965091985069990,,28366,,1614893065,88767672,"""0""",11.0,9.625,11.5,0.0
1614965092023561000,,28367,,1614893065,138756266,"""0""",11.0,8.875,11.5,0.0
1614965092072364091,,28368,,1614893065,188790902,"""0""",11.0,8.625,11.75,0.0
1614965092124793052,,28369,,1614893065,238800120,"""0""",11.0,8.375,11.75,0.0
1614965092174009084,,28370,,1614893065,288800329,"""0""",11.0,8.375,11.75,0.0
1614965092233717918,,28371,,1614893065,338848193,"""0""",11.0,8.375,11.8000001907,0.0
1614965092278516054,,28372,,1614893065,388870224,"""0""",11.0,8.0,11.8000001907,0.0
1614965092321533918,,28373,,1614893065,438847777,"""0""",11.0,8.0,11.8000001907,0.0
1614965092374030113,,28374,,1614893065,488785433,"""0""",11.0,7.125,11.9499998093,0.0
1614965092432060003,,28375,,1614893065,538905224,"""0""",11.0,4.375,11.9499998093,0.0
1614965092474065065,,28376,,1614893065,588846110,"""0""",11.0,2.375,11.9499998093,0.0
1614965092531363964,,28377,,1614893065,638807099,"""0""",11.0,2.0,12.1000003815,0.0
1614965092607654094,,28378,,1614893065,688783037,"""0""",11.0,1.75,12.1000003815,0.0
1614965092643522024,,28379,,1614893065,738844703,"""0""",11.0,1.0,12.1000003815,0.0
1614965092674350976,,28380,,1614893065,788846058,"""0""",11.0,1.0,12.1000003815,0.0
1614965092719187021,,28381,,1614893065,838795224,"""0""",12.0,1.375,12.1499996185,0.0
1614965092773626089,,28382,,1614893065,888779183,"""0""",12.0,1.375,12.1499996185,0.0
1614965092846448898,,28383,,1614893065,938751058,"""0""",12.0,0.625,12.1499996185,0.0
1614965092901777982,,28384,,1614893065,988788714,"""0""",11.0,0.375,12.25,0.0
1614965092965058088,,28385,,1614893066,38941891,"""0""",11.0,0.625,12.25,0.0
1614965092999947071,,28386,,1614893066,88852985,"""0""",11.0,1.0,12.25,0.0
1614965093043720006,,28387,,1614893066,138908453,"""0""",11.0,1.0,12.1999998093,0.0
1614965093082739114,,28388,,1614893066,188772099,"""0""",11.0,0.625,12.1999998093,0.0
1614965093127347946,,28389,,1614893066,238824339,"""0""",11.0,1.375,12.1999998093,0.0
1614965093172260046,,28390,,1614893066,288782307,"""0""",11.0,2.75,12.1000003815,0.0
1614965093228291988,,28391,,1614893066,338861370,"""0""",11.0,1.75,12.1000003815,0.0
1614965093282877922,,28392,,1614893066,388890953,"""0""",11.0,1.0,12.1000003815,0.0
1614965093342499971,,28393,,1614893066,438801057,"""0""",11.0,2.75,12.1000003815,0.0
1614965093385596990,,28394,,1614893066,488823141,"""0""",11.0,7.5,12.1000003815,0.0
1614965093449366092,,28395,,1614893066,538805537,"""0""",11.0,7.25,12.1000003815,0.0
1614965093492214918,,28396,,1614893066,588787255,"""0""",11.0,6.625,12.1000003815,0.0
1614965093521230936,,28397,,1614893066,638821682,"""0""",11.0,7.125,12.0,0.0
1614965093597330093,,28398,,1614893066,688840016,"""0""",11.0,7.875,12.0,0.0
1614965093664592981,,28399,,1614893066,738797516,"""0""",11.0,8.0,12.0,0.0
1614965093699980974,,28400,,1614893066,788791734,"""0""",11.0,7.75,11.8500003815,0.0
1614965093753362894,,28401,,1614893066,838785901,"""0""",11.0,8.375,11.8500003815,0.0
1614965093787384033,,28402,,1614893066,888778349,"""0""",11.0,9.625,11.8500003815,0.0
1614965093851350069,,28403,,1614893066,938832411,"""0""",11.0,8.0,11.75,0.0
1614965093879106998,,28404,,1614893066,988824443,"""0""",11.0,7.875,11.75,0.0
1614965093935440063,,28405,,1614893067,39009286,"""0""",11.0,9.0,11.75,0.0
1614965093977350950,,28406,,1614893067,88813349,"""0""",11.0,8.125,11.8500003815,0.0
1614965094030647993,,28407,,1614893067,138884755,"""0""",11.0,7.625,11.8500003815,0.0
1614965094082555055,,28408,,1614893067,188862307,"""0""",11.0,7.375,11.8500003815,0.0
1614965094131664991,,28409,,1614893067,238785536,"""0""",11.0,7.375,11.8000001907,0.0
1614965094197067022,,28410,,1614893067,288817828,"""0""",11.0,8.375,11.8000001907,0.0
1614965094226409912,,28411,,1614893067,338842828,"""0""",11.0,8.375,11.8000001907,0.0
1614965094280100107,,28412,,1614893067,388827828,"""0""",11.0,7.625,11.8000001907,0.0
1614965094361254930,,28413,,1614893067,438782984,"""0""",11.0,7.75,11.8500003815,0.0
1614965094392081022,,28414,,1614893067,488794286,"""0""",11.0,7.75,11.8500003815,0.0
1614965094428179025,,28415,,1614893067,538839286,"""0""",11.0,7.75,11.8500003815,0.0
1614965094516881942,,28416,,1614893067,588744911,"""0""",11.0,7.75,11.8000001907,0.0
1614965094542783021,,28417,,1614893067,638785588,"""0""",11.0,7.625,11.8000001907,0.0
1614965094580554962,,28418,,1614893067,688785432,"""0""",11.0,7.625,11.8000001907,0.0
1614965094663605928,,28419,,1614893067,738789546,"""0""",11.0,7.375,11.8500003815,0.0
1614965094716114044,,28420,,1614893067,788895953,"""0""",11.0,7.375,11.8500003815,0.0
1614965094762829065,,28421,,1614893067,838813817,"""0""",11.0,7.75,11.8500003815,0.0
1614965094814548015,,28422,,1614893067,888823661,"""0""",11.0,7.625,11.8000001907,0.0
1614965094846899986,,28423,,1614893067,939082307,"""0""",11.0,7.125,11.8000001907,0.0
1614965094924081087,,28424,,1614893067,988865744,"""0""",11.0,7.0,11.8000001907,0.0
1614965095012433052,,28425,,1614893068,38847359,"""0""",11.0,7.0,11.8999996185,0.0
1614965095012538909,,28426,,1614893068,88802151,"""0""",11.0,7.625,11.8999996185,0.0
1614965095050740003,,28427,,1614893068,138794807,"""0""",11.0,7.375,11.8999996185,0.0
1614965095097318887,,28428,,1614893068,188890432,"""0""",11.0,6.875,11.8999996185,0.0
1614965095132546901,,28429,,1614893068,238913348,"""0""",11.0,7.125,11.8999996185,0.0
1614965095175786018,,28430,,1614893068,288904130,"""0""",11.0,7.625,11.8999996185,0.0
1614965095241024017,,28431,,1614893068,338774286,"""0""",11.0,7.875,11.8999996185,0.0
1614965095298228025,,28432,,1614893068,388799390,"""0""",11.0,7.625,11.8000001907,0.0
1614965095322431087,,28433,,1614893068,438780692,"""0""",11.0,7.375,11.8000001907,0.0
1614965095370963096,,28434,,1614893068,488800067,"""0""",11.0,7.25,11.8000001907,0.0
1614965095427839994,,28435,,1614893068,538772932,"""0""",11.0,7.25,11.8999996185,0.0
1614965095479798078,,28436,,1614893068,588805067,"""0""",11.0,7.25,11.8999996185,0.0
1614965095534543037,,28437,,1614893068,638791109,"""0""",11.0,7.625,11.8999996185,0.0
1614965095571639060,,28438,,1614893068,688795275,"""0""",11.0,7.875,11.75,0.0
1614965095628227949,,28439,,1614893068,738831786,"""0""",11.0,7.5,11.75,0.0
1614965095675465106,,28440,,1614893068,788803921,"""0""",11.0,7.0,11.75,0.0
1614965095733122110,,28441,,1614893068,838794650,"""0""",11.0,7.375,11.8500003815,0.0
1614965095770009040,,28442,,1614893068,888799806,"""0""",11.0,8.0,11.8500003815,0.0
1614965095846909046,,28443,,1614893068,938864234,"""0""",11.0,8.0,11.8500003815,0.0
1614965095882569074,,28444,,1614893068,988811890,"""0""",11.0,7.5,11.8500003815,0.0
1614965095924524068,,28445,,1614893069,38864233,"""0""",11.0,7.5,11.8500003815,0.0
1614965095972002983,,28446,,1614893069,88795327,"""0""",11.0,7.375,11.8500003815,0.0
1614965096026345014,,28447,,1614893069,138785067,"""0""",11.0,7.5,11.8500003815,0.0
1614965096077112913,,28448,,1614893069,188884338,"""0""",11.0,7.75,11.75,0.0
1614965096146281957,,28449,,1614893069,238795119,"""0""",11.0,7.75,11.75,0.0
1614965096185991048,,28450,,1614893069,289035119,"""0""",11.0,7.625,11.75,0.0
1614965096227684974,,28451,,1614893069,338939650,"""0""",11.0,7.5,11.8500003815,0.0
1614965096275254011,,28452,,1614893069,388858973,"""0""",11.0,7.5,11.8500003815,0.0
1614965096329014062,,28453,,1614893069,438842306,"""0""",11.0,7.375,11.8500003815,0.0
1614965096472246885,,28454,,1614893069,488824442,"""0""",11.0,7.25,11.8500003815,0.0
1614965096472371101,,28455,,1614893069,538859025,"""0""",11.0,7.25,11.8500003815,0.0
1614965096505023956,,28456,,1614893069,588834494,"""0""",11.0,7.125,11.8500003815,0.0
1614965096544969081,,28457,,1614893069,638898817,"""0""",11.0,7.5,11.8000001907,0.0
1614965096585122108,,28458,,1614893069,688796004,"""0""",11.0,8.375,11.8000001907,0.0
1614965096627342939,,28459,,1614893069,738838296,"""0""",11.0,7.75,11.8000001907,0.0
1614965096675668001,,28460,,1614893069,788795431,"""0""",11.0,7.25,11.8000001907,0.0
1614965096746475934,,28461,,1614893069,838769025,"""0""",11.0,7.25,11.8999996185,0.0
1614965096770359039,,28462,,1614893069,888799650,"""0""",11.0,7.25,11.8999996185,0.0
1614965096834628105,,28463,,1614893069,938834494,"""0""",11.0,7.625,11.8999996185,0.0
1614965096889072895,,28464,,1614893069,988797983,"""0""",11.0,7.625,11.8500003815,0.0
1614965096932576894,,28465,,1614893070,38780952,"""0""",11.0,7.5,11.8500003815,0.0
1614965096973193883,,28466,,1614893070,88974962,"""0""",11.0,7.75,11.8500003815,0.0
1614965097033925056,,28467,,1614893070,138773973,"""0""",11.0,7.625,11.75,0.0
1614965097111028909,,28468,,1614893070,188831577,"""0""",11.0,7.375,11.75,0.0
1614965097148884057,,28469,,1614893070,238857098,"""0""",11.0,7.5,11.75,0.0
1614965097174727916,,28470,,1614893070,288837358,"""0""",11.0,7.5,11.8500003815,0.0
1614965097236040115,,28471,,1614893070,338776889,"""0""",11.0,7.25,11.8500003815,0.0
1614965097273883104,,28472,,1614893070,388804754,"""0""",11.0,7.125,11.8500003815,0.0
1614965097341063976,,28473,,1614893070,438781889,"""0""",11.0,7.5,11.8000001907,0.0
1614965097372164964,,28474,,1614893070,488805952,"""0""",11.0,8.0,11.8000001907,0.0
1614965097427514076,,28475,,1614893070,539291837,"""0""",11.0,7.75,11.8000001907,0.0
1614965097475249052,,28476,,1614893070,588857254,"""0""",11.0,7.25,11.8000001907,0.0
1614965097534090042,,28477,,1614893070,638816837,"""0""",11.0,7.375,11.8500003815,0.0
1614965097577564954,,28478,,1614893070,689054285,"""0""",11.0,7.625,11.8500003815,0.0
1614965097647408962,,28479,,1614893070,738808504,"""0""",11.0,8.125,11.8500003815,0.0
1614965097692570924,,28480,,1614893070,788864077,"""0""",11.0,8.0,11.75,0.0
1614965097724137067,,28481,,1614893070,838803295,"""0""",11.0,7.625,11.75,0.0
1614965097780294895,,28482,,1614893070,888809129,"""0""",11.0,7.75,11.75,0.0
1614965097830493927,,28483,,1614893070,938796837,"""0""",11.0,7.5,11.8500003815,0.0
1614965097911597967,,28484,,1614893070,989798608,"""0""",11.0,7.375,11.8500003815,0.0
1614965097960872888,,28485,,1614893071,38767931,"""0""",11.0,7.5,11.8500003815,0.0
1614965098056340932,,28486,,1614893071,88856316,"""0""",11.0,7.5,11.8000001907,0.0
1614965098056483983,,28487,,1614893071,138887722,"""0""",11.0,7.375,11.8000001907,0.0
1614965098084120988,,28488,,1614893071,189513556,"""0""",11.0,7.0,11.8000001907,0.0
1614965098127181053,,28489,,1614893071,238771785,"""0""",11.0,7.375,11.8500003815,0.0
1614965098179414033,,28490,,1614893071,288827045,"""0""",11.0,7.875,11.8500003815,0.0
1614965098249728918,,28491,,1614893071,338793660,"""0""",11.0,7.5,11.8500003815,0.0
1614965098331796884,,28492,,1614893071,388868660,"""0""",11.0,7.125,11.8500003815,0.0
1614965098331908941,,28493,,1614893071,438778764,"""0""",11.0,7.0,11.8999996185,0.0
1614965098383677005,,28494,,1614893071,488967930,"""0""",11.0,7.125,11.8999996185,0.0
1614965098433835983,,28495,,1614893071,538808243,"""0""",11.0,7.25,11.8999996185,0.0
1614965098477955102,,28496,,1614893071,589148295,"""0""",11.0,7.0,11.8999996185,0.0
1614965098531080007,,28497,,1614893071,638831941,"""0""",11.0,7.0,11.8999996185,0.0
1614965098583262920,,28498,,1614893071,688828503,"""0""",11.0,6.875,11.8999996185,0.0
1614965098628542900,,28499,,1614893071,738745378,"""0""",11.0,6.75,11.9499998093,0.0
1614965098687324047,,28500,,1614893071,789417149,"""0""",11.0,6.125,11.9499998093,0.0
1614965098725379943,,28501,,1614893071,838787462,"""0""",11.0,4.75,11.9499998093,0.0
1614965098787600040,,28502,,1614893071,888948451,"""0""",11.0,3.75,12.0500001907,0.0
1614965098846088886,,28503,,1614893071,938847930,"""0""",11.0,1.75,12.0500001907,0.0
1614965098878887891,,28504,,1614893071,989063139,"""0""",11.0,1.0,12.0500001907,0.0
1614965098937681913,,28505,,1614893072,38770378,"""0""",11.0,1.0,12.1999998093,0.0
1614965098976128101,,28506,,1614893072,88977982,"""0""",11.0,1.75,12.1999998093,0.0
1614965099025372028,,28507,,1614893072,138790795,"""0""",11.0,3.75,12.1999998093,0.0
1614965099089121103,,28508,,1614893072,188807566,"""0""",11.0,2.0,12.1999998093,0.0
1614965099148880958,,28509,,1614893072,238797409,"""0""",11.0,1.0,12.1999998093,0.0
1614965099179919958,,28510,,1614893072,288801732,"""0""",11.0,1.75,12.1999998093,0.0
1614965099228823900,,28511,,1614893072,338823659,"""0""",11.0,4.375,12.1999998093,0.0
1614965099311053037,,28512,,1614893072,388805222,"""0""",11.0,4.75,12.0,0.0
1614965099348134040,,28513,,1614893072,438822878,"""0""",11.0,3.375,12.0,0.0
1614965099394493103,,28514,,1614893072,488849909,"""0""",11.0,4.125,12.0,0.0
1614965099437376976,,28515,,1614893072,538927618,"""0""",11.0,6.875,11.8999996185,0.0
1614965099476388931,,28516,,1614893072,588822722,"""0""",11.0,6.75,11.8999996185,0.0
1614965099537213087,,28517,,1614893072,638786315,"""0""",11.0,6.75,11.8999996185,0.0
1614965099583697080,,28518,,1614893072,688838086,"""0""",11.0,4.75,12.0,0.0
1614965099635878086,,28519,,1614893072,738900586,"""0""",11.0,6.875,12.0,0.0
1614965099680728912,,28520,,1614893072,788857357,"""0""",11.0,7.25,12.0,0.0
1614965099753732919,,28521,,1614893072,838819128,"""0""",11.0,6.625,12.0500001907,0.0
1614965099799442052,,28522,,1614893072,888877617,"""0""",11.0,3.75,12.0500001907,0.0
1614965099836549043,,28523,,1614893072,938797044,"""0""",11.0,4.125,12.0500001907,0.0
1614965099888006925,,28524,,1614893072,988870117,"""0""",11.0,4.375,12.0500001907,0.0
1614965099948802947,,28525,,1614893073,38772149,"""0""",11.0,6.75,11.9499998093,0.0
1614965100016879081,,28526,,1614893073,88828503,"""0""",11.0,6.75,11.9499998093,0.0
1614965100076265096,,28527,,1614893073,138911940,"""0""",11.0,5.5,11.9499998093,0.0
1614965100122667074,,28528,,1614893073,188785534,"""0""",11.0,4.125,12.0500001907,0.0
1614965100153742074,,28529,,1614893073,238821055,"""0""",11.0,4.125,12.0500001907,0.0
1614965100199578046,,28530,,1614893073,288874180,"""0""",11.0,4.75,12.0500001907,0.0
1614965100244657039,,28531,,1614893073,338836367,"""0""",11.0,6.125,12.0,0.0
1614965100285782098,,28532,,1614893073,388800065,"""0""",11.0,5.75,12.0,0.0
1614965100348611116,,28533,,1614893073,438821055,"""0""",11.0,3.0,12.0,0.0
1614965100387037992,,28534,,1614893073,488781523,"""0""",11.0,4.75,12.0,0.0
1614965100427789926,,28535,,1614893073,538742513,"""0""",11.0,7.5,12.0,0.0
1614965100488008022,,28536,,1614893073,588798971,"""0""",11.0,6.875,12.0,0.0
1614965100535197019,,28537,,1614893073,638786680,"""0""",11.0,3.75,12.0500001907,0.0
1614965100580029010,,28538,,1614893073,688780482,"""0""",11.0,3.375,12.0500001907,0.0
1614965100627255916,,28539,,1614893073,738773450,"""0""",11.0,6.625,12.0500001907,0.0
1614965100692212104,,28540,,1614893073,788797930,"""0""",11.0,6.625,12.0500001907,0.0
1614965100746813058,,28541,,1614893073,838776107,"""0""",11.0,6.75,12.0,0.0
1614965100776427984,,28542,,1614893073,889031002,"""0""",11.0,7.0,12.0,0.0
1614965100831401109,,28543,,1614893073,938796471,"""0""",11.0,7.125,12.0,0.0
1614965100891207933,,28544,,1614893073,988835690,"""0""",11.0,6.625,11.9499998093,0.0
1614965100939697027,,28545,,1614893074,38902773,"""0""",11.0,6.625,11.9499998093,0.0
1614965100977349996,,28546,,1614893074,88794232,"""0""",11.0,6.75,11.9499998093,0.0
1614965101033555984,,28547,,1614893074,138937200,"""0""",11.0,6.625,11.9499998093,0.0
1614965101106690883,,28548,,1614893074,188882357,"""0""",11.0,6.75,11.9499998093,0.0
1614965101142878055,,28549,,1614893074,239096627,"""0""",11.0,7.0,11.9499998093,0.0
1614965101187707901,,28550,,1614893074,288819336,"""0""",11.0,6.875,11.9499998093,0.0
1614965101243230104,,28551,,1614893074,338815273,"""0""",11.0,7.25,11.9499998093,0.0
1614965101276797056,,28552,,1614893074,388841784,"""0""",11.0,6.875,11.9499998093,0.0
1614965101334005117,,28553,,1614893074,438962200,"""0""",11.0,4.75,12.0,0.0
1614965101380815029,,28554,,1614893074,488797669,"""0""",11.0,6.5,12.0,0.0
1614965101432903051,,28555,,1614893074,538792981,"""0""",11.0,7.0,12.0,0.0
1614965101480398893,,28556,,1614893074,588809283,"""0""",11.0,6.75,12.0,0.0
1614965101534298896,,28557,,1614893074,638802252,"""0""",11.0,6.75,12.0,0.0
1614965101586632966,,28558,,1614893074,688793242,"""0""",11.0,6.875,12.0,0.0
1614965101638417959,,28559,,1614893074,738803710,"""0""",11.0,4.125,12.0,0.0
1614965101696088075,,28560,,1614893074,788919960,"""0""",11.0,6.875,12.0,0.0
1614965101741395950,,28561,,1614893074,838813346,"""0""",11.0,8.875,12.0,0.0
1614965101798319101,,28562,,1614893074,888839856,"""0""",11.0,9.0,12.0,0.0
1614965101831325054,,28563,,1614893074,938801002,"""0""",11.0,7.625,11.75,0.0
1614965101876446008,,28564,,1614893074,988772565,"""0""",11.0,7.625,11.75,0.0
1614965101946468114,,28565,,1614893075,38793450,"""0""",11.0,9.875,11.75,0.0
1614965101980786085,,28566,,1614893075,88883085,"""0""",11.0,11.5,11.5500001907,0.0
1614965102026381969,,28567,,1614893075,138809231,"""0""",11.0,10.125,11.5500001907,0.0
1614965102111140012,,28568,,1614893075,188786939,"""0""",11.0,9.5,11.5500001907,0.0
1614965102175247907,,28569,,1614893075,238817721,"""0""",11.0,10.375,11.6000003815,0.0
1614965102215255975,,28570,,1614893075,288786210,"""0""",11.0,11.375,11.6000003815,0.0
1614965102264741897,,28571,,1614893075,338894231,"""0""",11.0,12.75,11.6000003815,0.0
1614965102292032003,,28572,,1614893075,388795637,"""0""",11.0,13.125,11.6000003815,0.0
1614965102322460889,,28573,,1614893075,438787564,"""0""",11.0,12.0,11.4499998093,0.0
1614965102381397008,,28574,,1614893075,488804075,"""0""",11.0,11.25,11.4499998093,0.0
1614965102426574945,,28575,,1614893075,538795221,"""0""",11.0,11.75,11.4499998093,0.0
1614965102477771997,,28576,,1614893075,588823189,"""0""",11.0,12.625,11.3999996185,0.0
1614965102529309034,,28577,,1614893075,638851627,"""0""",11.0,12.0,11.3999996185,0.0
1614965102580046892,,28578,,1614893075,688767043,"""0""",11.0,12.25,11.3999996185,0.0
1614965102627471923,,28579,,1614893075,738883450,"""0""",11.0,11.625,11.5500001907,0.0
1614965102726742029,,28580,,1614893075,788810533,"""0""",11.0,11.375,11.5500001907,0.0
1614965102769160985,,28581,,1614893075,838840273,"""0""",11.0,11.5,11.5500001907,0.0
1614965102809557914,,28582,,1614893075,888838710,"""0""",11.0,11.0,11.5500001907,0.0
1614965102858304977,,28583,,1614893075,938801210,"""0""",11.0,9.5,11.5500001907,0.0
1614965102891872882,,28584,,1614893075,989003137,"""0""",11.0,7.625,11.5500001907,0.0
1614965102925507068,,28585,,1614893076,38913658,"""0""",11.0,4.125,12.0,0.0
1614965102986356973,,28586,,1614893076,88749075,"""0""",11.0,7.0,12.0,0.0
1614965103049684047,,28587,,1614893076,138806575,"""0""",11.0,11.125,12.0,0.0
1614965103090655088,,28588,,1614893076,188773137,"""0""",11.0,9.125,12.0,0.0
1614965103125338077,,28589,,1614893076,238806106,"""0""",11.0,6.875,11.8000001907,0.0
1614965103236741065,,28590,,1614893076,288796002,"""0""",11.0,3.375,11.8000001907,0.0
1614965103236988067,,28591,,1614893076,339075533,"""0""",11.0,1.375,11.8000001907,0.0
1614965103330590009,,28592,,1614893076,388793397,"""0""",11.0,1.0,12.1000003815,0.0
1614965103384897947,,28593,,1614893076,438789647,"""0""",11.0,1.0,12.1000003815,0.0
1614965103450604915,,28594,,1614893076,488825481,"""0""",11.0,1.0,12.1000003815,0.0
1614965103453152894,,28595,,1614893076,538819126,"""0""",11.0,1.0,12.1499996185,0.0
1614965103491558074,,28596,,1614893076,589371731,"""0""",11.0,1.0,12.1499996185,0.0
1614965103533047914,,28597,,1614893076,638835116,"""0""",11.0,0.625,12.1499996185,0.0
1614965103576437950,,28598,,1614893076,688789491,"""0""",11.0,0.375,12.1999998093,0.0
1614965103636667966,,28599,,1614893076,738879751,"""0""",11.0,1.0,12.1999998093,0.0
1614965103681365966,,28600,,1614893076,788836470,"""0""",11.0,1.375,12.1999998093,0.0
1614965103729619979,,28601,,1614893076,838887824,"""0""",11.0,1.375,12.1000003815,0.0
1614965103774951934,,28602,,1614893076,888749647,"""0""",11.0,1.375,12.1000003815,0.0
1614965103827898025,,28603,,1614893076,938898710,"""0""",11.0,1.375,12.1000003815,0.0
1614965103898778915,,28604,,1614893076,988793814,"""0""",11.0,2.75,12.1000003815,0.0
1614965103937069892,,28605,,1614893077,38982408,"""0""",11.0,5.5,12.0,0.0
1614965103992619991,,28606,,1614893077,88829178,"""0""",11.0,6.625,12.0,0.0
1614965104036626100,,28607,,1614893077,138791626,"""0""",11.0,3.375,12.0,0.0
1614965104077244043,,28608,,1614893077,188797095,"""0""",11.0,2.0,12.1000003815,0.0
1614965104126847982,,28609,,1614893077,238793553,"""0""",11.0,2.75,12.1000003815,0.0
1614965104182830095,,28610,,1614893077,288782303,"""0""",11.0,6.125,12.1000003815,0.0
1614965104245773077,,28611,,1614893077,338959803,"""0""",11.0,6.75,11.9499998093,0.0
1614965104276957988,,28612,,1614893077,388791418,"""0""",11.0,4.75,11.9499998093,0.0
1614965104329301118,,28613,,1614893077,438798501,"""0""",11.0,5.75,11.9499998093,0.0
1614965104383579015,,28614,,1614893077,488765637,"""0""",11.0,6.875,11.8500003815,0.0
1614965104427659988,,28615,,1614893077,538893397,"""0""",11.0,6.75,11.8500003815,0.0
1614965104481199979,,28616,,1614893077,588778189,"""0""",11.0,6.625,11.8500003815,0.0
1614965104530788898,,28617,,1614893077,638808189,"""0""",11.0,7.125,11.8500003815,0.0
1614965104579914093,,28618,,1614893077,688798449,"""0""",11.0,7.5,11.8500003815,0.0
1614965104636651992,,28619,,1614893077,738796366,"""0""",11.0,7.125,11.8500003815,0.0
1614965104693728923,,28620,,1614893077,788769647,"""0""",11.0,7.0,11.8500003815,0.0
1614965104733936071,,28621,,1614893077,838790480,"""0""",11.0,8.0,11.8500003815,0.0
1614965104837194919,,28622,,1614893077,888761834,"""0""",11.0,7.875,11.8500003815,0.0
1614965104837313890,,28623,,1614893077,938802303,"""0""",11.0,7.5,11.8500003815,0.0
1614965104927056074,,28624,,1614893077,988845636,"""0""",11.0,7.875,11.8500003815,0.0
1614965104967825889,,28625,,1614893078,38884855,"""0""",11.0,9.25,11.8500003815,0.0
1614965105010097980,,28626,,1614893078,88792563,"""0""",11.0,9.625,11.8500003815,0.0
1614965105076015949,,28627,,1614893078,138796678,"""0""",11.0,8.25,11.75,0.0
1614965105134104013,,28628,,1614893078,188784647,"""0""",11.0,9.0,11.75,0.0
1614965105134331941,,28629,,1614893078,238815532,"""0""",11.0,10.75,11.75,0.0
1614965105180964946,,28630,,1614893078,288780740,"""0""",11.0,9.875,11.6999998093,0.0
1614965105230865955,,28631,,1614893078,338796678,"""0""",11.0,8.25,11.6999998093,0.0
1614965105275476932,,28632,,1614893078,388902042,"""0""",11.0,9.875,11.6999998093,0.0
1614965105340322971,,28633,,1614893078,438883136,"""0""",11.0,11.125,11.5500001907,0.0
1614965105403388977,,28634,,1614893078,488787719,"""0""",11.0,10.0,11.5500001907,0.0
1614965105446758985,,28635,,1614893078,538887199,"""0""",11.0,10.25,11.5500001907,0.0
1614965105486519098,,28636,,1614893078,588780272,"""0""",11.0,11.125,11.5500001907,0.0
1614965105523542881,,28637,,1614893078,638808136,"""0""",11.0,10.75,11.5500001907,0.0
1614965105581053972,,28638,,1614893078,688791574,"""0""",11.0,10.25,11.5500001907,0.0
1614965105634548902,,28639,,1614893078,738913657,"""0""",11.0,10.125,11.5500001907,0.0
1614965105741991996,,28640,,1614893078,788779803,"""0""",11.0,10.5,11.6000003815,0.0
1614965105742096900,,28641,,1614893078,838783448,"""0""",11.0,10.5,11.6000003815,0.0
1614965105778086900,,28642,,1614893078,888794490,"""0""",11.0,9.875,11.6000003815,0.0
1614965105835412025,,28643,,1614893078,938895636,"""0""",11.0,10.125,11.6000003815,0.0
1614965105969469070,,28644,,1614893078,988804230,"""0""",11.0,10.375,11.6000003815,0.0
1614965105969578027,,28645,,1614893079,38811313,"""0""",11.0,9.625,11.6000003815,0.0
1614965106027786016,,28646,,1614893079,88799542,"""0""",11.0,10.125,11.5500001907,0.0
1614965106067142963,,28647,,1614893079,138842615,"""0""",11.0,11.375,11.5500001907,0.0
1614965106120482921,,28648,,1614893079,188792146,"""0""",11.0,10.5,11.5500001907,0.0
1614965106162457942,,28649,,1614893079,238790740,"""0""",11.0,9.625,11.6000003815,0.0
1614965106204291105,,28650,,1614893079,288772355,"""0""",11.0,10.5,11.6000003815,0.0
1614965106240839958,,28651,,1614893079,338778084,"""0""",11.0,10.75,11.6000003815,0.0
1614965106287347078,,28652,,1614893079,388854073,"""0""",11.0,10.5,11.6000003815,0.0
1614965106334918022,,28653,,1614893079,438781521,"""0""",11.0,10.75,11.5,0.0
1614965106382940053,,28654,,1614893079,488805688,"""0""",11.0,10.625,11.5,0.0
1614965106424562931,,28655,,1614893079,538851000,"""0""",11.0,10.625,11.5,0.0
1614965106482593059,,28656,,1614893079,588816938,"""0""",11.0,10.625,11.5500001907,0.0
1614965106530965089,,28657,,1614893079,638810323,"""0""",11.0,10.0,11.5500001907,0.0
1614965106586600065,,28658,,1614893079,688788917,"""0""",11.0,10.125,11.5500001907,0.0
1614965106627921104,,28659,,1614893079,738798084,"""0""",11.0,10.375,11.6000003815,0.0
1614965106687678098,,28660,,1614893079,788769438,"""0""",11.0,9.875,11.6000003815,0.0
1614965106731668949,,28661,,1614893079,838768344,"""0""",11.0,10.125,11.6000003815,0.0
1614965106775810956,,28662,,1614893079,888796365,"""0""",11.0,10.25,11.5500001907,0.0
1614965106836499929,,28663,,1614893079,938791417,"""0""",11.0,9.625,11.5500001907,0.0
1614965106879998922,,28664,,1614893079,988804229,"""0""",11.0,9.75,11.5500001907,0.0
1614965106931368112,,28665,,1614893080,38783761,"""0""",11.0,10.5,11.5500001907,0.0
1614965106983243942,,28666,,1614893080,88834542,"""0""",11.0,10.0,11.5500001907,0.0
1614965107030277967,,28667,,1614893080,138782771,"""0""",11.0,9.625,11.5500001907,0.0
1614965107084811925,,28668,,1614893080,188805479,"""0""",11.0,10.0,11.5500001907,0.0
1614965107127032041,,28669,,1614893080,238782406,"""0""",11.0,10.125,11.6000003815,0.0
1614965107187206983,,28670,,1614893080,288803083,"""0""",11.0,9.875,11.6000003815,0.0
1614965107238538980,,28671,,1614893080,338800271,"""0""",11.0,9.5,11.6000003815,0.0
1614965107295103073,,28672,,1614893080,388921729,"""0""",11.0,9.25,11.6999998093,0.0
1614965107341367959,,28673,,1614893080,438786104,"""0""",11.0,8.875,11.6999998093,0.0
1614965107391355037,,28674,,1614893080,488853187,"""0""",11.0,8.5,11.6999998093,0.0
1614965107421801090,,28675,,1614893080,538785896,"""0""",11.0,7.875,11.6999998093,0.0
1614965107490008115,,28676,,1614893080,588779802,"""0""",11.0,7.75,11.6999998093,0.0
1614965107530277013,,28677,,1614893080,638794281,"""0""",11.0,7.625,11.6999998093,0.0
1614965107579056978,,28678,,1614893080,688839802,"""0""",11.0,7.5,11.75,0.0
1614965107632174968,,28679,,1614893080,738806937,"""0""",11.0,7.125,11.75,0.0
1614965107701351881,,28680,,1614893080,788869229,"""0""",11.0,7.0,11.75,0.0
1614965107734359979,,28681,,1614893080,838793083,"""0""",11.0,7.0,11.8999996185,0.0
1614965107782996892,,28682,,1614893080,888899385,"""0""",11.0,7.0,11.8999996185,0.0
1614965107834814071,,28683,,1614893080,938803083,"""0""",11.0,6.875,11.8999996185,0.0
1614965107883106946,,28684,,1614893080,988919333,"""0""",11.0,6.75,11.8999996185,0.0
1614965107939028024,,28685,,1614893081,38815635,"""0""",11.0,5.75,11.9499998093,0.0
1614965107981057882,,28686,,1614893081,88793343,"""0""",11.0,5.125,11.9499998093,0.0
1614965108037368059,,28687,,1614893081,139331260,"""0""",11.0,3.75,11.9499998093,0.0
1614965108100845098,,28688,,1614893081,188781781,"""0""",11.0,3.0,12.0500001907,0.0
1614965108138266086,,28689,,1614893081,238812041,"""0""",11.0,2.375,12.0500001907,0.0
1614965108177268981,,28690,,1614893081,288783343,"""0""",11.0,2.0,12.0500001907,0.0
1614965108230704069,,28691,,1614893081,338852770,"""0""",11.0,4.125,12.0,0.0
1614965108279704093,,28692,,1614893081,388794750,"""0""",11.0,5.125,12.0,0.0
1614965108329724073,,28693,,1614893081,438810843,"""0""",11.0,6.625,12.0,0.0
1614965108382390022,,28694,,1614893081,488790218,"""0""",11.0,6.125,12.0,0.0
1614965108446382045,,28695,,1614893081,538779958,"""0""",11.0,3.75,12.0,0.0
1614965108491043090,,28696,,1614893081,588796625,"""0""",11.0,4.375,12.0,0.0
1614965108528636932,,28697,,1614893081,638793135,"""0""",11.0,5.5,11.9499998093,0.0
1614965108576226949,,28698,,1614893081,688787249,"""0""",11.0,4.375,11.9499998093,0.0
1614965108632577896,,28699,,1614893081,738779749,"""0""",11.0,0.25,11.9499998093,0.0
1614965108682384967,,28700,,1614893081,788820427,"""0""",11.0,0.0,11.9499998093,0.0
1614965108740153074,,28701,,1614893081,838799229,"""0""",11.0,0.0,12.25,0.0
1614965108779839038,,28702,,1614893081,888758031,"""0""",11.0,0.0,12.25,0.0
1614965108836947917,,28703,,1614893081,938777197,"""0""",11.0,0.0,12.25,0.0
1614965108882086992,,28704,,1614893081,988852458,"""0""",11.0,0.0,12.25,0.0
1614965108936877965,,28705,,1614893082,39024385,"""0""",11.0,0.0,12.25,0.0
1614965108979438066,,28706,,1614893082,88888864,"""0""",11.0,0.0,12.25,0.0
1614965109041778087,,28707,,1614893082,138828031,"""0""",11.0,0.0,12.25,0.0
1614965109078975915,,28708,,1614893082,188830999,"""0""",11.0,0.0,12.25,0.0
1614965109128146886,,28709,,1614893082,238935218,"""0""",11.0,0.0,12.25,0.0
1614965109208956956,,28710,,1614893082,288761572,"""0""",11.0,0.0,12.25,0.0
1614965109331511020,,28711,,1614893082,338887614,"""0""",11.0,0.0,12.25,0.0
1614965109331738948,,28712,,1614893082,388794489,"""0""",11.0,0.0,12.25,0.0
1614965109392568111,,28713,,1614893082,438777093,"""0""",11.0,0.0,12.3000001907,0.0
1614965109392777919,,28714,,1614893082,488901520,"""0""",11.0,0.0,12.3000001907,0.0
1614965109444919109,,28715,,1614893082,538807666,"""0""",11.0,0.0,12.3000001907,0.0
1614965109491092920,,28716,,1614893082,588804489,"""0""",11.0,0.0,12.3000001907,0.0
1614965109541070938,,28717,,1614893082,638773499,"""0""",11.0,0.0,12.3000001907,0.0
1614965109579633951,,28718,,1614893082,689295582,"""0""",11.0,0.0,12.3000001907,0.0
1614965109692758083,,28719,,1614893082,738775582,"""0""",11.0,0.0,12.3000001907,0.0
1614965109692998886,,28720,,1614893082,788848707,"""0""",11.0,0.0,12.3000001907,0.0
1614965109732856988,,28721,,1614893082,838838603,"""0""",11.0,0.0,12.3000001907,0.0
1614965109788739919,,28722,,1614893082,889396728,"""0""",11.0,0.0,12.3000001907,0.0
1614965109857023000,,28723,,1614893082,938837457,"""0""",12.0,0.0,12.3000001907,0.0
1614965109912758111,,28724,,1614893082,989797093,"""0""",12.0,0.0,12.3000001907,0.0
1614965109981758117,,28725,,1614893083,38861311,"""0""",12.0,0.0,12.3000001907,0.0
1614965110063114881,,28726,,1614893083,89930426,"""0""",11.0,0.0,12.3000001907,0.0
1614965110063225030,,28727,,1614893083,138982561,"""0""",11.0,0.0,12.3000001907,0.0
1614965110120623111,,28728,,1614893083,188957301,"""0""",11.0,0.0,12.3000001907,0.0
1614965110187266111,,28729,,1614893083,238841832,"""0""",12.0,0.0,12.3000001907,0.0
1614965110242871046,,28730,,1614893083,288835061,"""0""",12.0,0.0,12.3000001907,0.0
1614965110242975950,,28731,,1614893083,338868343,"""0""",12.0,0.0,12.3000001907,0.0
1614965110294599056,,28732,,1614893083,388887718,"""0""",12.0,0.0,12.3000001907,0.0
1614965110352539062,,28733,,1614893083,438830165,"""0""",12.0,0.0,12.3000001907,0.0
1614965110388711929,,28734,,1614893083,489630426,"""0""",12.0,0.0,12.3000001907,0.0
1614965110445017099,,28735,,1614893083,540111155,"""0""",12.0,0.0,12.3000001907,0.0
1614965110492353916,,28736,,1614893083,589223134,"""0""",12.0,0.0,12.3000001907,0.0
1614965110566932916,,28737,,1614893083,638918603,"""0""",12.0,0.0,12.3000001907,0.0
1614965110623963117,,28738,,1614893083,688816415,"""0""",12.0,0.0,12.3000001907,0.0
1614965110688462018,,28739,,1614893083,738809853,"""0""",12.0,0.0,12.3000001907,0.0
1614965110778086900,,28740,,1614893083,788890374,"""0""",12.0,0.0,12.3000001907,0.0
1614965110778476953,,28741,,1614893083,838838603,"""0""",12.0,0.0,12.3000001907,0.0
1614965110845459938,,28742,,1614893083,888983030,"""0""",12.0,0.0,12.3000001907,0.0
1614965110894908905,,28743,,1614893083,938793499,"""0""",12.0,0.0,12.3000001907,0.0
1614965110895025014,,28744,,1614893083,988884072,"""0""",12.0,0.0,12.3000001907,0.0
1614965110940129041,,28745,,1614893084,38831207,"""0""",12.0,0.0,12.3000001907,0.0
1614965110989193916,,28746,,1614893084,88897509,"""0""",12.0,0.0,12.3000001907,0.0
1614965111033272027,,28747,,1614893084,138809801,"""0""",12.0,0.0,12.3000001907,0.0
1614965111109757900,,28748,,1614893084,188820946,"""0""",12.0,0.0,12.3000001907,0.0
1614965111167680025,,28749,,1614893084,238762301,"""0""",12.0,0.0,12.3000001907,0.0
1614965111232639074,,28750,,1614893084,288872301,"""0""",12.0,0.0,12.3000001907,0.0
1614965111289942026,,28751,,1614893084,338793082,"""0""",12.0,0.0,12.3000001907,0.0
1614965111437654018,,28752,,1614893084,388787092,"""0""",12.0,0.0,12.3000001907,0.0
1614965111437757968,,28753,,1614893084,438798238,"""0""",12.0,0.0,12.3000001907,0.0
1614965111437784910,,28754,,1614893084,488932353,"""0""",12.0,0.0,12.3000001907,0.0
1614965111437812089,,28755,,1614893084,538837925,"""0""",12.0,0.0,12.3000001907,0.0
1614965111493412017,,28756,,1614893084,588845425,"""0""",12.0,0.0,12.3000001907,0.0
1614965111545764923,,28757,,1614893084,638763446,"""0""",12.0,0.0,12.3000001907,0.0
1614965111590955018,,28758,,1614893084,688827196,"""0""",12.0,0.0,12.3000001907,0.0
1614965111661423921,,28759,,1614893084,738860009,"""0""",12.0,0.0,12.3000001907,0.0
1614965111740075111,,28760,,1614893084,788780061,"""0""",12.0,0.0,12.3000001907,0.0
1614965111740313053,,28761,,1614893084,838785634,"""0""",12.0,0.0,12.3500003815,0.0
1614965111816838026,,28762,,1614893084,888846936,"""0""",12.0,0.0,12.3500003815,0.0
1614965111851809978,,28763,,1614893084,938819540,"""0""",12.0,0.0,12.3500003815,0.0
1614965111896904945,,28764,,1614893084,988786936,"""0""",12.0,0.0,12.3500003815,0.0
1614965111935893058,,28765,,1614893085,38764592,"""0""",12.0,0.0,12.3500003815,0.0
1614965111989869117,,28766,,1614893085,88793446,"""0""",12.0,0.0,12.3500003815,0.0
1614965112057014942,,28767,,1614893085,138788029,"""0""",12.0,0.0,12.3500003815,0.0
1614965112106411933,,28768,,1614893085,188816311,"""0""",12.0,0.0,12.3500003815,0.0
1614965112152703046,,28769,,1614893085,238767717,"""0""",12.0,0.0,12.3500003815,0.0
1614965112195142030,,28770,,1614893085,288792196,"""0""",12.0,0.0,12.3500003815,0.0
1614965112242908000,,28771,,1614893085,338765946,"""0""",12.0,0.0,12.3500003815,0.0
1614965112296756982,,28772,,1614893085,388786206,"""0""",12.0,0.0,12.3500003815,0.0
1614965112336136102,,28773,,1614893085,438790113,"""0""",12.0,0.0,12.3500003815,0.0
1614965112383739948,,28774,,1614893085,488804488,"""0""",12.0,0.0,12.3500003815,0.0
1614965112438421010,,28775,,1614893085,538788915,"""0""",12.0,0.0,12.3500003815,0.0
1614965112482955932,,28776,,1614893085,588879904,"""0""",12.0,0.0,12.3500003815,0.0
1614965112556014060,,28777,,1614893085,638824071,"""0""",12.0,0.0,12.3500003815,0.0
1614965112611840963,,28778,,1614893085,688798081,"""0""",12.0,0.0,12.3500003815,0.0
1614965112653816938,,28779,,1614893085,738826519,"""0""",12.0,0.0,12.3500003815,0.0
1614965112692254066,,28780,,1614893085,788966206,"""0""",12.0,0.0,12.3500003815,0.0
1614965112743027925,,28781,,1614893085,838785946,"""0""",12.0,0.0,12.3500003815,0.0
1614965112795646905,,28782,,1614893085,888802560,"""0""",12.0,0.0,12.3500003815,0.0
1614965112837146997,,28783,,1614893085,938775425,"""0""",12.0,0.0,12.3500003815,0.0
1614965112901863098,,28784,,1614893085,988800008,"""0""",12.0,0.0,12.3500003815,0.0
1614965112947802066,,28785,,1614893086,38909227,"""0""",12.0,0.0,12.3500003815,0.0
1614965113029505968,,28786,,1614893086,88892612,"""0""",12.0,0.0,12.3500003815,0.0
1614965113072684049,,28787,,1614893086,138769123,"""0""",12.0,0.0,12.3500003815,0.0
1614965113118689060,,28788,,1614893086,188865842,"""0""",12.0,0.0,12.3500003815,0.0
1614965113211714982,,28789,,1614893086,238789644,"""0""",12.0,0.0,12.3500003815,0.0
1614965113211941003,,28790,,1614893086,288787144,"""0""",12.0,0.0,12.3500003815,0.0
1614965113276699066,,28791,,1614893086,338777144,"""0""",12.0,0.0,12.3500003815,0.0
1614965113320338010,,28792,,1614893086,388898237,"""0""",12.0,0.0,12.3500003815,0.0
1614965113399898052,,28793,,1614893086,438772821,"""0""",12.0,0.0,12.3500003815,0.0
1614965113400084018,,28794,,1614893086,488864643,"""0""",12.0,0.0,12.3500003815,0.0
1614965113441555976,,28795,,1614893086,539080373,"""0""",12.0,0.0,12.3500003815,0.0
1614965113539057016,,28796,,1614893086,588934123,"""0""",12.0,0.0,12.3500003815,0.0
1614965113539164066,,28797,,1614893086,638849227,"""0""",12.0,0.0,12.3500003815,0.0
1614965113592883110,,28798,,1614893086,688837143,"""0""",12.0,0.0,12.3500003815,0.0
1614965113639193058,,28799,,1614893086,738931102,"""0""",12.0,0.0,12.3500003815,0.0
1614965113683914899,,28800,,1614893086,788855581,"""0""",12.0,0.0,12.3500003815,0.0
1614965113748053073,,28801,,1614893086,839302039,"""0""",12.0,0.0,12.3500003815,0.0
1614965113800645112,,28802,,1614893086,888927404,"""0""",12.0,0.0,12.3500003815,0.0
1614965113840605020,,28803,,1614893086,938882820,"""0""",12.0,0.0,12.3500003815,0.0
1614965113898701906,,28804,,1614893086,988778393,"""0""",12.0,0.0,12.3500003815,0.0
1614965113947113990,,28805,,1614893087,38839904,"""0""",12.0,0.0,12.3500003815,0.0
1614965114004573106,,28806,,1614893087,88827872,"""0""",12.0,0.0,12.3500003815,0.0
1614965114054476022,,28807,,1614893087,138885216,"""0""",12.0,0.0,12.3500003815,0.0
1614965114116897106,,28808,,1614893087,188878914,"""0""",12.0,0.0,12.3500003815,0.0
1614965114167401075,,28809,,1614893087,238801622,"""0""",12.0,0.0,12.3500003815,0.0
1614965114214586973,,28810,,1614893087,288832924,"""0""",12.0,0.0,12.3500003815,0.0
1614965114260582923,,28811,,1614893087,338822612,"""0""",12.0,0.0,12.3500003815,0.0
1614965114324474096,,28812,,1614893087,388906779,"""0""",12.0,0.0,12.3500003815,0.0
1614965114388819932,,28813,,1614893087,438789851,"""0""",12.0,0.0,12.3500003815,0.0
1614965114470674991,,28814,,1614893087,490430529,"""0""",12.0,0.0,12.3500003815,0.0
1614965114470824956,,28815,,1614893087,538896362,"""0""",12.0,0.0,12.3500003815,0.0
1614965114515057086,,28816,,1614893087,588827612,"""0""",12.0,0.0,12.3500003815,0.0
1614965114558799028,,28817,,1614893087,638898237,"""0""",12.0,0.0,12.3500003815,0.0
1614965114604353904,,28818,,1614893087,688843445,"""0""",12.0,0.0,12.3500003815,0.0
1614965114659140110,,28819,,1614893087,738802976,"""0""",12.0,0.0,12.3500003815,0.0
1614965114717617988,,28820,,1614893087,788874278,"""0""",12.0,0.0,12.3500003815,0.0
1614965114753422975,,28821,,1614893087,838814174,"""0""",12.0,0.0,12.3500003815,0.0
1614965114802872896,,28822,,1614893087,888764018,"""0""",12.0,0.0,12.3500003815,0.0
1614965114840358972,,28823,,1614893087,938891518,"""0""",12.0,0.0,12.3500003815,0.0
1614965114890635967,,28824,,1614893087,988791414,"""0""",12.0,0.0,12.3500003815,0.0
1614965114975166082,,28825,,1614893088,38936049,"""0""",12.0,0.0,12.3500003815,0.0
1614965115026542901,,28826,,1614893088,88746622,"""0""",12.0,0.0,12.3500003815,0.0
1614965115093352079,,28827,,1614893088,138805268,"""0""",12.0,0.0,12.3500003815,0.0
1614965115093456029,,28828,,1614893088,188796674,"""0""",12.0,0.0,12.3500003815,0.0
1614965115134867906,,28829,,1614893088,239005841,"""0""",12.0,0.0,12.3500003815,0.0
1614965115185461044,,28830,,1614893088,288828601,"""0""",12.0,0.0,12.3500003815,0.0
1614965115228646993,,28831,,1614893088,338876414,"""0""",12.0,0.0,12.3500003815,0.0
1614965115287704944,,28832,,1614893088,388827299,"""0""",12.0,0.0,12.3500003815,0.0
1614965115334623098,,28833,,1614893088,438822143,"""0""",12.0,0.0,12.3500003815,0.0
1614965115390413045,,28834,,1614893088,488812195,"""0""",12.0,0.0,12.3500003815,0.0
1614965115432787895,,28835,,1614893088,538872143,"""0""",12.0,0.0,12.3500003815,0.0
