rosbagTimestamp,header,seq,stamp,secs,nsecs,frame_id,Temperature,OutputCurrent,BusVoltage,ClosedLoopError
1614894251730067968,,43437,,1614894251,931986314,"""0""",12.0,0.0,12.4499998093,0.0
1614894251785810947,,43438,,1614894251,981921522,"""0""",12.0,0.0,12.4499998093,0.0
1614894251831290960,,43439,,1614894252,31924699,"""0""",12.0,0.0,12.4499998093,0.0
1614894251894104003,,43440,,1614894252,81939908,"""0""",12.0,0.0,12.4499998093,0.0
1614894251936484098,,43441,,1614894252,131949022,"""0""",12.0,0.0,12.4499998093,0.0
1614894251991323947,,43442,,1614894252,181922668,"""0""",12.0,0.0,12.4499998093,0.0
1614894252037391901,,43443,,1614894252,231958397,"""0""",12.0,0.0,12.4499998093,0.0
1614894252084647893,,43444,,1614894252,282010376,"""0""",12.0,0.0,12.4499998093,0.0
1614894252134342908,,43445,,1614894252,331937876,"""0""",12.0,0.0,12.4499998093,0.0
1614894252189734935,,43446,,1614894252,381920949,"""0""",12.0,0.0,12.4499998093,0.0
1614894252236819028,,43447,,1614894252,431943606,"""0""",12.0,0.0,12.4499998093,0.0
1614894252302216053,,43448,,1614894252,481994855,"""0""",12.0,0.0,12.4499998093,0.0
1614894252344281911,,43449,,1614894252,531939595,"""0""",12.0,0.0,12.4499998093,0.0
1614894252393608093,,43450,,1614894252,581937408,"""0""",12.0,0.0,12.4499998093,0.0
1614894252442143917,,43451,,1614894252,631975533,"""0""",12.0,0.0,12.4499998093,0.0
1614894252497118949,,43452,,1614894252,681933658,"""0""",12.0,0.0,12.4499998093,0.0
1614894252545531034,,43453,,1614894252,732031105,"""0""",12.0,0.0,12.4499998093,0.0
1614894252598377943,,43454,,1614894252,781936157,"""0""",12.0,0.0,12.4499998093,0.0
1614894252646148920,,43455,,1614894252,831964647,"""0""",12.0,0.0,12.4499998093,0.0
1614894252752794027,,43456,,1614894252,881939439,"""0""",12.0,0.0,12.4499998093,0.0
1614894252774229049,,43457,,1614894252,931951522,"""0""",12.0,0.0,12.4499998093,0.0
1614894252798446893,,43458,,1614894252,982283970,"""0""",12.0,0.0,12.4499998093,0.0
1614894252849898099,,43459,,1614894253,32091470,"""0""",12.0,0.0,12.4499998093,0.0
1614894252900571107,,43460,,1614894253,81925168,"""0""",12.0,0.0,12.4499998093,0.0
1614894252945346117,,43461,,1614894253,131979334,"""0""",12.0,0.0,12.4499998093,0.0
1614894253004045963,,43462,,1614894253,181933761,"""0""",12.0,0.0,12.4499998093,0.0
1614894253040766000,,43463,,1614894253,231973501,"""0""",12.0,0.0,12.4499998093,0.0
1614894253103568077,,43464,,1614894253,281933501,"""0""",12.0,0.0,12.4499998093,0.0
1614894253144025087,,43465,,1614894253,331945324,"""0""",12.0,0.0,12.4499998093,0.0
1614894253207045078,,43466,,1614894253,381914907,"""0""",12.0,0.0,12.4499998093,0.0
1614894253241084098,,43467,,1614894253,431940376,"""0""",12.0,0.0,12.4499998093,0.0
1614894253299546957,,43468,,1614894253,482098397,"""0""",12.0,0.0,12.4499998093,0.0
1614894253346664905,,43469,,1614894253,531949126,"""0""",12.0,0.0,12.4499998093,0.0
1614894253410614967,,43470,,1614894253,581975376,"""0""",12.0,0.0,12.4499998093,0.0
1614894253444356918,,43471,,1614894253,631939230,"""0""",12.0,0.0,12.4499998093,0.0
1614894253501195907,,43472,,1614894253,682037668,"""0""",12.0,0.0,12.4499998093,0.0
1614894253545317888,,43473,,1614894253,732035949,"""0""",12.0,0.0,12.4499998093,0.0
1614894253600797891,,43474,,1614894253,781924959,"""0""",12.0,0.0,12.4499998093,0.0
1614894253641611099,,43475,,1614894253,831987824,"""0""",12.0,0.0,12.4499998093,0.0
1614894253702372074,,43476,,1614894253,882046417,"""0""",12.0,0.0,12.4499998093,0.0
1614894253763964891,,43477,,1614894253,931934855,"""0""",12.0,0.0,12.4499998093,0.0
1614894253805883884,,43478,,1614894253,982025220,"""0""",12.0,0.0,12.4499998093,0.0
1614894253846802949,,43479,,1614894254,31940428,"""0""",12.0,0.0,12.4499998093,0.0
1614894253909369945,,43480,,1614894254,81931834,"""0""",12.0,0.0,12.4499998093,0.0
1614894253951982021,,43481,,1614894254,131973657,"""0""",12.0,0.0,12.4499998093,0.0
1614894254001385927,,43482,,1614894254,181935167,"""0""",12.0,0.0,12.4499998093,0.0
1614894254047065019,,43483,,1614894254,231947667,"""0""",12.0,0.0,12.4499998093,0.0
1614894254101377964,,43484,,1614894254,281936261,"""0""",12.0,0.0,12.4499998093,0.0
1614894254155237913,,43485,,1614894254,331935063,"""0""",12.0,0.0,12.4499998093,0.0
1614894254209204912,,43486,,1614894254,381931521,"""0""",12.0,0.0,12.4499998093,0.0
1614894254247260093,,43487,,1614894254,431942459,"""0""",12.0,0.0,12.4499998093,0.0
1614894254308351039,,43488,,1614894254,482019386,"""0""",12.0,0.0,12.4499998093,0.0
1614894254344621896,,43489,,1614894254,531987928,"""0""",12.0,0.0,12.4499998093,0.0
1614894254403870105,,43490,,1614894254,581938657,"""0""",12.0,0.0,12.4499998093,0.0
1614894254446007013,,43491,,1614894254,632028501,"""0""",12.0,0.0,12.4499998093,0.0
1614894254510479927,,43492,,1614894254,681974073,"""0""",12.0,0.0,12.4499998093,0.0
1614894254542834043,,43493,,1614894254,731936573,"""0""",12.0,0.0,12.4499998093,0.0
1614894254608463048,,43494,,1614894254,782084178,"""0""",12.0,0.0,12.4499998093,0.0
1614894254644417047,,43495,,1614894254,832064178,"""0""",12.0,0.0,12.4499998093,0.0
1614894254700056076,,43496,,1614894254,881927302,"""0""",12.0,0.0,12.4499998093,0.0
1614894254746851921,,43497,,1614894254,931943396,"""0""",12.0,0.0,12.4499998093,0.0
1614894254809271097,,43498,,1614894254,981910844,"""0""",12.0,0.0,12.4499998093,0.0
1614894254845998048,,43499,,1614894255,31942563,"""0""",12.0,0.0,12.4499998093,0.0
1614894254903671026,,43500,,1614894255,81994802,"""0""",12.0,0.0,12.4499998093,0.0
1614894254951303005,,43501,,1614894255,131947615,"""0""",12.0,0.0,12.4499998093,0.0
1614894255005801916,,43502,,1614894255,181971104,"""0""",12.0,0.0,12.4499998093,0.0
1614894255069401979,,43503,,1614894255,231951157,"""0""",12.0,0.0,12.4499998093,0.0
1614894255097745895,,43504,,1614894255,282076677,"""0""",12.0,0.0,12.4499998093,0.0
1614894255145406007,,43505,,1614894255,331943813,"""0""",12.0,0.0,12.4499998093,0.0
1614894255209194898,,43506,,1614894255,382026521,"""0""",12.0,0.0,12.4499998093,0.0
1614894255243869066,,43507,,1614894255,432613500,"""0""",12.0,0.0,12.4499998093,0.0
1614894255300090074,,43508,,1614894255,481913969,"""0""",12.0,0.0,12.4499998093,0.0
1614894255345499992,,43509,,1614894255,531923552,"""0""",12.0,0.0,12.4499998093,0.0
1614894255412509918,,43510,,1614894255,581941000,"""0""",12.0,0.0,12.4499998093,0.0
1614894255446356058,,43511,,1614894255,632355375,"""0""",12.0,0.0,12.4499998093,0.0
1614894255505094051,,43512,,1614894255,681987042,"""0""",12.0,0.0,12.4499998093,0.0
1614894255558303117,,43513,,1614894255,732079698,"""0""",12.0,0.0,12.4499998093,0.0
1614894255601017951,,43514,,1614894255,782025635,"""0""",12.0,0.0,12.4499998093,0.0
1614894255664825916,,43515,,1614894255,831942406,"""0""",12.0,0.0,12.4499998093,0.0
1614894255701839923,,43516,,1614894255,881987094,"""0""",12.0,0.0,12.4499998093,0.0
1614894255750247001,,43517,,1614894255,931997510,"""0""",12.0,0.0,12.4499998093,0.0
1614894255804328918,,43518,,1614894255,981927406,"""0""",12.0,0.0,12.4499998093,0.0
1614894255842525005,,43519,,1614894256,31947250,"""0""",12.0,0.0,12.4499998093,0.0
1614894255908607959,,43520,,1614894256,81934542,"""0""",12.0,0.0,12.4499998093,0.0
1614894255950495004,,43521,,1614894256,132136260,"""0""",12.0,0.0,12.4499998093,0.0
1614894256003469944,,43522,,1614894256,181940323,"""0""",12.0,0.0,12.4499998093,0.0
1614894256045831918,,43523,,1614894256,231952354,"""0""",12.0,0.0,12.4499998093,0.0
1614894256110239982,,43524,,1614894256,282034489,"""0""",12.0,0.0,12.4499998093,0.0
1614894256143668889,,43525,,1614894256,331940844,"""0""",12.0,0.0,12.4499998093,0.0
1614894256209103107,,43526,,1614894256,381991364,"""0""",12.0,0.0,12.4499998093,0.0
1614894256282310009,,43527,,1614894256,431946833,"""0""",12.0,0.0,12.4499998093,0.0
1614894256310595035,,43528,,1614894256,481958656,"""0""",12.0,0.0,12.4499998093,0.0
1614894256348731994,,43529,,1614894256,531949854,"""0""",12.0,0.0,12.4499998093,0.0
1614894256405411958,,43530,,1614894256,581963396,"""0""",12.0,0.0,12.4499998093,0.0
1614894256457006931,,43531,,1614894256,632034854,"""0""",12.0,0.0,12.4499998093,0.0
1614894256503577947,,43532,,1614894256,681928448,"""0""",12.0,0.0,12.4499998093,0.0
1614894256550185918,,43533,,1614894256,732003656,"""0""",12.0,0.0,12.4499998093,0.0
1614894256603566884,,43534,,1614894256,782012875,"""0""",12.0,0.0,12.4499998093,0.0
1614894256650124073,,43535,,1614894256,831998291,"""0""",12.0,0.0,12.4499998093,0.0
1614894256701040983,,43536,,1614894256,881941312,"""0""",12.0,0.0,12.4499998093,0.0
1614894256757868051,,43537,,1614894256,931991729,"""0""",12.0,0.0,12.4499998093,0.0
1614894256808011054,,43538,,1614894256,981948083,"""0""",12.0,0.0,12.4499998093,0.0
1614894256875401973,,43539,,1614894257,31964645,"""0""",12.0,0.0,12.4499998093,0.0
1614894256910002946,,43540,,1614894257,81966989,"""0""",12.0,0.0,12.4499998093,0.0
1614894256947621107,,43541,,1614894257,131952770,"""0""",12.0,0.0,12.4499998093,0.0
1614894257010164022,,43542,,1614894257,181964593,"""0""",12.0,0.0,12.4499998093,0.0
1614894257041368007,,43543,,1614894257,231947354,"""0""",12.0,0.0,12.4499998093,0.0
1614894257104569911,,43544,,1614894257,281982093,"""0""",12.0,0.0,12.4499998093,0.0
1614894257198369026,,43545,,1614894257,331940843,"""0""",12.0,0.0,12.4499998093,0.0
1614894257222232103,,43546,,1614894257,381909124,"""0""",12.0,0.0,12.4499998093,0.0
1614894257247049093,,43547,,1614894257,432164802,"""0""",12.0,0.0,12.4499998093,0.0
1614894257309153079,,43548,,1614894257,481947510,"""0""",12.0,0.0,12.4499998093,0.0
1614894257375896930,,43549,,1614894257,531994489,"""0""",12.0,0.0,12.4499998093,0.0
1614894257410891056,,43550,,1614894257,581927718,"""0""",12.0,0.0,12.4499998093,0.0
1614894257480367898,,43551,,1614894257,631941364,"""0""",12.0,0.0,12.4499998093,0.0
1614894257506372928,,43552,,1614894257,681934958,"""0""",12.0,0.0,12.4499998093,0.0
1614894257543566942,,43553,,1614894257,731941156,"""0""",12.0,0.0,12.4499998093,0.0
1614894257607644081,,43554,,1614894257,782122666,"""0""",12.0,0.0,12.4499998093,0.0
1614894257649770975,,43555,,1614894257,831954697,"""0""",12.0,0.0,12.4499998093,0.0
1614894257703428983,,43556,,1614894257,881980999,"""0""",12.0,0.0,12.4499998093,0.0
1614894257749630928,,43557,,1614894257,933882458,"""0""",12.0,0.0,12.4499998093,0.0
1614894257799319982,,43558,,1614894257,981973603,"""0""",12.0,0.0,12.4499998093,0.0
1614894257846254110,,43559,,1614894258,33143760,"""0""",12.0,0.0,12.4499998093,0.0
1614894257902038097,,43560,,1614894258,81927510,"""0""",12.0,0.0,12.4499998093,0.0
1614894257944050073,,43561,,1614894258,131994385,"""0""",12.0,0.0,12.4499998093,0.0
1614894258002751111,,43562,,1614894258,181961728,"""0""",12.0,0.0,12.4499998093,0.0
1614894258074971914,,43563,,1614894258,231943343,"""0""",12.0,0.0,12.4499998093,0.0
1614894258118465900,,43564,,1614894258,281974124,"""0""",12.0,0.0,12.4499998093,0.0
1614894258150127887,,43565,,1614894258,331944020,"""0""",12.0,0.0,12.4499998093,0.0
1614894258205873012,,43566,,1614894258,381956468,"""0""",12.0,0.0,12.4499998093,0.0
1614894258244834899,,43567,,1614894258,431960582,"""0""",12.0,0.0,12.4499998093,0.0
1614894258299057006,,43568,,1614894258,481976051,"""0""",12.0,0.0,12.4499998093,0.0
1614894258345115900,,43569,,1614894258,531960322,"""0""",12.0,0.0,12.4499998093,0.0
1614894258406394004,,43570,,1614894258,581917457,"""0""",12.0,0.0,12.4499998093,0.0
1614894258466578006,,43571,,1614894258,631945166,"""0""",12.0,0.0,12.4499998093,0.0
1614894258507555961,,43572,,1614894258,682081520,"""0""",12.0,0.0,12.4499998093,0.0
1614894258551415920,,43573,,1614894258,731940582,"""0""",12.0,0.0,12.4499998093,0.0
1614894258605494022,,43574,,1614894258,781939124,"""0""",12.0,0.0,12.4499998093,0.0
1614894258674350023,,43575,,1614894258,831945270,"""0""",12.0,0.0,12.4499998093,0.0
1614894258706692934,,43576,,1614894258,881999280,"""0""",12.0,0.0,12.4499998093,0.0
1614894258750663042,,43577,,1614894258,932256416,"""0""",12.0,0.0,12.4499998093,0.0
1614894258803210020,,43578,,1614894258,981960113,"""0""",12.0,0.0,12.4499998093,0.0
1614894258842658042,,43579,,1614894259,31948603,"""0""",12.0,0.0,12.4499998093,0.0
1614894258902482986,,43580,,1614894259,81965165,"""0""",12.0,0.0,12.4499998093,0.0
1614894258975183010,,43581,,1614894259,131998655,"""0""",12.0,0.0,12.4499998093,0.0
1614894259018078088,,43582,,1614894259,181972822,"""0""",12.0,0.0,12.4499998093,0.0
1614894259047882080,,43583,,1614894259,231963759,"""0""",12.0,0.0,12.4499998093,0.0
1614894259104504108,,43584,,1614894259,281928603,"""0""",12.0,0.0,12.4499998093,0.0
1614894259144033908,,43585,,1614894259,331942457,"""0""",12.0,0.0,12.4499998093,0.0
1614894259209414005,,43586,,1614894259,381980113,"""0""",12.0,0.0,12.4499998093,0.0
1614894259247553110,,43587,,1614894259,431953967,"""0""",12.0,0.0,12.4499998093,0.0
1614894259306346893,,43588,,1614894259,481919540,"""0""",12.0,0.0,12.4499998093,0.0
1614894259347568988,,43589,,1614894259,532320582,"""0""",12.0,0.0,12.4499998093,0.0
1614894259404057025,,43590,,1614894259,582057405,"""0""",12.0,0.0,12.4499998093,0.0
1614894259445974111,,43591,,1614894259,631948499,"""0""",12.0,0.0,12.4499998093,0.0
1614894259500663042,,43592,,1614894259,681940946,"""0""",12.0,0.0,12.4499998093,0.0
1614894259547714948,,43593,,1614894259,731988186,"""0""",12.0,0.0,12.4499998093,0.0
1614894259600867986,,43594,,1614894259,781921467,"""0""",12.0,0.0,12.4499998093,0.0
1614894259646408081,,43595,,1614894259,831955321,"""0""",12.0,0.0,12.4499998093,0.0
1614894259703387975,,43596,,1614894259,881916519,"""0""",12.0,0.0,12.4499998093,0.0
1614894259755192041,,43597,,1614894259,931948290,"""0""",12.0,0.0,12.4499998093,0.0
1614894259806231021,,43598,,1614894259,981924957,"""0""",12.0,5.375,12.4499998093,0.0
1614894259850048065,,43599,,1614894260,31936467,"""0""",12.0,4.5,12.4499998093,0.0
1614894259899842023,,43600,,1614894260,82022144,"""0""",12.0,4.875,12.4499998093,0.0
1614894259950526952,,43601,,1614894260,131990269,"""0""",12.0,5.0,12.1499996185,0.0
1614894260014401912,,43602,,1614894260,181931311,"""0""",12.0,5.125,12.1499996185,0.0
1614894260042507886,,43603,,1614894260,231944175,"""0""",12.0,5.25,12.1499996185,0.0
1614894260108469009,,43604,,1614894260,281927092,"""0""",12.0,4.375,12.1999998093,0.0
1614894260169725894,,43605,,1614894260,331946050,"""0""",12.0,4.0,12.1999998093,0.0
1614894260224098920,,43606,,1614894260,381973655,"""0""",12.0,3.75,12.1999998093,0.0
1614894260250955104,,43607,,1614894260,431941259,"""0""",12.0,2.0,12.3500003815,0.0
1614894260301697015,,43608,,1614894260,481970998,"""0""",12.0,1.0,12.3500003815,0.0
1614894260345063924,,43609,,1614894260,531994852,"""0""",12.0,1.0,12.3500003815,0.0
1614894260417377948,,43610,,1614894260,581925269,"""0""",12.0,1.375,12.3500003815,0.0
1614894260467427015,,43611,,1614894260,631942717,"""0""",12.0,1.75,12.3500003815,0.0
1614894260506546974,,43612,,1614894260,681919488,"""0""",12.0,1.375,12.3500003815,0.0
1614894260560127019,,43613,,1614894260,731943707,"""0""",12.0,1.375,12.3500003815,0.0
1614894260603882074,,43614,,1614894260,781919019,"""0""",12.0,1.375,12.3500003815,0.0
1614894260646284103,,43615,,1614894260,832073915,"""0""",12.0,1.75,12.3500003815,0.0
1614894260702389955,,43616,,1614894260,881965998,"""0""",12.0,1.75,12.3500003815,0.0
1614894260753442049,,43617,,1614894260,931935477,"""0""",12.0,1.375,12.3500003815,0.0
1614894260801155090,,43618,,1614894260,981965738,"""0""",12.0,1.0,12.3500003815,0.0
1614894260851109981,,43619,,1614894261,31998915,"""0""",12.0,1.0,12.3500003815,0.0
1614894260910182952,,43620,,1614894261,82028133,"""0""",12.0,2.375,12.3000001907,0.0
1614894260949348926,,43621,,1614894261,131944019,"""0""",12.0,3.0,12.3000001907,0.0
1614894261003767967,,43622,,1614894261,181923915,"""0""",12.0,2.75,12.3000001907,0.0
1614894261075553894,,43623,,1614894261,231941883,"""0""",12.0,2.0,12.3500003815,0.0
1614894261099152088,,43624,,1614894261,281961467,"""0""",12.0,1.375,12.3500003815,0.0
1614894261148261070,,43625,,1614894261,331946623,"""0""",12.0,1.375,12.3500003815,0.0
1614894261199271917,,43626,,1614894261,382329175,"""0""",12.0,2.75,12.3000001907,0.0
1614894261247031927,,43627,,1614894261,432088081,"""0""",12.0,2.375,12.3000001907,0.0
1614894261301433086,,43628,,1614894261,481941571,"""0""",12.0,3.375,12.3000001907,0.0
1614894261350370883,,43629,,1614894261,531986415,"""0""",12.0,3.0,12.3000001907,0.0
1614894261403641939,,43630,,1614894261,581911675,"""0""",12.0,2.375,12.3500003815,0.0
1614894261442965984,,43631,,1614894261,631953081,"""0""",12.0,2.375,12.3500003815,0.0
1614894261498037099,,43632,,1614894261,681909852,"""0""",12.0,2.0,12.3500003815,0.0
1614894261547437906,,43633,,1614894261,732027925,"""0""",12.0,2.375,12.3000001907,0.0
1614894261604448080,,43634,,1614894261,781963029,"""0""",12.0,1.75,12.3000001907,0.0
1614894261698868989,,43635,,1614894261,832046414,"""0""",12.0,0.625,12.3000001907,0.0
1614894261755117893,,43636,,1614894261,881919591,"""0""",12.0,1.0,12.3500003815,0.0
1614894261755218982,,43637,,1614894261,931942196,"""0""",12.0,1.375,12.3500003815,0.0
1614894261804223060,,43638,,1614894261,981947508,"""0""",12.0,0.625,12.3500003815,0.0
1614894261845748901,,43639,,1614894262,31944696,"""0""",12.0,0.375,12.3999996185,0.0
1614894261903379917,,43640,,1614894262,81939227,"""0""",12.0,0.375,12.3999996185,0.0
1614894261975172042,,43641,,1614894262,131948602,"""0""",12.0,0.625,12.3999996185,0.0
1614894261999671936,,43642,,1614894262,181917143,"""0""",12.0,0.625,12.3999996185,0.0
1614894262050604104,,43643,,1614894262,231961102,"""0""",12.0,0.375,12.3999996185,0.0
1614894262107180118,,43644,,1614894262,281978341,"""0""",12.0,0.375,12.3999996185,0.0
1614894262148592948,,43645,,1614894262,331964695,"""0""",12.0,0.375,12.3999996185,0.0
1614894262199687004,,43646,,1614894262,381984175,"""0""",12.0,0.375,12.3999996185,0.0
1614894262249104022,,43647,,1614894262,432042404,"""0""",12.0,0.375,12.3999996185,0.0
1614894262298547029,,43648,,1614894262,481925529,"""0""",12.0,0.375,12.3999996185,0.0
1614894262345839977,,43649,,1614894262,531953393,"""0""",12.0,0.375,12.3999996185,0.0
1614894262397813081,,43650,,1614894262,581953602,"""0""",12.0,0.375,12.3999996185,0.0
1614894262449753046,,43651,,1614894262,631963445,"""0""",12.0,0.375,12.3999996185,0.0
1614894262503576040,,43652,,1614894262,681939956,"""0""",12.0,0.375,12.3999996185,0.0
1614894262568914890,,43653,,1614894262,731951831,"""0""",12.0,0.625,12.3999996185,0.0
1614894262597343921,,43654,,1614894262,781927872,"""0""",12.0,2.375,12.3999996185,0.0
1614894262650482892,,43655,,1614894262,832016570,"""0""",12.0,1.375,12.3500003815,0.0
1614894262703125000,,43656,,1614894262,881995164,"""0""",12.0,1.375,12.3500003815,0.0
1614894262747196912,,43657,,1614894262,931937664,"""0""",12.0,2.375,12.3500003815,0.0
1614894262805876970,,43658,,1614894262,981904695,"""0""",12.0,1.75,12.3000001907,0.0
1614894262872282981,,43659,,1614894263,31934799,"""0""",12.0,1.75,12.3000001907,0.0
1614894262912808895,,43660,,1614894263,81959904,"""0""",12.0,1.375,12.3000001907,0.0
1614894262944382905,,43661,,1614894263,131952924,"""0""",12.0,1.0,12.3000001907,0.0
1614894263007144927,,43662,,1614894263,181908706,"""0""",12.0,1.0,12.3500003815,0.0
1614894263052700996,,43663,,1614894263,231967612,"""0""",12.0,1.0,12.3500003815,0.0
1614894263103379011,,43664,,1614894263,282014851,"""0""",12.0,0.625,12.3500003815,0.0
1614894263164450883,,43665,,1614894263,331960841,"""0""",12.0,0.625,12.3500003815,0.0
1614894263204423904,,43666,,1614894263,381934018,"""0""",12.0,1.375,12.3500003815,0.0
1614894263247066974,,43667,,1614894263,431957976,"""0""",12.0,1.75,12.3500003815,0.0
1614894263295447111,,43668,,1614894263,481921362,"""0""",12.0,1.75,12.3500003815,0.0
1614894263346782922,,43669,,1614894263,531955372,"""0""",12.0,2.0,12.3500003815,0.0
1614894263401393890,,43670,,1614894263,581924330,"""0""",12.0,1.75,12.3500003815,0.0
1614894263463172912,,43671,,1614894263,631953810,"""0""",12.0,1.75,12.3500003815,0.0
1614894263500324964,,43672,,1614894263,682267143,"""0""",12.0,2.375,12.3500003815,0.0
1614894263546792984,,43673,,1614894263,731949643,"""0""",12.0,2.375,12.3500003815,0.0
1614894263602704048,,43674,,1614894263,781911830,"""0""",12.0,2.375,12.3500003815,0.0
1614894263647001981,,43675,,1614894263,831954226,"""0""",12.0,1.375,12.3500003815,0.0
1614894263700712919,,43676,,1614894263,881933966,"""0""",12.0,1.0,12.3500003815,0.0
1614894263767884969,,43677,,1614894263,931996570,"""0""",12.0,1.75,12.3500003815,0.0
1614894263835366010,,43678,,1614894263,982015164,"""0""",12.0,1.75,12.3500003815,0.0
1614894263861753940,,43679,,1614894264,31972455,"""0""",12.0,2.375,12.3500003815,0.0
1614894263898794889,,43680,,1614894264,81958080,"""0""",12.0,3.75,12.3500003815,0.0
1614894263992458105,,43681,,1614894264,131957716,"""0""",12.0,3.0,12.25,0.0
1614894264061466932,,43682,,1614894264,181902976,"""0""",12.0,2.75,12.25,0.0
1614894264061611890,,43683,,1614894264,231953757,"""0""",12.0,3.0,12.25,0.0
1614894264096503973,,43684,,1614894264,281975632,"""0""",12.0,1.75,12.3500003815,0.0
1614894264150768995,,43685,,1614894264,331957716,"""0""",12.0,1.375,12.3500003815,0.0
1614894264201457023,,43686,,1614894264,381919382,"""0""",12.0,1.0,12.3500003815,0.0
1614894264248995065,,43687,,1614894264,431964591,"""0""",12.0,1.0,12.3500003815,0.0
1614894264298404932,,43688,,1614894264,481973757,"""0""",12.0,1.75,12.3500003815,0.0
1614894264367244958,,43689,,1614894264,531942507,"""0""",12.0,2.0,12.3500003815,0.0
1614894264402489900,,43690,,1614894264,581943288,"""0""",12.0,1.375,12.3500003815,0.0
1614894264447851896,,43691,,1614894264,631992872,"""0""",12.0,1.375,12.3500003815,0.0
1614894264506931066,,43692,,1614894264,682049747,"""0""",12.0,1.75,12.3500003815,0.0
1614894264543812990,,43693,,1614894264,731958809,"""0""",12.0,1.75,12.3500003815,0.0
1614894264608670949,,43694,,1614894264,781968340,"""0""",12.0,2.0,12.3000001907,0.0
1614894264661392927,,43695,,1614894264,831950997,"""0""",12.0,2.0,12.3000001907,0.0
1614894264709429025,,43696,,1614894264,881905997,"""0""",12.0,3.0,12.3000001907,0.0
1614894264747555971,,43697,,1614894264,931957247,"""0""",12.0,2.75,12.3000001907,0.0
1614894264800304889,,43698,,1614894264,981983236,"""0""",12.0,1.75,12.3000001907,0.0
1614894264853131055,,43699,,1614894265,31939174,"""0""",12.0,2.0,12.3000001907,0.0
1614894264901758909,,43700,,1614894265,81991674,"""0""",12.0,1.75,12.3000001907,0.0
1614894264971446037,,43701,,1614894265,131952767,"""0""",12.0,1.75,12.3000001907,0.0
1614894265023360013,,43702,,1614894265,181942611,"""0""",12.0,2.375,12.3000001907,0.0
1614894265067722082,,43703,,1614894265,232102559,"""0""",12.0,2.375,12.3000001907,0.0
1614894265099844932,,43704,,1614894265,281944486,"""0""",12.0,2.375,12.3000001907,0.0
1614894265152477025,,43705,,1614894265,331973080,"""0""",12.0,3.75,12.3000001907,0.0
1614894265298068046,,43706,,1614894265,381930163,"""0""",12.0,3.0,12.25,0.0
1614894265298219919,,43707,,1614894265,432109642,"""0""",12.0,2.375,12.25,0.0
1614894265332101106,,43708,,1614894265,481959903,"""0""",12.0,2.375,12.25,0.0
1614894265369182109,,43709,,1614894265,532389694,"""0""",12.0,1.75,12.25,0.0
1614894265394923925,,43710,,1614894265,582454173,"""0""",12.0,1.375,12.3500003815,0.0
1614894265447376966,,43711,,1614894265,631938496,"""0""",12.0,1.375,12.3500003815,0.0
1614894265494882106,,43712,,1614894265,682017246,"""0""",12.0,1.375,12.3500003815,0.0
1614894265557774066,,43713,,1614894265,732024434,"""0""",12.0,1.0,12.3500003815,0.0
1614894265599086999,,43714,,1614894265,783735788,"""0""",12.0,1.375,12.3500003815,0.0
1614894265652506113,,43715,,1614894265,831942663,"""0""",12.0,1.75,12.3500003815,0.0
1614894265700896024,,43716,,1614894265,881934277,"""0""",12.0,1.75,12.3500003815,0.0
1614894265758146047,,43717,,1614894265,932024069,"""0""",12.0,2.375,12.3500003815,0.0
1614894265798106908,,43718,,1614894265,981921569,"""0""",12.0,4.0,12.3500003815,0.0
1614894265856900930,,43719,,1614894266,33705788,"""0""",12.0,3.875,12.25,0.0
1614894265900580883,,43720,,1614894266,82769121,"""0""",12.0,3.875,12.25,0.0
1614894265953592061,,43721,,1614894266,131946413,"""0""",12.0,3.875,12.25,0.0
1614894265999386072,,43722,,1614894266,181947507,"""0""",12.0,3.0,12.25,0.0
1614894266052021026,,43723,,1614894266,231952819,"""0""",12.0,2.75,12.25,0.0
1614894266104314088,,43724,,1614894266,282499225,"""0""",12.0,1.75,12.25,0.0
1614894266166322946,,43725,,1614894266,331938809,"""0""",12.0,1.75,12.25,0.0
1614894266195247888,,43726,,1614894266,382003600,"""0""",12.0,2.0,12.3000001907,0.0
1614894266254092931,,43727,,1614894266,431952923,"""0""",12.0,2.375,12.3000001907,0.0
1614894266920217990,,43728,,1614894266,481943183,"""0""",12.0,2.375,12.3000001907,0.0
1614894266920358896,,43729,,1614894266,531913392,"""0""",12.0,2.0,12.3000001907,0.0
1614894266920381069,,43730,,1614894266,581933131,"""0""",12.0,2.0,12.3000001907,0.0
1614894266920577049,,43731,,1614894266,631941152,"""0""",12.0,2.0,12.3000001907,0.0
1614894267055442094,,43732,,1614894266,682051881,"""0""",12.0,1.75,12.3000001907,0.0
1614894267055552959,,43733,,1614894266,731936725,"""0""",12.0,1.375,12.3000001907,0.0
1614894267055571079,,43734,,1614894266,781924590,"""0""",12.0,1.375,12.3000001907,0.0
1614894267055593967,,43735,,1614894266,832017923,"""0""",12.0,1.0,12.3500003815,0.0
1614894267055615901,,43736,,1614894266,881937610,"""0""",12.0,1.0,12.3500003815,0.0
1614894267055634975,,43737,,1614894266,931962402,"""0""",12.0,1.0,12.3500003815,0.0
1614894267055656909,,43738,,1614894266,981923444,"""0""",12.0,1.0,12.3500003815,0.0
1614894267055676937,,43739,,1614894267,31915319,"""0""",12.0,1.0,12.3500003815,0.0
1614894267055696964,,43740,,1614894267,82023287,"""0""",12.0,1.0,12.3500003815,0.0
1614894267055718898,,43741,,1614894267,131935631,"""0""",12.0,0.625,12.3500003815,0.0
1614894267227540016,,43742,,1614894267,182012558,"""0""",12.0,1.0,12.3500003815,0.0
1614894267229516029,,43743,,1614894267,231928339,"""0""",12.0,1.0,12.3500003815,0.0
1614894267264266014,,43744,,1614894267,281948756,"""0""",12.0,1.0,12.3500003815,0.0
1614894267264436960,,43745,,1614894267,331934537,"""0""",12.0,1.375,12.3500003815,0.0
1614894267264462947,,43746,,1614894267,381933496,"""0""",12.0,1.0,12.3500003815,0.0
1614894267264487028,,43747,,1614894267,432000423,"""0""",12.0,1.375,12.3500003815,0.0
1614894267425614118,,43748,,1614894267,482192871,"""0""",12.0,1.375,12.3500003815,0.0
1614894267425721883,,43749,,1614894267,531923808,"""0""",12.0,1.75,12.3500003815,0.0
1614894267425745964,,43750,,1614894267,581953235,"""0""",12.0,1.75,12.3500003815,0.0
1614894267753683090,,43751,,1614894267,631991048,"""0""",12.0,2.0,12.3000001907,0.0
1614894267996393918,,43752,,1614894267,682001516,"""0""",12.0,2.0,12.3000001907,0.0
1614894267996795892,,43753,,1614894267,732004485,"""0""",12.0,2.0,12.3000001907,0.0
1614894267996881008,,43754,,1614894267,781921308,"""0""",12.0,2.75,12.25,0.0
1614894267998073101,,43755,,1614894267,831917870,"""0""",12.0,3.0,12.25,0.0
1614894267998208999,,43756,,1614894267,881966360,"""0""",12.0,2.0,12.25,0.0
1614894267998343944,,43757,,1614894267,931968235,"""0""",12.0,1.75,12.25,0.0
1614894267998378038,,43758,,1614894267,981975318,"""0""",12.0,1.75,12.3000001907,0.0
1614894267998409032,,43759,,1614894268,31948912,"""0""",12.0,3.0,12.3000001907,0.0
1614894268027075052,,43760,,1614894268,81934850,"""0""",12.0,3.375,12.3000001907,0.0
1614894268027183055,,43761,,1614894268,131984954,"""0""",12.0,2.375,12.25,0.0
1614894268027239084,,43762,,1614894268,181940787,"""0""",12.0,1.75,12.25,0.0
1614894268096568107,,43763,,1614894268,232029068,"""0""",12.0,1.0,12.25,0.0
1614894268737205982,,43764,,1614894268,281910318,"""0""",12.0,1.75,12.3000001907,0.0
1614894268737325906,,43765,,1614894268,331924433,"""0""",12.0,2.0,12.3000001907,0.0
1614894268737350940,,43766,,1614894268,381961256,"""0""",12.0,1.0,12.3000001907,0.0
1614894268737385988,,43767,,1614894268,431948860,"""0""",12.0,0.625,12.3500003815,0.0
1614894268737406969,,43768,,1614894268,481943756,"""0""",12.0,0.625,12.3500003815,0.0
1614894268737448930,,43769,,1614894268,531957870,"""0""",12.0,0.625,12.3500003815,0.0
1614894268737731933,,43770,,1614894268,581960891,"""0""",12.0,1.0,12.3500003815,0.0
1614894268737757921,,43771,,1614894268,631977245,"""0""",12.0,1.75,12.3500003815,0.0
1614894268737922906,,43772,,1614894268,682033235,"""0""",12.0,1.375,12.3500003815,0.0
1614894268753418922,,43773,,1614894268,731919901,"""0""",12.0,1.375,12.3500003815,0.0
1614894268754942893,,43774,,1614894268,781969224,"""0""",11.0,3.0,12.25,0.0
1614894268755017995,,43775,,1614894268,831930214,"""0""",11.0,3.875,12.25,0.0
1614894268755040884,,43776,,1614894268,881974797,"""0""",11.0,4.0,12.25,0.0
1614894268755073070,,43777,,1614894268,931990214,"""0""",12.0,4.375,12.1499996185,0.0
1614894268920422077,,43778,,1614894268,981948495,"""0""",12.0,4.375,12.1499996185,0.0
1614894269075797080,,43779,,1614894269,31923130,"""0""",12.0,4.125,12.1499996185,0.0
1614894269077850103,,43780,,1614894269,81993235,"""0""",12.0,4.25,12.1499996185,0.0
1614894269077883958,,43781,,1614894269,132018182,"""0""",12.0,4.375,12.1499996185,0.0
1614894269077907085,,43782,,1614894269,181991672,"""0""",12.0,4.375,12.1499996185,0.0
1614894269078038930,,43783,,1614894269,232044276,"""0""",12.0,4.25,12.1999998093,0.0
1614894269101659059,,43784,,1614894269,282117974,"""0""",12.0,4.125,12.1999998093,0.0
1614894269256573915,,43785,,1614894269,331925370,"""0""",12.0,4.125,12.1999998093,0.0
1614894269256597042,,43786,,1614894269,382022245,"""0""",12.0,4.375,12.1499996185,0.0
1614894269256618022,,43787,,1614894269,431920422,"""0""",12.0,4.375,12.1499996185,0.0
1614894269385140895,,43788,,1614894269,482057557,"""0""",12.0,4.5,12.1499996185,0.0
1614894269696841001,,43789,,1614894269,531960214,"""0""",12.0,4.5,12.1499996185,0.0
1614894269696899890,,43790,,1614894269,582005109,"""0""",12.0,4.375,12.1000003815,0.0
1614894269697055101,,43791,,1614894269,631962089,"""0""",12.0,4.375,12.1000003815,0.0
1614894269697084903,,43792,,1614894269,681999693,"""0""",12.0,4.375,12.1000003815,0.0
1614894269697117090,,43793,,1614894269,731992922,"""0""",11.0,4.375,12.1499996185,0.0
1614894269871092081,,43794,,1614894269,781988859,"""0""",11.0,4.5,12.1499996185,0.0
1614894269880017995,,43795,,1614894269,832041880,"""0""",11.0,4.5,12.1499996185,0.0
1614894269880059957,,43796,,1614894269,881948547,"""0""",11.0,4.625,12.1999998093,0.0
1614894269880084991,,43797,,1614894269,931918130,"""0""",11.0,4.5,12.1999998093,0.0
1614894269880105972,,43798,,1614894269,982000422,"""0""",11.0,4.375,12.1999998093,0.0
1614894269880126953,,43799,,1614894270,31954484,"""0""",11.0,4.75,12.1000003815,0.0
1614894269888500928,,43800,,1614894270,82315161,"""0""",11.0,4.25,12.1000003815,0.0
1614894269951589107,,43801,,1614894270,131973130,"""0""",11.0,4.375,12.1000003815,0.0
1614894269991338014,,43802,,1614894270,181930630,"""0""",11.0,4.5,12.1000003815,0.0
1614894270045809030,,43803,,1614894270,231957453,"""0""",11.0,4.625,12.1000003815,0.0
1614894270092402935,,43804,,1614894270,282702870,"""0""",11.0,4.5,12.1000003815,0.0
1614894270142648935,,43805,,1614894270,331962870,"""0""",11.0,4.375,12.1000003815,0.0
1614894270196660041,,43806,,1614894270,382000995,"""0""",12.0,4.625,12.1499996185,0.0
1614894270241400957,,43807,,1614894270,431944849,"""0""",12.0,4.75,12.1499996185,0.0
1614894270298022985,,43808,,1614894270,481977036,"""0""",12.0,4.375,12.1499996185,0.0
1614894270361903905,,43809,,1614894270,531965057,"""0""",11.0,4.625,12.1000003815,0.0
1614894270398387908,,43810,,1614894270,582427244,"""0""",11.0,4.875,12.1000003815,0.0
1614894270446866035,,43811,,1614894270,631968026,"""0""",11.0,4.875,12.1000003815,0.0
1614894270485521078,,43812,,1614894270,681952453,"""0""",11.0,5.5,12.0500001907,0.0
1614894270537992954,,43813,,1614894270,731951515,"""0""",11.0,4.875,12.0500001907,0.0
1614894270588013887,,43814,,1614894270,782011463,"""0""",11.0,4.625,12.0500001907,0.0
1614894270637927055,,43815,,1614894270,831948755,"""0""",11.0,4.625,12.1000003815,0.0
1614894270684832096,,43816,,1614894270,882005161,"""0""",11.0,4.625,12.1000003815,0.0
1614894270738702058,,43817,,1614894270,931926411,"""0""",11.0,4.5,12.1000003815,0.0
1614894270786704063,,43818,,1614894270,982419328,"""0""",12.0,4.875,12.0500001907,0.0
1614894270833688974,,43819,,1614894271,31917348,"""0""",12.0,4.875,12.0500001907,0.0
1614894270889017105,,43820,,1614894271,81957140,"""0""",12.0,4.75,12.0500001907,0.0
1614894270934298992,,43821,,1614894271,133167244,"""0""",12.0,4.875,12.0500001907,0.0
1614894270987586021,,43822,,1614894271,181956984,"""0""",12.0,4.5,12.1000003815,0.0
1614894271033304929,,43823,,1614894271,231914275,"""0""",12.0,5.125,12.1000003815,0.0
1614894271087548971,,43824,,1614894271,282429536,"""0""",12.0,4.625,12.1000003815,0.0
1614894271136054992,,43825,,1614894271,331975942,"""0""",12.0,4.5,12.1000003815,0.0
1614894271193583011,,43826,,1614894271,381950265,"""0""",12.0,4.5,12.1000003815,0.0
1614894271241595983,,43827,,1614894271,431956150,"""0""",12.0,4.25,12.1000003815,0.0
1614894271290719985,,43828,,1614894271,481937557,"""0""",11.0,4.375,12.1000003815,0.0
1614894271334352016,,43829,,1614894271,531964067,"""0""",11.0,4.5,12.1000003815,0.0
1614894271389825105,,43830,,1614894271,581935161,"""0""",11.0,4.5,12.1000003815,0.0
1614894271436790943,,43831,,1614894271,631927557,"""0""",11.0,4.375,12.1499996185,0.0
1614894271488693952,,43832,,1614894271,682042400,"""0""",11.0,4.5,12.1499996185,0.0
1614894271545447111,,43833,,1614894271,731957869,"""0""",11.0,4.125,12.1499996185,0.0
1614894271596564054,,43834,,1614894271,781959327,"""0""",12.0,4.0,12.1999998093,0.0
1614894271635929107,,43835,,1614894271,831976202,"""0""",12.0,4.125,12.1999998093,0.0
1614894271687426090,,43836,,1614894271,881945786,"""0""",12.0,4.0,12.1999998093,0.0
1614894271739706993,,43837,,1614894271,931922244,"""0""",12.0,4.0,12.1999998093,0.0
1614894271787012100,,43838,,1614894271,981945473,"""0""",11.0,3.375,12.25,0.0
1614894271847105979,,43839,,1614894272,31919640,"""0""",11.0,2.375,12.25,0.0
1614894271897660017,,43840,,1614894272,81978598,"""0""",11.0,2.75,12.25,0.0
1614894271934627056,,43841,,1614894272,131992869,"""0""",12.0,2.375,12.1999998093,0.0
1614894271992749929,,43842,,1614894272,182266671,"""0""",12.0,1.75,12.1999998093,0.0
1614894272045862913,,43843,,1614894272,231949535,"""0""",12.0,1.75,12.1999998093,0.0
1614894272090080976,,43844,,1614894272,281941879,"""0""",12.0,1.375,12.3000001907,0.0
1614894272139257907,,43845,,1614894272,331987088,"""0""",12.0,1.0,12.3000001907,0.0
1614894272189668893,,43846,,1614894272,382453598,"""0""",12.0,0.625,12.3000001907,0.0
1614894272239306926,,43847,,1614894272,431941671,"""0""",12.0,0.375,12.3500003815,0.0
1614894272291939020,,43848,,1614894272,481984640,"""0""",12.0,0.375,12.3500003815,0.0
1614894272337385892,,43849,,1614894272,531938754,"""0""",12.0,0.375,12.3500003815,0.0
1614894272392210006,,43850,,1614894272,581958077,"""0""",12.0,0.375,12.3500003815,0.0
1614894272445214986,,43851,,1614894272,631921671,"""0""",12.0,0.375,12.3500003815,0.0
1614894272499670982,,43852,,1614894272,682774275,"""0""",12.0,0.375,12.3500003815,0.0
1614894272538774967,,43853,,1614894272,731955942,"""0""",12.0,0.375,12.3500003815,0.0
1614894272592046022,,43854,,1614894272,781930421,"""0""",12.0,0.0,12.3999996185,0.0
1614894272641773939,,43855,,1614894272,832011671,"""0""",12.0,0.0,12.3999996185,0.0
1614894272691008090,,43856,,1614894272,881962816,"""0""",12.0,0.0,12.3999996185,0.0
1614894272747452974,,43857,,1614894272,932869796,"""0""",12.0,0.0,12.3999996185,0.0
1614894272795742988,,43858,,1614894272,981953337,"""0""",12.0,0.375,12.3999996185,0.0
1614894272838215112,,43859,,1614894273,32000837,"""0""",12.0,0.375,12.3999996185,0.0
1614894272888573884,,43860,,1614894273,82509848,"""0""",12.0,0.375,12.3500003815,0.0
1614894272936655998,,43861,,1614894273,131961671,"""0""",12.0,0.375,12.3500003815,0.0
1614894272994654893,,43862,,1614894273,181929900,"""0""",12.0,0.375,12.3500003815,0.0
1614894273036540031,,43863,,1614894273,231989483,"""0""",11.0,0.375,12.3500003815,0.0
1614894273092084884,,43864,,1614894273,282029743,"""0""",11.0,0.375,12.3500003815,0.0
1614894273142343044,,43865,,1614894273,331968962,"""0""",11.0,0.375,12.3500003815,0.0
1614894273196317911,,43866,,1614894273,381906150,"""0""",11.0,0.375,12.3500003815,0.0
1614894273241372108,,43867,,1614894273,431946306,"""0""",11.0,0.375,12.3500003815,0.0
1614894273287481069,,43868,,1614894273,481927035,"""0""",11.0,0.375,12.3500003815,0.0
1614894273346767902,,43869,,1614894273,532001722,"""0""",11.0,0.375,12.3500003815,0.0
1614894273392841100,,43870,,1614894273,581925472,"""0""",12.0,0.625,12.3500003815,0.0
1614894273445746898,,43871,,1614894273,632134743,"""0""",12.0,0.625,12.3500003815,0.0
1614894273498495101,,43872,,1614894273,681927712,"""0""",12.0,0.375,12.3500003815,0.0
1614894273534831047,,43873,,1614894273,731956931,"""0""",12.0,0.375,12.3500003815,0.0
1614894273594997882,,43874,,1614894273,781974639,"""0""",12.0,0.625,12.3500003815,0.0
1614894273650763034,,43875,,1614894273,833427712,"""0""",12.0,0.625,12.3500003815,0.0
1614894273691055059,,43876,,1614894273,881933701,"""0""",12.0,0.375,12.3500003815,0.0
1614894273747984886,,43877,,1614894273,931954587,"""0""",12.0,0.625,12.3500003815,0.0
1614894273785345077,,43878,,1614894273,983316410,"""0""",12.0,2.0,12.3500003815,0.0
1614894273844316005,,43879,,1614894274,31970160,"""0""",12.0,2.375,12.25,0.0
1614894273898134946,,43880,,1614894274,82040681,"""0""",12.0,2.75,12.25,0.0
1614894273945276021,,43881,,1614894274,131953233,"""0""",12.0,4.0,12.25,0.0
1614894273991780996,,43882,,1614894274,181910733,"""0""",11.0,4.125,12.1999998093,0.0
1614894274041516065,,43883,,1614894274,231955785,"""0""",11.0,4.25,12.1999998093,0.0
1614894274084304094,,43884,,1614894274,281966514,"""0""",11.0,4.125,12.1999998093,0.0
1614894274144268989,,43885,,1614894274,332006462,"""0""",11.0,4.125,12.1999998093,0.0
1614894274189719915,,43886,,1614894274,382004951,"""0""",11.0,4.25,12.1999998093,0.0
1614894274246572971,,43887,,1614894274,431947295,"""0""",11.0,4.375,12.1999998093,0.0
1614894274289060115,,43888,,1614894274,481961826,"""0""",11.0,4.125,12.1999998093,0.0
1614894274345305919,,43889,,1614894274,531920055,"""0""",12.0,4.125,12.1499996185,0.0
1614894274397228002,,43890,,1614894274,581928076,"""0""",12.0,4.0,12.1499996185,0.0
1614894274437649965,,43891,,1614894274,631940576,"""0""",12.0,4.0,12.1499996185,0.0
1614894274494950056,,43892,,1614894274,681916930,"""0""",12.0,4.125,12.25,0.0
1614894274538526058,,43893,,1614894274,731943232,"""0""",12.0,4.125,12.25,0.0
1614894274598690986,,43894,,1614894274,781937087,"""0""",12.0,4.25,12.25,0.0
1614894274641721010,,43895,,1614894274,831957503,"""0""",12.0,4.25,12.1499996185,0.0
1614894274694679975,,43896,,1614894274,881968389,"""0""",12.0,4.25,12.1499996185,0.0
1614894274743036985,,43897,,1614894274,932106045,"""0""",12.0,4.25,12.1499996185,0.0
1614894274797244071,,43898,,1614894274,981906878,"""0""",11.0,4.25,12.1499996185,0.0
1614894274841957092,,43899,,1614894275,32960368,"""0""",11.0,4.25,12.1499996185,0.0
1614894274892362117,,43900,,1614894275,81965368,"""0""",11.0,4.25,12.1499996185,0.0
1614894274937839031,,43901,,1614894275,131949795,"""0""",11.0,4.375,12.1499996185,0.0
1614894274996345043,,43902,,1614894275,181989430,"""0""",11.0,4.375,12.1499996185,0.0
1614894275036659955,,43903,,1614894275,231946722,"""0""",11.0,4.375,12.1499996185,0.0
1614894275089339017,,43904,,1614894275,282016566,"""0""",11.0,4.375,12.1499996185,0.0
1614894275133586883,,43905,,1614894275,331948336,"""0""",11.0,4.375,12.1000003815,0.0
1614894275193017959,,43906,,1614894275,381948284,"""0""",11.0,4.375,12.1000003815,0.0
1614894275241799116,,43907,,1614894275,432315628,"""0""",11.0,4.375,12.1000003815,0.0
1614894275290399074,,43908,,1614894275,481931409,"""0""",12.0,4.25,12.1499996185,0.0
1614894275346620082,,43909,,1614894275,531947607,"""0""",12.0,4.25,12.1499996185,0.0
1614894275394754886,,43910,,1614894275,582005055,"""0""",12.0,4.125,12.1499996185,0.0
1614894275434650897,,43911,,1614894275,631951878,"""0""",12.0,4.25,12.1499996185,0.0
1614894275492820978,,43912,,1614894275,681961409,"""0""",12.0,4.25,12.1499996185,0.0
1614894275542661905,,43913,,1614894275,731953805,"""0""",12.0,4.25,12.1499996185,0.0
1614894275592689990,,43914,,1614894275,781956097,"""0""",12.0,4.125,12.1999998093,0.0
1614894275645697116,,43915,,1614894275,831946878,"""0""",12.0,4.0,12.1999998093,0.0
1614894275698533058,,43916,,1614894275,881908701,"""0""",12.0,4.0,12.1999998093,0.0
1614894275755963087,,43917,,1614894275,932208909,"""0""",12.0,4.0,12.1999998093,0.0
1614894275792640924,,43918,,1614894275,981961201,"""0""",11.0,4.0,12.1999998093,0.0
1614894275841996908,,43919,,1614894276,32151513,"""0""",11.0,4.0,12.1999998093,0.0
1614894275895128965,,43920,,1614894276,81916149,"""0""",11.0,3.875,12.1999998093,0.0
1614894275944046020,,43921,,1614894276,131951774,"""0""",11.0,3.875,12.1999998093,0.0
1614894276007682085,,43922,,1614894276,181937867,"""0""",11.0,4.0,12.1999998093,0.0
1614894276041157007,,43923,,1614894276,231952971,"""0""",11.0,4.0,12.1999998093,0.0
1614894276091681957,,43924,,1614894276,281974117,"""0""",12.0,3.875,12.1999998093,0.0
1614894276139519929,,43925,,1614894276,331952346,"""0""",12.0,3.875,12.1999998093,0.0
1614894276191191911,,43926,,1614894276,381933336,"""0""",12.0,3.875,12.1999998093,0.0
1614894276242060899,,43927,,1614894276,431953544,"""0""",11.0,3.875,12.1999998093,0.0
1614894276291862964,,43928,,1614894276,481915159,"""0""",11.0,3.875,12.1999998093,0.0
1614894276355659961,,43929,,1614894276,531989065,"""0""",11.0,3.75,12.1999998093,0.0
1614894276397916078,,43930,,1614894276,581901930,"""0""",11.0,3.0,12.1999998093,0.0
1614894276442421913,,43931,,1614894276,632005159,"""0""",11.0,3.375,12.1999998093,0.0
1614894276495528936,,43932,,1614894276,681977763,"""0""",11.0,3.375,12.1999998093,0.0
1614894276538029909,,43933,,1614894276,732019169,"""0""",11.0,3.375,12.1999998093,0.0
1614894276595525026,,43934,,1614894276,781923648,"""0""",11.0,2.75,12.1999998093,0.0
1614894276658941984,,43935,,1614894276,831951669,"""0""",11.0,2.75,12.1999998093,0.0
1614894276697890043,,43936,,1614894276,881926565,"""0""",11.0,2.75,12.1999998093,0.0
1614894276742990016,,43937,,1614894276,931996096,"""0""",11.0,2.75,12.25,0.0
1614894276791847944,,43938,,1614894276,981926044,"""0""",11.0,3.0,12.25,0.0
1614894276837963104,,43939,,1614894277,31950211,"""0""",11.0,2.75,12.25,0.0
1614894276899162054,,43940,,1614894277,82022086,"""0""",11.0,2.375,12.25,0.0
1614894276938906908,,43941,,1614894277,131994950,"""0""",11.0,2.75,12.25,0.0
1614894276995145082,,43942,,1614894277,181919898,"""0""",11.0,3.0,12.25,0.0
1614894277042021989,,43943,,1614894277,231944117,"""0""",12.0,2.75,12.25,0.0
1614894277094173908,,43944,,1614894277,281917086,"""0""",12.0,3.0,12.25,0.0
1614894277141180038,,43945,,1614894277,331950731,"""0""",12.0,3.75,12.25,0.0
1614894277182833909,,43946,,1614894277,381930679,"""0""",11.0,3.75,12.1999998093,0.0
1614894277256277084,,43947,,1614894277,431946669,"""0""",11.0,3.0,12.1999998093,0.0
1614894277295941114,,43948,,1614894277,482036773,"""0""",11.0,3.375,12.1999998093,0.0
1614894277338567972,,43949,,1614894277,531940367,"""0""",11.0,3.0,12.1999998093,0.0
1614894277391407012,,43950,,1614894277,581948596,"""0""",12.0,3.375,12.1999998093,0.0
1614894277446868896,,43951,,1614894277,632420940,"""0""",12.0,3.375,12.1999998093,0.0
1614894277494103908,,43952,,1614894277,681952033,"""0""",12.0,3.375,12.1999998093,0.0
1614894277538180112,,43953,,1614894277,734663283,"""0""",12.0,3.375,12.1999998093,0.0
1614894277593806982,,43954,,1614894277,781953231,"""0""",12.0,3.875,12.1999998093,0.0
1614894277638189077,,43955,,1614894277,831983648,"""0""",12.0,3.875,12.1999998093,0.0
1614894277696130037,,43956,,1614894277,881946877,"""0""",11.0,3.875,12.1999998093,0.0
1614894277753983974,,43957,,1614894277,932411356,"""0""",11.0,3.375,12.1999998093,0.0
1614894277801522970,,43958,,1614894277,982677137,"""0""",11.0,2.75,12.1999998093,0.0
1614894277845856904,,43959,,1614894278,31939533,"""0""",11.0,2.75,12.25,0.0
1614894277898876905,,43960,,1614894278,81965679,"""0""",11.0,3.75,12.25,0.0
1614894277947792053,,43961,,1614894278,131949169,"""0""",11.0,4.0,12.25,0.0
1614894277994254112,,43962,,1614894278,182117242,"""0""",12.0,3.875,12.1999998093,0.0
1614894278049977064,,43963,,1614894278,231935106,"""0""",12.0,4.0,12.1999998093,0.0
1614894278100857973,,43964,,1614894278,281942710,"""0""",12.0,4.0,12.1999998093,0.0
1614894278153584003,,43965,,1614894278,331937346,"""0""",12.0,4.0,12.1999998093,0.0
1614894278194600105,,43966,,1614894278,381979950,"""0""",11.0,3.875,12.1999998093,0.0
1614894278251962900,,43967,,1614894278,432434689,"""0""",11.0,3.875,12.1999998093,0.0
1614894278290992975,,43968,,1614894278,481943700,"""0""",11.0,3.0,12.1999998093,0.0
1614894278356468915,,43969,,1614894278,531940210,"""0""",12.0,3.0,12.25,0.0
1614894278420720100,,43970,,1614894278,583025054,"""0""",12.0,2.75,12.25,0.0
1614894278463987112,,43971,,1614894278,631962293,"""0""",12.0,3.0,12.25,0.0
1614894278498605012,,43972,,1614894278,683463700,"""0""",12.0,3.0,12.1999998093,0.0
1614894278554385900,,43973,,1614894278,731935418,"""0""",12.0,3.375,12.1999998093,0.0
1614894278595216035,,43974,,1614894278,781941825,"""0""",12.0,3.875,12.1999998093,0.0
1614894278647773027,,43975,,1614894278,831947814,"""0""",11.0,3.875,12.1999998093,0.0
1614894278695997953,,43976,,1614894278,881943856,"""0""",11.0,3.875,12.1999998093,0.0
1614894278748166084,,43977,,1614894278,931945522,"""0""",11.0,3.875,12.1999998093,0.0
1614894278792579889,,43978,,1614894278,981927293,"""0""",12.0,3.875,12.1999998093,0.0
1614894278843966007,,43979,,1614894279,31961512,"""0""",12.0,3.875,12.1999998093,0.0
1614894278888706922,,43980,,1614894279,81948283,"""0""",12.0,4.0,12.1999998093,0.0
1614894278943075895,,43981,,1614894279,131971824,"""0""",12.0,3.875,12.1999998093,0.0
1614894279002111911,,43982,,1614894279,181953804,"""0""",11.0,3.875,12.1999998093,0.0
1614894279042519092,,43983,,1614894279,231977866,"""0""",11.0,4.0,12.1999998093,0.0
1614894279093398094,,43984,,1614894279,281932658,"""0""",11.0,4.0,12.1999998093,0.0
1614894279148631095,,43985,,1614894279,331979429,"""0""",11.0,3.875,12.1999998093,0.0
1614894279194447040,,43986,,1614894279,381996460,"""0""",11.0,3.875,12.1999998093,0.0
1614894279245296955,,43987,,1614894279,431973543,"""0""",11.0,4.0,12.1999998093,0.0
1614894279291372060,,43988,,1614894279,481952241,"""0""",12.0,4.0,12.1499996185,0.0
1614894279346738100,,43989,,1614894279,531936147,"""0""",12.0,3.875,12.1499996185,0.0
1614894279401730060,,43990,,1614894279,581925991,"""0""",12.0,3.875,12.1499996185,0.0
1614894279449263095,,43991,,1614894279,631931512,"""0""",12.0,2.75,12.25,0.0
1614894279492356061,,43992,,1614894279,681996928,"""0""",12.0,2.0,12.25,0.0
1614894279548049926,,43993,,1614894279,731927814,"""0""",12.0,2.0,12.25,0.0
1614894279596280097,,43994,,1614894279,781906251,"""0""",12.0,3.0,12.1999998093,0.0
1614894279637932062,,43995,,1614894279,831931199,"""0""",12.0,3.75,12.1999998093,0.0
1614894279693902969,,43996,,1614894279,882312814,"""0""",12.0,3.75,12.1999998093,0.0
1614894279755578041,,43997,,1614894279,931974793,"""0""",12.0,3.875,12.1999998093,0.0
1614894279798863887,,43998,,1614894279,981940262,"""0""",11.0,4.0,12.1999998093,0.0
1614894279840898990,,43999,,1614894280,31973855,"""0""",11.0,4.0,12.1999998093,0.0
1614894279904270887,,44000,,1614894280,82322032,"""0""",11.0,4.0,12.1999998093,0.0
1614894279956357002,,44001,,1614894280,131929220,"""0""",12.0,4.0,12.1499996185,0.0
1614894280000144004,,44002,,1614894280,182015678,"""0""",12.0,4.0,12.1499996185,0.0
1614894280050750017,,44003,,1614894280,231914949,"""0""",12.0,4.0,12.1499996185,0.0
1614894280098104953,,44004,,1614894280,282027084,"""0""",12.0,4.0,12.1999998093,0.0
1614894280150258064,,44005,,1614894280,331943230,"""0""",12.0,4.0,12.1999998093,0.0
1614894280195682048,,44006,,1614894280,381966668,"""0""",12.0,3.875,12.1999998093,0.0
1614894280243325948,,44007,,1614894280,432041876,"""0""",11.0,3.875,12.1999998093,0.0
1614894280298357009,,44008,,1614894280,481984324,"""0""",11.0,3.875,12.1999998093,0.0
1614894280346883058,,44009,,1614894280,531942449,"""0""",11.0,3.875,12.1999998093,0.0
1614894280399775028,,44010,,1614894280,581974064,"""0""",11.0,3.875,12.1999998093,0.0
1614894280442982912,,44011,,1614894280,631922241,"""0""",11.0,4.0,12.1999998093,0.0
1614894280500787019,,44012,,1614894280,682182241,"""0""",11.0,4.0,12.1999998093,0.0
1614894280551621913,,44013,,1614894280,731929793,"""0""",11.0,4.125,12.1999998093,0.0
1614894280596638917,,44014,,1614894280,781995834,"""0""",12.0,4.0,12.1999998093,0.0
1614894280647156000,,44015,,1614894280,831982241,"""0""",12.0,3.875,12.1999998093,0.0
1614894280693481922,,44016,,1614894280,882019793,"""0""",12.0,3.75,12.1999998093,0.0
1614894280747747898,,44017,,1614894280,932003647,"""0""",12.0,3.75,12.1999998093,0.0
1614894280799412965,,44018,,1614894280,981972240,"""0""",12.0,2.75,12.1999998093,0.0
1614894280861793994,,44019,,1614894281,31940730,"""0""",12.0,2.375,12.1999998093,0.0
1614894280900011062,,44020,,1614894281,82949272,"""0""",11.0,2.375,12.25,0.0
1614894280952047109,,44021,,1614894281,131912709,"""0""",11.0,2.75,12.25,0.0
1614894280998553991,,44022,,1614894281,181972501,"""0""",11.0,3.375,12.25,0.0
1614894281054160118,,44023,,1614894281,231961720,"""0""",12.0,3.75,12.1999998093,0.0
1614894281106106042,,44024,,1614894281,282003647,"""0""",12.0,3.375,12.1999998093,0.0
1614894281151233911,,44025,,1614894281,333696719,"""0""",12.0,3.0,12.1999998093,0.0
1614894281196008920,,44026,,1614894281,382067397,"""0""",11.0,3.75,12.25,0.0
1614894281248172044,,44027,,1614894281,432062501,"""0""",11.0,3.875,12.25,0.0
1614894281295120954,,44028,,1614894281,481971980,"""0""",11.0,4.0,12.25,0.0
1614894281347728013,,44029,,1614894281,531945574,"""0""",11.0,4.0,12.25,0.0
1614894281395598888,,44030,,1614894281,582014011,"""0""",11.0,4.125,12.1499996185,0.0
1614894281446141004,,44031,,1614894281,631974011,"""0""",11.0,4.125,12.1499996185,0.0
1614894281496921062,,44032,,1614894281,681992449,"""0""",11.0,4.125,12.1499996185,0.0
1614894281548733949,,44033,,1614894281,731946771,"""0""",11.0,4.125,12.1499996185,0.0
1614894281600711107,,44034,,1614894281,782019011,"""0""",11.0,4.0,12.1499996185,0.0
1614894281650573015,,44035,,1614894281,831949323,"""0""",11.0,4.0,12.1499996185,0.0
1614894281721611976,,44036,,1614894281,882524948,"""0""",12.0,4.125,12.1000003815,0.0
1614894281761466026,,44037,,1614894281,933992709,"""0""",12.0,4.0,12.1000003815,0.0
1614894281797270059,,44038,,1614894281,981915782,"""0""",12.0,4.0,12.1000003815,0.0
1614894281850753068,,44039,,1614894282,31933438,"""0""",11.0,3.875,12.1999998093,0.0
1614894281897164106,,44040,,1614894282,81955886,"""0""",11.0,3.875,12.1999998093,0.0
1614894281954267024,,44041,,1614894282,131993386,"""0""",11.0,4.0,12.1999998093,0.0
1614894281995527029,,44042,,1614894282,181926198,"""0""",12.0,4.0,12.1999998093,0.0
1614894282053822040,,44043,,1614894282,231994011,"""0""",12.0,3.875,12.1999998093,0.0
1614894282101593017,,44044,,1614894282,281949427,"""0""",12.0,3.875,12.1999998093,0.0
1614894282154863119,,44045,,1614894282,331954584,"""0""",12.0,3.75,12.1999998093,0.0
1614894282192583084,,44046,,1614894282,381955417,"""0""",11.0,3.875,12.1999998093,0.0
1614894282250489950,,44047,,1614894282,431973594,"""0""",11.0,4.0,12.1999998093,0.0
1614894282299345970,,44048,,1614894282,482002709,"""0""",11.0,4.0,12.1999998093,0.0
1614894282361131906,,44049,,1614894282,532007500,"""0""",12.0,3.875,12.1999998093,0.0
1614894282398024082,,44050,,1614894282,581985677,"""0""",12.0,3.875,12.1999998093,0.0
1614894282451698064,,44051,,1614894282,631988854,"""0""",12.0,3.875,12.1999998093,0.0
1614894282496552944,,44052,,1614894282,682023125,"""0""",11.0,3.875,12.1999998093,0.0
1614894282551587104,,44053,,1614894282,731956198,"""0""",11.0,3.875,12.1999998093,0.0
1614894282638221025,,44054,,1614894282,781952500,"""0""",11.0,2.75,12.1999998093,0.0
1614894282638431072,,44055,,1614894282,831970469,"""0""",12.0,2.75,12.25,0.0
1614894282701165914,,44056,,1614894282,882090938,"""0""",12.0,3.0,12.25,0.0
1614894282746593952,,44057,,1614894282,931910208,"""0""",12.0,3.375,12.25,0.0
1614894282797950029,,44058,,1614894282,981927344,"""0""",12.0,3.0,12.25,0.0
1614894282849337100,,44059,,1614894283,31968281,"""0""",12.0,3.0,12.25,0.0
1614894282924153089,,44060,,1614894283,81947500,"""0""",12.0,2.75,12.25,0.0
1614894282949700117,,44061,,1614894283,131980781,"""0""",12.0,2.75,12.25,0.0
1614894283000475883,,44062,,1614894283,181977500,"""0""",12.0,2.375,12.25,0.0
1614894283054351091,,44063,,1614894283,232022917,"""0""",12.0,2.0,12.25,0.0
1614894283096206903,,44064,,1614894283,281981875,"""0""",12.0,1.375,12.25,0.0
1614894283148294925,,44065,,1614894283,331922917,"""0""",12.0,1.75,12.3000001907,0.0
1614894283203660964,,44066,,1614894283,381950885,"""0""",12.0,2.0,12.3000001907,0.0
1614894283304733037,,44067,,1614894283,431969375,"""0""",12.0,1.75,12.3000001907,0.0
1614894283304850101,,44068,,1614894283,481946562,"""0""",12.0,1.0,12.3000001907,0.0
1614894283346059083,,44069,,1614894283,531919167,"""0""",12.0,1.0,12.3000001907,0.0
1614894283399739027,,44070,,1614894283,581953333,"""0""",12.0,0.625,12.3000001907,0.0
1614894283452313899,,44071,,1614894283,631998385,"""0""",12.0,0.625,12.3000001907,0.0
1614894283519561052,,44072,,1614894283,682001562,"""0""",12.0,0.375,12.3000001907,0.0
1614894283553566932,,44073,,1614894283,731949844,"""0""",12.0,0.375,12.3000001907,0.0
1614894283609863996,,44074,,1614894283,781918958,"""0""",11.0,0.0,12.3999996185,0.0
1614894283653234004,,44075,,1614894283,831928594,"""0""",11.0,0.0,12.3999996185,0.0
1614894283701145887,,44076,,1614894283,881979010,"""0""",11.0,0.375,12.3999996185,0.0
1614894283760597944,,44077,,1614894283,931958177,"""0""",11.0,0.375,12.3999996185,0.0
1614894283802031040,,44078,,1614894283,981950989,"""0""",12.0,0.375,12.3500003815,0.0
1614894283853832006,,44079,,1614894284,32021302,"""0""",12.0,0.375,12.3500003815,0.0
1614894283901940107,,44080,,1614894284,81938489,"""0""",12.0,0.375,12.3500003815,0.0
1614894283950726032,,44081,,1614894284,131944010,"""0""",12.0,0.375,12.3500003815,0.0
1614894284012862920,,44082,,1614894284,181937812,"""0""",12.0,1.375,12.3500003815,0.0
1614894284048233032,,44083,,1614894284,231989375,"""0""",12.0,1.75,12.3500003815,0.0
1614894284103607892,,44084,,1614894284,283621875,"""0""",11.0,1.375,12.3000001907,0.0
1614894284159830093,,44085,,1614894284,331956250,"""0""",11.0,2.0,12.3000001907,0.0
1614894284215715885,,44086,,1614894284,381951770,"""0""",11.0,2.0,12.3000001907,0.0
1614894284281944036,,44087,,1614894284,431968802,"""0""",11.0,2.0,12.25,0.0
1614894284313687086,,44088,,1614894284,481926197,"""0""",11.0,2.375,12.25,0.0
1614894284357291936,,44089,,1614894284,531951822,"""0""",11.0,1.75,12.25,0.0
1614894284402832031,,44090,,1614894284,581920260,"""0""",12.0,1.75,12.25,0.0
1614894284473858118,,44091,,1614894284,631945364,"""0""",12.0,1.375,12.25,0.0
1614894284517091989,,44092,,1614894284,682137499,"""0""",12.0,0.625,12.25,0.0
1614894284548566102,,44093,,1614894284,731958124,"""0""",12.0,0.625,12.25,0.0
1614894284603868007,,44094,,1614894284,781969843,"""0""",12.0,1.0,12.3500003815,0.0
1614894284651207923,,44095,,1614894284,831947447,"""0""",12.0,3.0,12.3500003815,0.0
1614894284704993009,,44096,,1614894284,881930051,"""0""",12.0,3.875,12.3500003815,0.0
1614894284752512931,,44097,,1614894284,932023645,"""0""",12.0,2.0,12.25,0.0
1614894284799848079,,44098,,1614894284,981965416,"""0""",12.0,1.375,12.25,0.0
1614894284849265098,,44099,,1614894285,31948697,"""0""",12.0,2.375,12.25,0.0
1614894284906641006,,44100,,1614894285,81972864,"""0""",11.0,1.75,12.25,0.0
1614894285066363096,,44101,,1614894285,131935833,"""0""",11.0,2.0,12.25,0.0
1614894285066476106,,44102,,1614894285,182044010,"""0""",11.0,2.375,12.25,0.0
1614894285066498041,,44103,,1614894285,231949322,"""0""",12.0,2.375,12.1999998093,0.0
1614894285119986057,,44104,,1614894285,281936874,"""0""",12.0,1.75,12.1999998093,0.0
1614894285150367021,,44105,,1614894285,332003749,"""0""",12.0,1.375,12.1999998093,0.0
1614894285211026906,,44106,,1614894285,381906874,"""0""",11.0,1.75,12.25,0.0
1614894285254049062,,44107,,1614894285,431952551,"""0""",11.0,1.375,12.25,0.0
1614894285305211067,,44108,,1614894285,481932343,"""0""",11.0,1.0,12.25,0.0
1614894285391489982,,44109,,1614894285,531949843,"""0""",11.0,1.75,12.25,0.0
1614894285440110921,,44110,,1614894285,582003020,"""0""",12.0,1.375,12.25,0.0
1614894285474986076,,44111,,1614894285,631947812,"""0""",12.0,1.0,12.25,0.0
1614894285508580923,,44112,,1614894285,681930937,"""0""",12.0,1.75,12.25,0.0
1614894285559973001,,44113,,1614894285,732000832,"""0""",11.0,2.375,12.25,0.0
1614894285601708889,,44114,,1614894285,781932551,"""0""",11.0,2.375,12.25,0.0
1614894285670830965,,44115,,1614894285,831962812,"""0""",11.0,2.375,12.25,0.0
1614894285710345983,,44116,,1614894285,881923853,"""0""",11.0,2.375,12.25,0.0
1614894285757141113,,44117,,1614894285,931997291,"""0""",11.0,1.75,12.25,0.0
1614894285806385993,,44118,,1614894285,981924166,"""0""",11.0,1.375,12.25,0.0
1614894285853442907,,44119,,1614894286,31971666,"""0""",11.0,1.75,12.25,0.0
1614894285936337947,,44120,,1614894286,81950468,"""0""",11.0,1.0,12.25,0.0
1614894285997365951,,44121,,1614894286,131930103,"""0""",11.0,1.0,12.25,0.0
1614894286030081033,,44122,,1614894286,181991978,"""0""",12.0,1.375,12.3000001907,0.0
1614894286059540987,,44123,,1614894286,231952082,"""0""",12.0,1.375,12.3000001907,0.0
1614894286108033895,,44124,,1614894286,282013697,"""0""",12.0,1.75,12.3000001907,0.0
1614894286153377056,,44125,,1614894286,331956509,"""0""",12.0,1.75,12.3000001907,0.0
1614894286203780889,,44126,,1614894286,381962551,"""0""",12.0,1.0,12.3000001907,0.0
1614894286264399051,,44127,,1614894286,432084686,"""0""",12.0,1.375,12.3000001907,0.0
1614894286301919937,,44128,,1614894286,482096197,"""0""",12.0,2.0,12.3000001907,0.0
1614894286354403018,,44129,,1614894286,531967186,"""0""",11.0,1.75,12.25,0.0
1614894286403759002,,44130,,1614894286,581966353,"""0""",11.0,2.375,12.25,0.0
1614894286466837882,,44131,,1614894286,631922186,"""0""",11.0,3.375,12.25,0.0
1614894286500037908,,44132,,1614894286,681926770,"""0""",11.0,2.375,12.25,0.0
1614894286591290950,,44133,,1614894286,731938592,"""0""",11.0,1.375,12.25,0.0
1614894286637300014,,44134,,1614894286,781942186,"""0""",11.0,1.375,12.25,0.0
1614894286671495914,,44135,,1614894286,832835676,"""0""",12.0,1.375,12.3000001907,0.0
1614894286771734952,,44136,,1614894286,881996822,"""0""",12.0,1.375,12.3000001907,0.0
1614894286773452997,,44137,,1614894286,931972186,"""0""",12.0,2.0,12.3000001907,0.0
1614894286807574987,,44138,,1614894286,981901561,"""0""",12.0,1.375,12.3000001907,0.0
1614894286882658004,,44139,,1614894287,31914009,"""0""",12.0,0.625,12.3000001907,0.0
1614894286927566051,,44140,,1614894287,82007967,"""0""",12.0,1.375,12.3000001907,0.0
1614894286968538999,,44141,,1614894287,131967863,"""0""",12.0,2.0,12.3000001907,0.0
1614894287008311986,,44142,,1614894287,182536978,"""0""",11.0,1.75,12.25,0.0
1614894287048650979,,44143,,1614894287,232160832,"""0""",11.0,2.0,12.25,0.0
