rosbagTimestamp,header,seq,stamp,secs,nsecs,frame_id,Temperature,OutputCurrent,BusVoltage,ClosedLoopError
1614964898950764894,,24506,,1614892872,88790975,"""0""",12.0,0.0,12.3999996185,0.0
1614964899002295970,,24507,,1614892872,138841809,"""0""",12.0,0.0,12.3999996185,0.0
1614964899054833889,,24508,,1614892872,188801340,"""0""",12.0,0.0,12.3999996185,0.0
1614964899105201959,,24509,,1614892872,238854569,"""0""",12.0,0.0,12.3999996185,0.0
1614964899151005983,,24510,,1614892872,288842069,"""0""",12.0,0.0,12.3999996185,0.0
1614964899206881999,,24511,,1614892872,338778006,"""0""",12.0,0.0,12.3999996185,0.0
1614964899250765085,,24512,,1614892872,388799829,"""0""",12.0,0.0,12.3999996185,0.0
1614964899310905933,,24513,,1614892872,438772329,"""0""",12.0,0.0,12.3999996185,0.0
1614964899353600025,,24514,,1614892872,488860767,"""0""",12.0,0.0,12.3999996185,0.0
1614964899414923906,,24515,,1614892872,538751861,"""0""",12.0,0.0,12.3999996185,0.0
1614964899460670948,,24516,,1614892872,588787902,"""0""",12.0,0.0,12.3999996185,0.0
1614964899508068084,,24517,,1614892872,638849256,"""0""",12.0,0.0,12.3999996185,0.0
1614964899553246974,,24518,,1614892872,688845454,"""0""",12.0,0.0,12.3999996185,0.0
1614964899613962888,,24519,,1614892872,738743110,"""0""",12.0,0.0,12.3999996185,0.0
1614964899655308961,,24520,,1614892872,788833840,"""0""",12.0,0.0,12.3999996185,0.0
1614964899716532945,,24521,,1614892872,838761183,"""0""",12.0,0.0,12.3999996185,0.0
1614964899765001058,,24522,,1614892872,889907277,"""0""",12.0,0.0,12.3999996185,0.0
1614964899806458950,,24523,,1614892872,938777069,"""0""",12.0,0.0,12.3999996185,0.0
1614964899856285095,,24524,,1614892872,988778579,"""0""",12.0,0.0,12.3999996185,0.0
1614964899917788982,,24525,,1614892873,38758423,"""0""",12.0,0.0,12.3999996185,0.0
1614964899950649023,,24526,,1614892873,88835298,"""0""",12.0,0.0,12.3999996185,0.0
1614964900009660959,,24527,,1614892873,138772381,"""0""",12.0,0.0,12.3999996185,0.0
1614964900052484035,,24528,,1614892873,188779360,"""0""",12.0,0.0,12.3999996185,0.0
1614964900106060981,,24529,,1614892873,238762433,"""0""",12.0,0.0,12.3999996185,0.0
1614964900157071113,,24530,,1614892873,288783527,"""0""",12.0,0.0,12.3999996185,0.0
1614964900213296890,,24531,,1614892873,338759881,"""0""",12.0,0.0,12.3999996185,0.0
1614964900271960020,,24532,,1614892873,388785610,"""0""",12.0,0.0,12.3999996185,0.0
1614964900306844949,,24533,,1614892873,438764100,"""0""",12.0,0.0,12.3999996185,0.0
1614964900356817960,,24534,,1614892873,488828318,"""0""",12.0,0.0,12.3999996185,0.0
1614964900421205997,,24535,,1614892873,538806496,"""0""",12.0,0.0,12.3999996185,0.0
1614964900456871032,,24536,,1614892873,588788683,"""0""",12.0,0.0,12.3999996185,0.0
1614964900501811027,,24537,,1614892873,638813214,"""0""",12.0,0.0,12.3999996185,0.0
1614964900561299085,,24538,,1614892873,688781600,"""0""",12.0,0.0,12.3999996185,0.0
1614964900603411912,,24539,,1614892873,738789360,"""0""",12.0,0.0,12.3999996185,0.0
1614964900661142110,,24540,,1614892873,788853162,"""0""",12.0,0.0,12.3999996185,0.0
1614964900711014986,,24541,,1614892873,842436704,"""0""",12.0,0.0,12.3999996185,0.0
1614964900757039070,,24542,,1614892873,889149620,"""0""",12.0,0.0,12.3999996185,0.0
1614964900803870916,,24543,,1614892873,938767745,"""0""",12.0,0.0,12.3999996185,0.0
1614964900858047962,,24544,,1614892873,988886235,"""0""",12.0,0.0,12.3999996185,0.0
1614964900909392118,,24545,,1614892874,38827381,"""0""",12.0,0.0,12.3999996185,0.0
1614964900963650941,,24546,,1614892874,88798475,"""0""",12.0,0.0,12.3999996185,0.0
1614964901012322902,,24547,,1614892874,138810610,"""0""",12.0,0.0,12.3999996185,0.0
1614964901055440902,,24548,,1614892874,188785870,"""0""",12.0,0.0,12.3999996185,0.0
1614964901117048978,,24549,,1614892874,238845141,"""0""",12.0,0.0,12.3999996185,0.0
1614964901157510995,,24550,,1614892874,288803683,"""0""",12.0,0.0,12.3999996185,0.0
1614964901208061933,,24551,,1614892874,338785610,"""0""",12.0,0.0,12.3999996185,0.0
1614964901259776115,,24552,,1614892874,388785401,"""0""",12.0,0.0,12.3999996185,0.0
1614964901310488939,,24553,,1614892874,438767537,"""0""",12.0,0.0,12.3999996185,0.0
1614964901360836029,,24554,,1614892874,488912693,"""0""",12.0,0.0,12.3999996185,0.0
1614964901406553030,,24555,,1614892874,538783214,"""0""",12.0,0.0,12.3999996185,0.0
1614964901461946964,,24556,,1614892874,588813422,"""0""",12.0,0.0,12.3999996185,0.0
1614964901517146110,,24557,,1614892874,638739776,"""0""",12.0,0.0,12.3999996185,0.0
1614964901567630052,,24558,,1614892874,688846078,"""0""",12.0,0.0,12.3999996185,0.0
1614964901608508110,,24559,,1614892874,738811964,"""0""",12.0,0.0,12.3999996185,0.0
1614964901661093950,,24560,,1614892874,788963891,"""0""",12.0,0.0,12.3999996185,0.0
1614964901711838960,,24561,,1614892874,838735505,"""0""",12.0,0.0,12.3999996185,0.0
1614964901763113975,,24562,,1614892874,888783839,"""0""",12.0,0.0,12.3999996185,0.0
1614964901815210103,,24563,,1614892874,938768266,"""0""",12.0,0.0,12.3999996185,0.0
1614964901857676029,,24564,,1614892874,988800610,"""0""",12.0,0.0,12.3999996185,0.0
1614964901914611101,,24565,,1614892875,38794985,"""0""",12.0,0.0,12.3999996185,0.0
1614964901965641975,,24566,,1614892875,88877328,"""0""",12.0,0.0,12.3999996185,0.0
1614964902011833906,,24567,,1614892875,138777849,"""0""",12.0,0.0,12.3999996185,0.0
1614964902064856052,,24568,,1614892875,188876964,"""0""",12.0,0.0,12.3999996185,0.0
1614964902115748882,,24569,,1614892875,238765662,"""0""",12.0,0.0,12.3999996185,0.0
1614964902169770956,,24570,,1614892875,288936651,"""0""",12.0,0.0,12.3999996185,0.0
1614964902212219953,,24571,,1614892875,338795453,"""0""",12.0,0.0,12.3999996185,0.0
1614964902265759944,,24572,,1614892875,388779932,"""0""",12.0,0.0,12.3999996185,0.0
1614964902312439918,,24573,,1614892875,438785922,"""0""",12.0,0.0,12.3999996185,0.0
1614964902369940042,,24574,,1614892875,488893995,"""0""",12.0,0.0,12.3999996185,0.0
1614964902421622991,,24575,,1614892875,538777172,"""0""",12.0,0.0,12.3999996185,0.0
1614964902459145069,,24576,,1614892875,588785193,"""0""",12.0,0.0,12.3999996185,0.0
1614964902508491992,,24577,,1614892875,638793161,"""0""",12.0,0.0,12.3999996185,0.0
1614964902569124937,,24578,,1614892875,688922901,"""0""",12.0,0.0,12.3999996185,0.0
1614964902617600917,,24579,,1614892875,738914411,"""0""",12.0,0.0,12.3999996185,0.0
1614964902653335094,,24580,,1614892875,788792797,"""0""",12.0,0.0,12.3999996185,0.0
1614964902706430912,,24581,,1614892875,838786859,"""0""",12.0,0.0,12.3999996185,0.0
1614964902763331890,,24582,,1614892875,888819255,"""0""",12.0,0.0,12.3999996185,0.0
1614964902816267967,,24583,,1614892875,938778578,"""0""",12.0,0.0,12.3999996185,0.0
1614964902867096900,,24584,,1614892875,988779047,"""0""",12.0,0.0,12.3999996185,0.0
1614964902913701057,,24585,,1614892876,38767328,"""0""",12.0,0.0,12.3999996185,0.0
1614964902963563919,,24586,,1614892876,88789307,"""0""",12.0,0.0,12.3999996185,0.0
1614964903016247987,,24587,,1614892876,138802953,"""0""",12.0,0.0,12.3999996185,0.0
1614964903063529968,,24588,,1614892876,188788734,"""0""",12.0,0.0,12.3999996185,0.0
1614964903128705024,,24589,,1614892876,238778838,"""0""",12.0,0.0,12.3999996185,0.0
1614964903159028053,,24590,,1614892876,288880557,"""0""",12.0,0.0,12.3999996185,0.0
1614964903213113069,,24591,,1614892876,338776338,"""0""",12.0,0.0,12.3999996185,0.0
1614964903254436016,,24592,,1614892876,388787432,"""0""",12.0,0.0,12.3999996185,0.0
1614964903317300081,,24593,,1614892876,438781651,"""0""",12.0,0.0,12.3999996185,0.0
1614964903375344038,,24594,,1614892876,488842380,"""0""",12.0,0.0,12.3999996185,0.0
1614964903420592069,,24595,,1614892876,538845296,"""0""",12.0,0.0,12.3999996185,0.0
1614964903463382959,,24596,,1614892876,588806963,"""0""",12.0,0.0,12.3999996185,0.0
1614964903518816947,,24597,,1614892876,638797276,"""0""",12.0,0.0,12.3999996185,0.0
1614964903558406114,,24598,,1614892876,688941807,"""0""",12.0,0.0,12.3999996185,0.0
1614964903617506027,,24599,,1614892876,738789671,"""0""",12.0,0.0,12.3999996185,0.0
1614964903663436889,,24600,,1614892876,788854515,"""0""",12.0,0.0,12.3999996185,0.0
1614964903722470045,,24601,,1614892876,838783578,"""0""",12.0,0.0,12.3999996185,0.0
1614964903759536981,,24602,,1614892876,888856546,"""0""",12.0,0.0,12.3999996185,0.0
1614964903813369035,,24603,,1614892876,938776234,"""0""",12.0,0.0,12.3999996185,0.0
1614964903869873046,,24604,,1614892876,988822744,"""0""",12.0,0.0,12.3999996185,0.0
1614964903917586088,,24605,,1614892877,38780505,"""0""",12.0,0.0,12.3999996185,0.0
1614964903988830089,,24606,,1614892877,88782067,"""0""",12.0,0.0,12.3999996185,0.0
1614964904030930995,,24607,,1614892877,138825505,"""0""",12.0,0.0,12.3999996185,0.0
1614964904060935974,,24608,,1614892877,188785817,"""0""",12.0,0.0,12.3999996185,0.0
1614964904125041007,,24609,,1614892877,238814567,"""0""",12.0,0.0,12.3999996185,0.0
1614964904158376932,,24610,,1614892877,288830400,"""0""",12.0,0.0,12.3999996185,0.0
1614964904236872911,,24611,,1614892877,338826702,"""0""",12.0,0.0,12.3999996185,0.0
1614964904305197000,,24612,,1614892877,388790452,"""0""",12.0,0.0,12.3999996185,0.0
1614964904322630882,,24613,,1614892877,438772119,"""0""",12.0,0.0,12.3999996185,0.0
1614964904365995883,,24614,,1614892877,488782327,"""0""",12.0,0.0,12.3999996185,0.0
1614964904425704956,,24615,,1614892877,538781494,"""0""",12.0,0.0,12.3999996185,0.0
1614964904463954925,,24616,,1614892877,588848525,"""0""",12.0,0.0,12.3999996185,0.0
1614964904520526885,,24617,,1614892877,638780609,"""0""",12.0,0.0,12.3999996185,0.0
1614964904569562911,,24618,,1614892877,688783161,"""0""",12.0,0.0,12.3999996185,0.0
1614964904619875907,,24619,,1614892877,738830609,"""0""",12.0,0.0,12.3999996185,0.0
1614964904665049076,,24620,,1614892877,788788629,"""0""",12.0,0.0,12.3999996185,0.0
1614964904719374895,,24621,,1614892877,838781338,"""0""",12.0,0.0,12.3999996185,0.0
1614964904765096902,,24622,,1614892877,888802067,"""0""",12.0,0.0,12.3999996185,0.0
1614964904813891887,,24623,,1614892877,938779671,"""0""",12.0,0.0,12.3999996185,0.0
1614964904862504959,,24624,,1614892877,988844931,"""0""",12.0,0.0,12.3999996185,0.0
1614964904908510923,,24625,,1614892878,42794515,"""0""",12.0,0.0,12.3999996185,0.0
1614964904972630977,,24626,,1614892878,89066494,"""0""",12.0,0.0,12.3999996185,0.0
1614964905019515037,,24627,,1614892878,138832119,"""0""",12.0,0.0,12.3999996185,0.0
1614964905061301946,,24628,,1614892878,188841285,"""0""",12.0,0.0,12.3999996185,0.0
1614964905106515884,,24629,,1614892878,238816963,"""0""",12.0,0.0,12.3999996185,0.0
1614964905165659904,,24630,,1614892878,288847379,"""0""",12.0,0.0,12.3999996185,0.0
1614964905220695018,,24631,,1614892878,338859150,"""0""",12.0,0.0,12.3999996185,0.0
1614964905283555984,,24632,,1614892878,388797952,"""0""",12.0,0.0,12.3999996185,0.0
1614964905320357084,,24633,,1614892878,438780973,"""0""",12.0,0.0,12.3999996185,0.0
1614964905363827943,,24634,,1614892878,488873681,"""0""",12.0,0.0,12.3999996185,0.0
1614964905414439916,,24635,,1614892878,538741285,"""0""",12.0,0.0,12.3999996185,0.0
1614964905462953090,,24636,,1614892878,588804254,"""0""",12.0,0.0,12.3999996185,0.0
1614964905522526025,,24637,,1614892878,638785764,"""0""",12.0,0.0,12.3999996185,0.0
1614964905564495086,,24638,,1614892878,688775973,"""0""",12.0,0.0,12.3999996185,0.0
1614964905617589950,,24639,,1614892878,738745608,"""0""",12.0,14.125,12.3999996185,0.0
1614964905669956922,,24640,,1614892878,788741754,"""0""",12.0,9.125,11.8999996185,0.0
1614964905716172933,,24641,,1614892878,838907379,"""0""",12.0,11.0,11.8999996185,0.0
1614964905771693944,,24642,,1614892878,888842535,"""0""",12.0,10.5,11.8999996185,0.0
1614964905826600074,,24643,,1614892878,938786389,"""0""",12.0,11.125,11.6999998093,0.0
1614964905879642009,,24644,,1614892878,988817014,"""0""",12.0,11.5,11.6999998093,0.0
1614964905934772014,,24645,,1614892879,38776077,"""0""",12.0,11.375,11.6999998093,0.0
1614964905977561950,,24646,,1614892879,89007952,"""0""",12.0,10.0,11.75,0.0
1614964906021820068,,24647,,1614892879,138846441,"""0""",12.0,7.625,11.75,0.0
1614964906075155973,,24648,,1614892879,188779306,"""0""",12.0,6.875,11.75,0.0
1614964906127254009,,24649,,1614892879,238867431,"""0""",12.0,3.75,12.1499996185,0.0
1614964906181442022,,24650,,1614892879,289086181,"""0""",12.0,2.0,12.1499996185,0.0
1614964906216068983,,24651,,1614892879,338764879,"""0""",12.0,1.0,12.1499996185,0.0
1614964906272411108,,24652,,1614892879,388829097,"""0""",12.0,3.0,12.1499996185,0.0
1614964906318892955,,24653,,1614892879,438915504,"""0""",12.0,5.5,12.1000003815,0.0
1614964906369263887,,24654,,1614892879,488850608,"""0""",12.0,3.0,12.1000003815,0.0
1614964906437719106,,24655,,1614892879,538785400,"""0""",12.0,1.0,12.1000003815,0.0
1614964906475217103,,24656,,1614892879,588813941,"""0""",12.0,6.875,12.1499996185,0.0
1614964906520874977,,24657,,1614892879,638763160,"""0""",12.0,8.0,12.1499996185,0.0
1614964906574095010,,24658,,1614892879,688797431,"""0""",12.0,7.0,12.1499996185,0.0
1614964906618908882,,24659,,1614892879,738853264,"""0""",12.0,4.75,12.1000003815,0.0
1614964906691348075,,24660,,1614892879,788764097,"""0""",12.0,6.75,12.1000003815,0.0
1614964906722074031,,24661,,1614892879,838820660,"""0""",12.0,7.25,12.1000003815,0.0
1614964906770505905,,24662,,1614892879,889102118,"""0""",12.0,6.875,12.0500001907,0.0
1614964906821611881,,24663,,1614892879,938789045,"""0""",12.0,4.375,12.0500001907,0.0
1614964906868604898,,24664,,1614892879,988849774,"""0""",12.0,3.375,12.0500001907,0.0
1614964906915518045,,24665,,1614892880,38776753,"""0""",12.0,2.0,12.1999998093,0.0
1614964906972517967,,24666,,1614892880,88842378,"""0""",12.0,1.375,12.1999998093,0.0
1614964907022017002,,24667,,1614892880,138866649,"""0""",12.0,1.0,12.1999998093,0.0
1614964907084265947,,24668,,1614892880,188821858,"""0""",12.0,1.0,12.1999998093,0.0
1614964907128057003,,24669,,1614892880,239070764,"""0""",12.0,0.625,12.25,0.0
1614964907170466899,,24670,,1614892880,288933316,"""0""",12.0,0.625,12.25,0.0
1614964907221724033,,24671,,1614892880,338786910,"""0""",12.0,2.75,12.25,0.0
1614964907270777940,,24672,,1614892880,389018785,"""0""",12.0,3.375,12.1000003815,0.0
1614964907327233076,,24673,,1614892880,438783941,"""0""",12.0,1.0,12.1000003815,0.0
1614964907388010025,,24674,,1614892880,489169982,"""0""",12.0,1.0,12.1000003815,0.0
1614964907425381898,,24675,,1614892880,538784201,"""0""",12.0,2.75,12.25,0.0
1614964907474044084,,24676,,1614892880,588785555,"""0""",12.0,6.875,12.25,0.0
1614964907521945953,,24677,,1614892880,638765712,"""0""",12.0,5.5,12.25,0.0
1614964907564642906,,24678,,1614892880,688787222,"""0""",12.0,4.75,12.1000003815,0.0
1614964907620839118,,24679,,1614892880,738798784,"""0""",12.0,6.75,12.1000003815,0.0
1614964907667298078,,24680,,1614892880,788902222,"""0""",12.0,6.75,12.1000003815,0.0
1614964907729319095,,24681,,1614892880,838756024,"""0""",12.0,6.5,12.0500001907,0.0
1614964907772524118,,24682,,1614892880,888819930,"""0""",12.0,6.625,12.0500001907,0.0
1614964907822316884,,24683,,1614892880,938857326,"""0""",12.0,5.125,12.0500001907,0.0
1614964907870990037,,24684,,1614892880,988889722,"""0""",12.0,3.0,12.0500001907,0.0
1614964907926582098,,24685,,1614892881,38909878,"""0""",12.0,7.125,12.1000003815,0.0
1614964907965184926,,24686,,1614892881,88807743,"""0""",12.0,7.625,12.1000003815,0.0
1614964908026438951,,24687,,1614892881,138737847,"""0""",12.0,6.125,12.1000003815,0.0
1614964908077578067,,24688,,1614892881,188849045,"""0""",12.0,2.75,12.1499996185,0.0
1614964908115477085,,24689,,1614892881,238763784,"""0""",12.0,2.0,12.1499996185,0.0
1614964908170625925,,24690,,1614892881,289034566,"""0""",12.0,5.75,12.1499996185,0.0
1614964908227662086,,24691,,1614892881,338779357,"""0""",12.0,7.0,11.9499998093,0.0
1614964908265409946,,24692,,1614892881,388930243,"""0""",12.0,6.875,11.9499998093,0.0
1614964908324193954,,24693,,1614892881,438834253,"""0""",12.0,5.75,11.9499998093,0.0
1614964908370373964,,24694,,1614892881,488854618,"""0""",12.0,5.75,12.0500001907,0.0
1614964908418684005,,24695,,1614892881,538858472,"""0""",12.0,6.625,12.0500001907,0.0
1614964908492108106,,24696,,1614892881,589059774,"""0""",12.0,5.5,12.0500001907,0.0
1614964908549515962,,24697,,1614892881,638859513,"""0""",12.0,4.75,12.1000003815,0.0
1614964908576642990,,24698,,1614892881,688829461,"""0""",12.0,4.375,12.1000003815,0.0
1614964908624763011,,24699,,1614892881,738818888,"""0""",12.0,3.75,12.1000003815,0.0
1614964908669152021,,24700,,1614892881,788819201,"""0""",12.0,6.75,12.1000003815,0.0
1614964908723839998,,24701,,1614892881,838788524,"""0""",12.0,7.0,11.8999996185,0.0
1614964908769561052,,24702,,1614892881,888805242,"""0""",12.0,6.125,11.8999996185,0.0
1614964908828074932,,24703,,1614892881,938776284,"""0""",12.0,2.75,11.8999996185,0.0
1614964908880559921,,24704,,1614892881,989319565,"""0""",12.0,3.75,12.1000003815,0.0
1614964908918338060,,24705,,1614892882,38786753,"""0""",12.0,6.75,12.1000003815,0.0
1614964908969671010,,24706,,1614892882,88791961,"""0""",12.0,6.875,12.1000003815,0.0
1614964909014719963,,24707,,1614892882,138782013,"""0""",11.0,7.375,11.9499998093,0.0
1614964909099634885,,24708,,1614892882,188777430,"""0""",11.0,7.5,11.9499998093,0.0
1614964909142059087,,24709,,1614892882,238781857,"""0""",11.0,7.0,11.9499998093,0.0
1614964909168107032,,24710,,1614892882,288873055,"""0""",12.0,5.75,12.0500001907,0.0
1614964909224575996,,24711,,1614892882,338785503,"""0""",12.0,6.625,12.0500001907,0.0
1614964909270808935,,24712,,1614892882,388881284,"""0""",12.0,7.0,12.0500001907,0.0
1614964909316052913,,24713,,1614892882,438877378,"""0""",12.0,6.125,12.0500001907,0.0
1614964909389493942,,24714,,1614892882,488820919,"""0""",12.0,4.125,12.0500001907,0.0
1614964909449920892,,24715,,1614892882,540018628,"""0""",12.0,4.75,12.0500001907,0.0
1614964909481931924,,24716,,1614892882,588847846,"""0""",12.0,6.75,12.0500001907,0.0
1614964909519903898,,24717,,1614892882,638782638,"""0""",11.0,4.75,12.0500001907,0.0
1614964909566561937,,24718,,1614892882,688806440,"""0""",11.0,3.375,12.0500001907,0.0
1614964909618882894,,24719,,1614892882,738883002,"""0""",11.0,2.0,12.0500001907,0.0
1614964909671473979,,24720,,1614892882,788814930,"""0""",12.0,2.0,12.1499996185,0.0
1614964909737039089,,24721,,1614892882,838843940,"""0""",12.0,2.75,12.1499996185,0.0
1614964909766922950,,24722,,1614892882,888901596,"""0""",12.0,3.375,12.1499996185,0.0
1614964909819331884,,24723,,1614892882,938753940,"""0""",12.0,3.0,12.1000003815,0.0
1614964909871773004,,24724,,1614892882,988944200,"""0""",12.0,2.0,12.1000003815,0.0
1614964909916275978,,24725,,1614892883,38796700,"""0""",12.0,5.125,12.1000003815,0.0
1614964909975646018,,24726,,1614892883,88787638,"""0""",11.0,6.625,12.0,0.0
1614964910064405918,,24727,,1614892883,138823523,"""0""",11.0,4.125,12.0,0.0
1614964910120585918,,24728,,1614892883,188900606,"""0""",11.0,3.75,12.0,0.0
1614964910120836019,,24729,,1614892883,238772325,"""0""",11.0,3.75,12.1000003815,0.0
1614964910172694921,,24730,,1614892883,288779044,"""0""",11.0,6.875,12.1000003815,0.0
1614964910221904039,,24731,,1614892883,338787117,"""0""",11.0,6.625,12.1000003815,0.0
1614964910292937994,,24732,,1614892883,388784669,"""0""",11.0,4.375,12.1000003815,0.0
1614964910346784114,,24733,,1614892883,438903054,"""0""",12.0,3.375,12.1000003815,0.0
1614964910389712095,,24734,,1614892883,488833315,"""0""",12.0,3.375,12.1000003815,0.0
1614964910421714067,,24735,,1614892883,538771752,"""0""",12.0,5.5,12.1000003815,0.0
1614964910480567932,,24736,,1614892883,588855763,"""0""",12.0,4.75,12.0500001907,0.0
1614964910519201993,,24737,,1614892883,638811752,"""0""",12.0,6.5,12.0500001907,0.0
1614964910579169988,,24738,,1614892883,688862585,"""0""",12.0,7.125,12.0500001907,0.0
1614964910634783983,,24739,,1614892883,738834669,"""0""",12.0,7.5,11.8999996185,0.0
1614964910679882049,,24740,,1614892883,788797585,"""0""",12.0,7.5,11.8999996185,0.0
1614964910720065116,,24741,,1614892883,838806544,"""0""",12.0,7.5,11.8999996185,0.0
1614964910782727003,,24742,,1614892883,888803471,"""0""",11.0,7.875,11.8500003815,0.0
1614964910831824064,,24743,,1614892883,938809617,"""0""",11.0,7.875,11.8500003815,0.0
1614964910911591053,,24744,,1614892883,988785971,"""0""",11.0,7.75,11.8500003815,0.0
1614964910949790954,,24745,,1614892884,38753054,"""0""",11.0,9.25,11.6999998093,0.0
1614964910984874010,,24746,,1614892884,88822064,"""0""",11.0,10.25,11.6999998093,0.0
1614964911017185926,,24747,,1614892884,138898314,"""0""",11.0,9.0,11.6999998093,0.0
1614964911076472997,,24748,,1614892884,188856596,"""0""",11.0,8.625,11.6999998093,0.0
1614964911122469902,,24749,,1614892884,238905866,"""0""",11.0,9.875,11.6499996185,0.0
1614964911174561977,,24750,,1614892884,288776856,"""0""",11.0,9.625,11.6499996185,0.0
1614964911229453086,,24751,,1614892884,338871960,"""0""",11.0,10.625,11.6499996185,0.0
1614964911283377885,,24752,,1614892884,388862012,"""0""",11.0,11.75,11.5500001907,0.0
1614964911320653915,,24753,,1614892884,438904096,"""0""",11.0,9.375,11.5500001907,0.0
1614964911378323078,,24754,,1614892884,488794200,"""0""",11.0,9.375,11.5500001907,0.0
1614964911418343067,,24755,,1614892884,538831231,"""0""",11.0,10.125,11.6999998093,0.0
1614964911465306043,,24756,,1614892884,588839252,"""0""",11.0,9.75,11.6999998093,0.0
1614964911520898103,,24757,,1614892884,639055293,"""0""",11.0,9.875,11.6999998093,0.0
1614964911569230079,,24758,,1614892884,688775658,"""0""",11.0,9.5,11.6499996185,0.0
1614964911621169090,,24759,,1614892884,738890866,"""0""",11.0,9.25,11.6499996185,0.0
1614964911671449899,,24760,,1614892884,788775085,"""0""",11.0,9.375,11.6499996185,0.0
1614964911727323055,,24761,,1614892884,839284356,"""0""",11.0,8.75,11.6999998093,0.0
1614964911813913106,,24762,,1614892884,888787689,"""0""",11.0,10.0,11.6999998093,0.0
1614964911814205884,,24763,,1614892884,938792429,"""0""",11.0,11.375,11.6999998093,0.0
1614964911887914896,,24764,,1614892884,988800606,"""0""",11.0,10.125,11.6999998093,0.0
1614964911930473089,,24765,,1614892885,38772377,"""0""",11.0,9.25,11.75,0.0
1614964911971786022,,24766,,1614892885,88790658,"""0""",11.0,10.75,11.75,0.0
1614964912022604942,,24767,,1614892885,138802064,"""0""",11.0,9.625,11.75,0.0
1614964912078105926,,24768,,1614892885,188771022,"""0""",11.0,8.625,11.75,0.0
1614964912136343002,,24769,,1614892885,238774929,"""0""",11.0,8.5,11.75,0.0
1614964912169603109,,24770,,1614892885,288842845,"""0""",11.0,8.75,11.75,0.0
1614964912224252939,,24771,,1614892885,338827116,"""0""",11.0,8.0,11.8500003815,0.0
1614964912270675897,,24772,,1614892885,388783262,"""0""",11.0,8.125,11.8500003815,0.0
1614964912326006889,,24773,,1614892885,438847481,"""0""",11.0,7.5,11.8500003815,0.0
1614964912379268884,,24774,,1614892885,488742585,"""0""",11.0,6.875,12.0,0.0
1614964912422535896,,24775,,1614892885,538882168,"""0""",11.0,4.375,12.0,0.0
1614964912482095003,,24776,,1614892885,588820553,"""0""",11.0,2.375,12.0,0.0
1614964912521826982,,24777,,1614892885,638780710,"""0""",11.0,1.75,12.1999998093,0.0
1614964912571027040,,24778,,1614892885,689037845,"""0""",11.0,1.0,12.1999998093,0.0
1614964912632875919,,24779,,1614892885,738884355,"""0""",11.0,1.0,12.1999998093,0.0
1614964912671972990,,24780,,1614892885,788802064,"""0""",11.0,1.375,12.1999998093,0.0
1614964912744137048,,24781,,1614892885,838939512,"""0""",11.0,1.0,12.1999998093,0.0
1614964912779397010,,24782,,1614892885,888869564,"""0""",11.0,1.0,12.1999998093,0.0
1614964912827836990,,24783,,1614892885,938990293,"""0""",11.0,0.625,12.1999998093,0.0
1614964912897038936,,24784,,1614892885,988758522,"""0""",11.0,0.375,12.25,0.0
1614964912940160989,,24785,,1614892886,39170032,"""0""",11.0,0.625,12.25,0.0
1614964913015487909,,24786,,1614892886,88795241,"""0""",11.0,1.0,12.25,0.0
1614964913072592973,,24787,,1614892886,138834147,"""0""",11.0,0.625,12.25,0.0
1614964913105657100,,24788,,1614892886,188785866,"""0""",11.0,1.0,12.25,0.0
1614964913147229909,,24789,,1614892886,238836855,"""0""",11.0,1.75,12.25,0.0
1614964913195255041,,24790,,1614892886,288834303,"""0""",11.0,2.0,12.1499996185,0.0
1614964913244514942,,24791,,1614892886,338821595,"""0""",11.0,1.0,12.1499996185,0.0
1614964913309350967,,24792,,1614892886,388759616,"""0""",11.0,0.625,12.1499996185,0.0
1614964913339059114,,24793,,1614892886,438882689,"""0""",11.0,6.875,11.8500003815,0.0
1614964913368611097,,24794,,1614892886,488755032,"""0""",11.0,7.125,11.8500003815,0.0
1614964913455055952,,24795,,1614892886,538845501,"""0""",11.0,6.125,11.8500003815,0.0
1614964913500158071,,24796,,1614892886,588771855,"""0""",11.0,7.0,11.8500003815,0.0
1614964913553050041,,24797,,1614892886,638800553,"""0""",11.0,7.75,11.8500003815,0.0
1614964913607615947,,24798,,1614892886,688830657,"""0""",11.0,8.0,11.8500003815,0.0
1614964913644334077,,24799,,1614892886,738880501,"""0""",11.0,7.75,11.8500003815,0.0
1614964913675453901,,24800,,1614892886,788784459,"""0""",11.0,7.75,11.8000001907,0.0
1614964913720896959,,24801,,1614892886,838884511,"""0""",11.0,8.125,11.8000001907,0.0
1614964913771403074,,24802,,1614892886,888785084,"""0""",11.0,7.625,11.8000001907,0.0
1614964913822371959,,24803,,1614892886,938800918,"""0""",11.0,7.875,11.8500003815,0.0
1614964913891781091,,24804,,1614892886,988819303,"""0""",11.0,7.875,11.8500003815,0.0
1614964913941338062,,24805,,1614892887,38845709,"""0""",11.0,7.625,11.8500003815,0.0
1614964913976463079,,24806,,1614892887,88771334,"""0""",11.0,7.5,11.8999996185,0.0
1614964914019690036,,24807,,1614892887,138799459,"""0""",11.0,7.125,11.8999996185,0.0
1614964914078423023,,24808,,1614892887,188810136,"""0""",11.0,7.375,11.8999996185,0.0
1614964914122869014,,24809,,1614892887,238790397,"""0""",11.0,7.625,11.8500003815,0.0
1614964914177232027,,24810,,1614892887,288767584,"""0""",11.0,7.125,11.8500003815,0.0
1614964914268873929,,24811,,1614892887,338847532,"""0""",11.0,7.125,11.8500003815,0.0
1614964914304181098,,24812,,1614892887,388807428,"""0""",11.0,7.375,11.8500003815,0.0
1614964914347615003,,24813,,1614892887,438862063,"""0""",11.0,7.5,11.8500003815,0.0
1614964914416646003,,24814,,1614892887,488799563,"""0""",11.0,7.625,11.8500003815,0.0
1614964914471633911,,24815,,1614892887,538778053,"""0""",11.0,7.375,11.8500003815,0.0
1614964914520704030,,24816,,1614892887,588777324,"""0""",11.0,7.25,11.8500003815,0.0
1614964914553651094,,24817,,1614892887,638769355,"""0""",11.0,7.0,11.8500003815,0.0
1614964914600944042,,24818,,1614892887,688785032,"""0""",11.0,6.75,11.8500003815,0.0
1614964914644248962,,24819,,1614892887,739049198,"""0""",11.0,6.75,11.9499998093,0.0
1614964914687393903,,24820,,1614892887,788823678,"""0""",11.0,6.75,11.9499998093,0.0
1614964914725428104,,24821,,1614892887,838793886,"""0""",11.0,6.625,11.9499998093,0.0
1614964914786974906,,24822,,1614892887,888762844,"""0""",11.0,5.125,12.0,0.0
1614964914820884943,,24823,,1614892887,938832323,"""0""",11.0,4.375,12.0,0.0
1614964914905786991,,24824,,1614892887,988853834,"""0""",11.0,6.5,12.0,0.0
1614964914932756900,,24825,,1614892888,38772584,"""0""",11.0,6.125,12.0500001907,0.0
1614964914988745927,,24826,,1614892888,88791073,"""0""",11.0,4.75,12.0500001907,0.0
1614964915030376911,,24827,,1614892888,138835344,"""0""",11.0,6.125,12.0500001907,0.0
1614964915086030960,,24828,,1614892888,188901282,"""0""",11.0,6.75,12.0500001907,0.0
1614964915129591941,,24829,,1614892888,238802375,"""0""",11.0,6.875,11.8999996185,0.0
1614964915175467014,,24830,,1614892888,288845865,"""0""",11.0,6.75,11.8999996185,0.0
1614964915221424102,,24831,,1614892888,338825344,"""0""",11.0,6.75,11.8999996185,0.0
1614964915285788059,,24832,,1614892888,388776386,"""0""",11.0,6.75,11.8999996185,0.0
1614964915330568075,,24833,,1614892888,438842115,"""0""",11.0,6.625,11.8999996185,0.0
1614964915383466005,,24834,,1614892888,488961594,"""0""",11.0,6.625,11.8999996185,0.0
1614964915431715965,,24835,,1614892888,538802271,"""0""",11.0,6.875,11.9499998093,0.0
1614964915483660936,,24836,,1614892888,588786438,"""0""",11.0,6.875,11.9499998093,0.0
1614964915527215957,,24837,,1614892888,638829771,"""0""",11.0,6.625,11.9499998093,0.0
1614964915577660083,,24838,,1614892888,688801802,"""0""",11.0,6.125,12.0,0.0
1614964915623327970,,24839,,1614892888,738882479,"""0""",11.0,7.125,12.0,0.0
1614964915668606042,,24840,,1614892888,788803156,"""0""",11.0,7.125,12.0,0.0
1614964915731910943,,24841,,1614892888,839212063,"""0""",12.0,6.75,11.9499998093,0.0
1614964915771251916,,24842,,1614892888,888779198,"""0""",12.0,6.75,11.9499998093,0.0
1614964915826800107,,24843,,1614892888,938945656,"""0""",12.0,6.125,11.9499998093,0.0
1614964915939774990,,24844,,1614892888,988798729,"""0""",12.0,6.75,11.9499998093,0.0
1614964915940083980,,24845,,1614892889,39277479,"""0""",11.0,6.875,11.8999996185,0.0
1614964915997087955,,24846,,1614892889,88781854,"""0""",11.0,6.75,11.8999996185,0.0
1614964916035033941,,24847,,1614892889,138825500,"""0""",11.0,6.75,11.8999996185,0.0
1614964916090010881,,24848,,1614892889,188880031,"""0""",11.0,6.75,11.9499998093,0.0
1614964916132550954,,24849,,1614892889,238817844,"""0""",11.0,6.5,11.9499998093,0.0
1614964916170087099,,24850,,1614892889,288835187,"""0""",11.0,6.75,11.9499998093,0.0
1614964916232853889,,24851,,1614892889,338764198,"""0""",11.0,6.75,11.8999996185,0.0
1614964916286048889,,24852,,1614892889,388834354,"""0""",11.0,6.75,11.8999996185,0.0
1614964916368601083,,24853,,1614892889,438850031,"""0""",11.0,5.75,11.8999996185,0.0
1614964916406774997,,24854,,1614892889,488787323,"""0""",11.0,6.875,11.8999996185,0.0
1614964916440094947,,24855,,1614892889,538876021,"""0""",11.0,7.25,11.8999996185,0.0
1614964916471422910,,24856,,1614892889,588812010,"""0""",11.0,6.75,11.8999996185,0.0
1614964916530848026,,24857,,1614892889,638770396,"""0""",11.0,6.75,11.9499998093,0.0
1614964916577219009,,24858,,1614892889,688790812,"""0""",11.0,6.875,11.9499998093,0.0
1614964916630076885,,24859,,1614892889,738794979,"""0""",11.0,7.0,11.9499998093,0.0
1614964916668107986,,24860,,1614892889,789053260,"""0""",11.0,7.0,11.9499998093,0.0
1614964916727765083,,24861,,1614892889,838837010,"""0""",11.0,6.875,11.8999996185,0.0
1614964916769211053,,24862,,1614892889,888797166,"""0""",11.0,7.0,11.8999996185,0.0
1614964916832247972,,24863,,1614892889,938814146,"""0""",11.0,7.0,11.8999996185,0.0
1614964916869812965,,24864,,1614892889,988764093,"""0""",11.0,6.75,11.8999996185,0.0
1614964916931759119,,24865,,1614892890,38772375,"""0""",11.0,6.75,11.8999996185,0.0
1614964916972544908,,24866,,1614892890,88797531,"""0""",11.0,6.875,11.8999996185,0.0
1614964917028039932,,24867,,1614892890,138758468,"""0""",11.0,6.875,11.9499998093,0.0
1614964917073558092,,24868,,1614892890,188798468,"""0""",11.0,6.5,11.9499998093,0.0
1614964917139080047,,24869,,1614892890,238793208,"""0""",11.0,6.75,11.9499998093,0.0
1614964917183670997,,24870,,1614892890,288786385,"""0""",11.0,7.125,11.8999996185,0.0
1614964917237888097,,24871,,1614892890,338849979,"""0""",11.0,6.875,11.8999996185,0.0
1614964917273847103,,24872,,1614892890,388799093,"""0""",11.0,6.75,11.8999996185,0.0
1614964917337152004,,24873,,1614892890,438802062,"""0""",11.0,7.0,11.8999996185,0.0
1614964917376774072,,24874,,1614892890,488783520,"""0""",11.0,7.0,11.8999996185,0.0
1614964917433630943,,24875,,1614892890,538799510,"""0""",11.0,7.0,11.8999996185,0.0
1614964917476977109,,24876,,1614892890,588788312,"""0""",11.0,6.875,11.8999996185,0.0
1614964917543668031,,24877,,1614892890,638781229,"""0""",11.0,7.0,11.9499998093,0.0
1614964917575506925,,24878,,1614892890,688793312,"""0""",11.0,7.0,11.9499998093,0.0
1614964917633322954,,24879,,1614892890,738779718,"""0""",11.0,6.75,11.9499998093,0.0
1614964917677476882,,24880,,1614892890,788786489,"""0""",11.0,6.75,11.9499998093,0.0
1614964917730113029,,24881,,1614892890,838764666,"""0""",11.0,6.875,11.9499998093,0.0
1614964917777256965,,24882,,1614892890,888845499,"""0""",11.0,6.875,11.9499998093,0.0
1614964917835817098,,24883,,1614892890,938785083,"""0""",11.0,6.5,11.9499998093,0.0
1614964917871362924,,24884,,1614892890,988900708,"""0""",11.0,5.75,11.9499998093,0.0
1614964917931097984,,24885,,1614892891,38758937,"""0""",11.0,7.0,11.9499998093,0.0
1614964917973153114,,24886,,1614892891,88815031,"""0""",11.0,7.125,11.8999996185,0.0
1614964918030715942,,24887,,1614892891,138939301,"""0""",11.0,6.625,11.8999996185,0.0
1614964918071228981,,24888,,1614892891,188866280,"""0""",11.0,6.5,11.8999996185,0.0
1614964918136445999,,24889,,1614892891,238757687,"""0""",11.0,6.75,11.9499998093,0.0
1614964918182914018,,24890,,1614892891,288846593,"""0""",11.0,6.875,11.9499998093,0.0
1614964918225189924,,24891,,1614892891,338840135,"""0""",11.0,6.75,11.9499998093,0.0
1614964918274498939,,24892,,1614892891,388769145,"""0""",11.0,6.5,11.9499998093,0.0
1614964918330888986,,24893,,1614892891,438773155,"""0""",11.0,6.5,12.0,0.0
1614964918373302936,,24894,,1614892891,488790812,"""0""",11.0,5.125,12.0,0.0
1614964918430320978,,24895,,1614892891,538782374,"""0""",11.0,3.375,12.0,0.0
1614964918478995084,,24896,,1614892891,588787270,"""0""",11.0,2.375,12.1000003815,0.0
1614964918528109073,,24897,,1614892891,638763989,"""0""",11.0,1.75,12.1000003815,0.0
1614964918570882081,,24898,,1614892891,688815239,"""0""",11.0,1.375,12.1000003815,0.0
1614964918626066923,,24899,,1614892891,738765499,"""0""",11.0,1.0,12.1999998093,0.0
1614964918670644998,,24900,,1614892891,788775134,"""0""",11.0,1.0,12.1999998093,0.0
1614964918739343881,,24901,,1614892891,838849561,"""0""",11.0,2.0,12.1999998093,0.0
1614964918775362968,,24902,,1614892891,889292114,"""0""",11.0,3.0,12.0500001907,0.0
1614964918827860116,,24903,,1614892891,938795343,"""0""",11.0,1.375,12.0500001907,0.0
1614964918871881961,,24904,,1614892891,988764822,"""0""",11.0,1.0,12.0500001907,0.0
1614964918926784992,,24905,,1614892892,38757634,"""0""",11.0,3.0,12.0500001907,0.0
1614964918987202882,,24906,,1614892892,89854874,"""0""",11.0,3.75,12.0500001907,0.0
1614964919024893045,,24907,,1614892892,138769561,"""0""",11.0,4.75,12.0500001907,0.0
1614964919081185102,,24908,,1614892892,188832582,"""0""",11.0,4.375,12.0500001907,0.0
1614964919125101089,,24909,,1614892892,238791280,"""0""",11.0,5.125,12.0500001907,0.0
1614964919179377079,,24910,,1614892892,289187165,"""0""",11.0,6.875,12.0500001907,0.0
1614964919224711894,,24911,,1614892892,338858207,"""0""",11.0,6.75,12.0500001907,0.0
1614964919277364015,,24912,,1614892892,388943780,"""0""",11.0,6.75,11.8999996185,0.0
1614964919341083049,,24913,,1614892892,438893520,"""0""",11.0,5.125,11.8999996185,0.0
1614964919375368118,,24914,,1614892892,489403936,"""0""",11.0,6.75,11.8999996185,0.0
1614964919422375917,,24915,,1614892892,538777686,"""0""",11.0,6.875,11.8999996185,0.0
1614964919476864099,,24916,,1614892892,588912738,"""0""",11.0,4.75,11.8999996185,0.0
1614964919518723011,,24917,,1614892892,638820186,"""0""",11.0,4.125,11.8999996185,0.0
1614964919577862024,,24918,,1614892892,688894717,"""0""",11.0,3.75,12.0,0.0
1614964919635816097,,24919,,1614892892,738766280,"""0""",11.0,5.125,12.0,0.0
1614964919680517911,,24920,,1614892892,788860603,"""0""",11.0,6.625,12.0,0.0
1614964919722315073,,24921,,1614892892,838815915,"""0""",11.0,5.5,12.0,0.0
1614964919773413896,,24922,,1614892892,888791124,"""0""",11.0,4.75,12.0,0.0
1614964919825949907,,24923,,1614892892,938802582,"""0""",11.0,3.75,12.0,0.0
1614964919878732919,,24924,,1614892892,988845082,"""0""",11.0,3.75,12.0,0.0
1614964919929934024,,24925,,1614892893,38827321,"""0""",11.0,6.5,12.0,0.0
1614964919984062910,,24926,,1614892893,88846696,"""0""",11.0,6.5,12.0,0.0
1614964920057540893,,24927,,1614892893,138775290,"""0""",11.0,4.125,12.0,0.0
1614964920125631093,,24928,,1614892893,188906488,"""0""",11.0,3.0,12.0500001907,0.0
1614964920125786066,,24929,,1614892893,238775082,"""0""",11.0,6.875,12.0500001907,0.0
1614964920177222013,,24930,,1614892893,289168936,"""0""",11.0,7.5,12.0500001907,0.0
1614964920239294052,,24931,,1614892893,338794353,"""0""",11.0,4.375,12.0500001907,0.0
1614964920283154010,,24932,,1614892893,388860342,"""0""",11.0,2.75,12.0500001907,0.0
1614964920323302984,,24933,,1614892893,438773884,"""0""",11.0,4.375,12.0500001907,0.0
1614964920370750904,,24934,,1614892893,488879144,"""0""",11.0,5.75,12.0,0.0
1614964920433564901,,24935,,1614892893,538810707,"""0""",11.0,5.125,12.0,0.0
1614964920508265972,,24936,,1614892893,588802477,"""0""",11.0,5.5,12.0,0.0
1614964920542639970,,24937,,1614892893,638781019,"""0""",11.0,7.5,11.8999996185,0.0
1614964920575607061,,24938,,1614892893,688775446,"""0""",11.0,7.25,11.8999996185,0.0
1614964920629060029,,24939,,1614892893,738909457,"""0""",11.0,6.5,11.8999996185,0.0
1614964920694551944,,24940,,1614892893,788856957,"""0""",11.0,6.5,11.8999996185,0.0
1614964920726634979,,24941,,1614892893,838778936,"""0""",11.0,6.75,12.0,0.0
1614964920775960922,,24942,,1614892893,888773832,"""0""",11.0,6.625,12.0,0.0
1614964920827397108,,24943,,1614892893,938782842,"""0""",11.0,6.5,12.0,0.0
1614964920874227046,,24944,,1614892893,988821592,"""0""",11.0,7.375,11.8999996185,0.0
1614964920927412033,,24945,,1614892894,38764665,"""0""",11.0,6.875,11.8999996185,0.0
1614964920978950023,,24946,,1614892894,88841644,"""0""",11.0,4.75,11.8999996185,0.0
1614964921031766891,,24947,,1614892894,138787581,"""0""",11.0,6.75,11.9499998093,0.0
1614964921068593025,,24948,,1614892894,188795029,"""0""",11.0,6.625,11.9499998093,0.0
1614964921134670019,,24949,,1614892894,238861019,"""0""",11.0,6.75,11.9499998093,0.0
1614964921183614015,,24950,,1614892894,288773311,"""0""",11.0,6.875,11.8999996185,0.0
1614964921230576038,,24951,,1614892894,338783571,"""0""",11.0,6.75,11.8999996185,0.0
1614964921288721084,,24952,,1614892894,388867113,"""0""",11.0,5.75,11.8999996185,0.0
1614964921334229946,,24953,,1614892894,438769092,"""0""",11.0,6.5,12.0,0.0
1614964921427927017,,24954,,1614892894,488792529,"""0""",11.0,5.125,12.0,0.0
1614964921487912893,,24955,,1614892894,538908206,"""0""",11.0,5.125,12.0,0.0
1614964921488025903,,24956,,1614892894,588783258,"""0""",11.0,7.625,12.0,0.0
1614964921533473968,,24957,,1614892894,638775810,"""0""",11.0,8.875,11.6999998093,0.0
1614964921586695909,,24958,,1614892894,688782998,"""0""",11.0,7.875,11.6999998093,0.0
1614964921648540019,,24959,,1614892894,738830654,"""0""",11.0,8.0,11.6999998093,0.0
1614964921714490890,,24960,,1614892894,788795133,"""0""",11.0,9.625,11.6499996185,0.0
1614964921747761011,,24961,,1614892894,838785081,"""0""",11.0,9.875,11.6499996185,0.0
1614964921822963953,,24962,,1614892894,888876696,"""0""",11.0,9.25,11.6499996185,0.0
1614964921856292963,,24963,,1614892894,938789352,"""0""",11.0,9.875,11.6000003815,0.0
1614964921887301921,,24964,,1614892894,988750394,"""0""",11.0,10.875,11.6000003815,0.0
1614964921931310892,,24965,,1614892895,38777269,"""0""",11.0,11.625,11.6000003815,0.0
1614964921981553077,,24966,,1614892895,88788727,"""0""",11.0,12.25,11.5,0.0
1614964922024753093,,24967,,1614892895,138783102,"""0""",11.0,12.125,11.5,0.0
1614964922122025966,,24968,,1614892895,188794196,"""0""",11.0,11.25,11.5,0.0
1614964922195489883,,24969,,1614892895,240124039,"""0""",11.0,11.375,11.6000003815,0.0
1614964922246063947,,24970,,1614892895,288895602,"""0""",11.0,12.125,11.6000003815,0.0
1614964922246237039,,24971,,1614892895,338835550,"""0""",11.0,11.625,11.6000003815,0.0
1614964922326441049,,24972,,1614892895,388793102,"""0""",11.0,12.0,11.6000003815,0.0
1614964922369726896,,24973,,1614892895,438802216,"""0""",11.0,11.625,11.4499998093,0.0
1614964922443135976,,24974,,1614892895,488900185,"""0""",11.0,10.75,11.4499998093,0.0
1614964922443320035,,24975,,1614892895,538869404,"""0""",11.0,11.125,11.4499998093,0.0
1614964922488378047,,24976,,1614892895,588781852,"""0""",11.0,11.25,11.6000003815,0.0
1614964922517227888,,24977,,1614892895,638793518,"""0""",11.0,11.125,11.6000003815,0.0
1614964922585246086,,24978,,1614892895,688875185,"""0""",11.0,11.0,11.6000003815,0.0
1614964922633781909,,24979,,1614892895,738966695,"""0""",11.0,8.125,11.6499996185,0.0
1614964922688066005,,24980,,1614892895,788792008,"""0""",11.0,6.5,11.6499996185,0.0
1614964922718671083,,24981,,1614892895,838833050,"""0""",11.0,7.375,11.6499996185,0.0
1614964922772641897,,24982,,1614892895,888776643,"""0""",11.0,11.375,11.5500001907,0.0
1614964922823409080,,24983,,1614892895,938790289,"""0""",11.0,7.875,11.5500001907,0.0
1614964922872181892,,24984,,1614892895,988875081,"""0""",11.0,6.125,11.5500001907,0.0
1614964922940836906,,24985,,1614892896,39026227,"""0""",11.0,1.75,12.1000003815,0.0
1614964922984482049,,24986,,1614892896,88832581,"""0""",11.0,1.0,12.1000003815,0.0
1614964923027625083,,24987,,1614892896,138779195,"""0""",11.0,1.0,12.1000003815,0.0
1614964923082269906,,24988,,1614892896,188779299,"""0""",11.0,1.0,12.1000003815,0.0
1614964923141659021,,24989,,1614892896,238834508,"""0""",11.0,1.0,12.1499996185,0.0
1614964923221577882,,24990,,1614892896,288796904,"""0""",11.0,1.0,12.1499996185,0.0
1614964923257642984,,24991,,1614892896,338858258,"""0""",11.0,1.375,12.1499996185,0.0
1614964923296302080,,24992,,1614892896,388884872,"""0""",11.0,1.75,12.1000003815,0.0
1614964923328958034,,24993,,1614892896,438818883,"""0""",11.0,2.75,12.1000003815,0.0
1614964923386524915,,24994,,1614892896,488793466,"""0""",11.0,2.75,12.1000003815,0.0
1614964923420783042,,24995,,1614892896,538801539,"""0""",11.0,2.375,12.0500001907,0.0
1614964923499905109,,24996,,1614892896,588873831,"""0""",11.0,1.75,12.0500001907,0.0
1614964923545244932,,24997,,1614892896,638890966,"""0""",11.0,2.0,12.0500001907,0.0
1614964923577038049,,24998,,1614892896,688767372,"""0""",11.0,3.375,12.0500001907,0.0
1614964923624356985,,24999,,1614892896,738910497,"""0""",11.0,4.75,12.0500001907,0.0
1614964923680552005,,25000,,1614892896,788849299,"""0""",11.0,5.125,12.0500001907,0.0
1614964923725753068,,25001,,1614892896,838986174,"""0""",11.0,5.5,12.0,0.0
1614964923773801088,,25002,,1614892896,888783622,"""0""",11.0,3.75,12.0,0.0
1614964923830660104,,25003,,1614892896,938882789,"""0""",11.0,4.375,12.0,0.0
1614964923873390913,,25004,,1614892896,989167216,"""0""",11.0,4.75,12.0,0.0
1614964923922281026,,25005,,1614892897,38846122,"""0""",11.0,7.125,11.9499998093,0.0
1614964923976147890,,25006,,1614892897,88836903,"""0""",11.0,7.0,11.9499998093,0.0
1614964924027358055,,25007,,1614892897,138784299,"""0""",11.0,5.75,11.9499998093,0.0
1614964924097059011,,25008,,1614892897,188904768,"""0""",11.0,6.875,11.8999996185,0.0
1614964924131567001,,25009,,1614892897,238931643,"""0""",11.0,7.25,11.8999996185,0.0
1614964924187828063,,25010,,1614892897,288778778,"""0""",11.0,6.75,11.8999996185,0.0
1614964924222686052,,25011,,1614892897,338951851,"""0""",11.0,5.5,12.0,0.0
1614964924288858890,,25012,,1614892897,388765184,"""0""",11.0,6.875,12.0,0.0
1614964924332727909,,25013,,1614892897,438802580,"""0""",11.0,7.375,12.0,0.0
1614964924388309955,,25014,,1614892897,488824924,"""0""",11.0,7.125,11.8999996185,0.0
1614964924448404073,,25015,,1614892897,538802424,"""0""",11.0,7.0,11.8999996185,0.0
1614964924494589090,,25016,,1614892897,588795757,"""0""",11.0,7.75,11.8999996185,0.0
1614964924524460077,,25017,,1614892897,638760341,"""0""",11.0,7.75,11.8000001907,0.0
1614964924575895071,,25018,,1614892897,688766018,"""0""",11.0,7.625,11.8000001907,0.0
1614964924622373104,,25019,,1614892897,738869403,"""0""",11.0,7.5,11.8000001907,0.0
1614964924692063093,,25020,,1614892897,788758726,"""0""",11.0,7.625,11.8000001907,0.0
1614964924722295999,,25021,,1614892897,838809143,"""0""",11.0,8.125,11.75,0.0
1614964924777046918,,25022,,1614892897,888822320,"""0""",11.0,8.0,11.75,0.0
1614964924826359987,,25023,,1614892897,938827476,"""0""",11.0,8.0,11.75,0.0
1614964924871454000,,25024,,1614892897,988788986,"""0""",11.0,8.375,11.75,0.0
1614964924923599004,,25025,,1614892898,38803622,"""0""",11.0,8.0,11.75,0.0
1614964924975153923,,25026,,1614892898,88793049,"""0""",11.0,7.75,11.75,0.0
1614964925020915031,,25027,,1614892898,138848570,"""0""",11.0,7.75,11.8500003815,0.0
1614964925091662883,,25028,,1614892898,188919924,"""0""",11.0,7.75,11.8500003815,0.0
1614964925139453887,,25029,,1614892898,238818569,"""0""",11.0,7.625,11.8500003815,0.0
1614964925171559095,,25030,,1614892898,288784872,"""0""",11.0,7.5,11.8000001907,0.0
1614964925217235088,,25031,,1614892898,338805757,"""0""",11.0,7.375,11.8000001907,0.0
1614964925293222904,,25032,,1614892898,388780080,"""0""",11.0,7.25,11.8000001907,0.0
1614964925326641082,,25033,,1614892898,439155653,"""0""",11.0,7.125,11.8500003815,0.0
1614964925380516052,,25034,,1614892898,488787059,"""0""",11.0,7.125,11.8500003815,0.0
1614964925426963090,,25035,,1614892898,538794090,"""0""",11.0,7.125,11.8500003815,0.0
1614964925477385997,,25036,,1614892898,588772423,"""0""",11.0,7.125,11.8500003815,0.0
1614964925526706933,,25037,,1614892898,638799403,"""0""",11.0,7.125,11.8500003815,0.0
1614964925583103895,,25038,,1614892898,688770184,"""0""",11.0,7.125,11.8500003815,0.0
1614964925629441976,,25039,,1614892898,738784559,"""0""",11.0,7.125,11.8500003815,0.0
1614964925753140926,,25040,,1614892898,788840809,"""0""",11.0,7.25,11.8500003815,0.0
1614964925753328084,,25041,,1614892898,838850288,"""0""",11.0,7.25,11.8500003815,0.0
1614964925802525997,,25042,,1614892898,888783309,"""0""",11.0,7.125,11.8500003815,0.0
1614964925829521894,,25043,,1614892898,938790288,"""0""",11.0,7.25,11.8500003815,0.0
1614964925928953886,,25044,,1614892898,988820444,"""0""",11.0,7.25,11.8500003815,0.0
1614964925969608068,,25045,,1614892899,38802632,"""0""",11.0,7.25,11.8500003815,0.0
1614964926005831956,,25046,,1614892899,88856277,"""0""",11.0,7.125,11.8500003815,0.0
1614964926043623924,,25047,,1614892899,138822632,"""0""",11.0,7.0,11.8500003815,0.0
1614964926084240913,,25048,,1614892899,188788309,"""0""",11.0,7.0,11.8500003815,0.0
1614964926138912916,,25049,,1614892899,239047632,"""0""",11.0,6.75,11.9499998093,0.0
1614964926201363086,,25050,,1614892899,288823777,"""0""",11.0,6.625,11.9499998093,0.0
1614964926230685949,,25051,,1614892899,338949090,"""0""",11.0,6.625,11.9499998093,0.0
1614964926274231910,,25052,,1614892899,388820444,"""0""",11.0,6.625,11.9499998093,0.0
1614964926318865060,,25053,,1614892899,438895132,"""0""",11.0,6.625,11.8999996185,0.0
1614964926377437114,,25054,,1614892899,488776434,"""0""",11.0,6.125,11.8999996185,0.0
1614964926426743984,,25055,,1614892899,538877267,"""0""",11.0,6.75,11.8999996185,0.0
1614964926518290996,,25056,,1614892899,588852736,"""0""",11.0,6.875,11.8999996185,0.0
1614964926576739072,,25057,,1614892899,638795809,"""0""",11.0,6.5,11.8999996185,0.0
1614964926612082958,,25058,,1614892899,688768152,"""0""",11.0,5.5,11.8999996185,0.0
1614964926655950069,,25059,,1614892899,738797111,"""0""",11.0,4.375,12.0,0.0
1614964926686374902,,25060,,1614892899,788776121,"""0""",11.0,5.125,12.0,0.0
1614964926756278038,,25061,,1614892899,838889923,"""0""",11.0,5.5,12.0,0.0
1614964926823025941,,25062,,1614892899,888786850,"""0""",11.0,4.75,12.0,0.0
1614964926858493089,,25063,,1614892899,938942163,"""0""",11.0,3.75,12.0,0.0
1614964926887273073,,25064,,1614892899,988763152,"""0""",11.0,2.75,12.0,0.0
1614964926920902967,,25065,,1614892900,38779090,"""0""",11.0,2.375,12.0500001907,0.0
1614964926978735923,,25066,,1614892900,88799610,"""0""",11.0,2.375,12.0500001907,0.0
1614964927061378002,,25067,,1614892900,138856173,"""0""",11.0,2.375,12.0500001907,0.0
1614964927132277965,,25068,,1614892900,188759871,"""0""",11.0,2.75,12.0500001907,0.0
1614964927132383108,,25069,,1614892900,238804558,"""0""",11.0,2.375,12.1000003815,0.0
1614964927175512075,,25070,,1614892900,288820548,"""0""",11.0,2.75,12.1000003815,0.0
1614964927220947027,,25071,,1614892900,338837371,"""0""",11.0,2.0,12.1000003815,0.0
1614964927302982091,,25072,,1614892900,388933673,"""0""",11.0,2.0,12.1000003815,0.0
1614964927332228899,,25073,,1614892900,439162527,"""0""",11.0,3.375,12.1000003815,0.0
1614964927453422069,,25074,,1614892900,488818933,"""0""",11.0,4.125,12.1000003815,0.0
1614964927453610897,,25075,,1614892900,538825339,"""0""",11.0,6.875,11.8999996185,0.0
1614964927503555059,,25076,,1614892900,588756746,"""0""",11.0,6.875,11.8999996185,0.0
1614964927542334079,,25077,,1614892900,638794089,"""0""",11.0,5.5,11.8999996185,0.0
1614964927592973947,,25078,,1614892900,688764819,"""0""",11.0,5.75,12.0,0.0
1614964927638860940,,25079,,1614892900,738781746,"""0""",11.0,4.125,12.0,0.0
1614964927679038047,,25080,,1614892900,788774975,"""0""",11.0,0.5,12.0,0.0
1614964927729212999,,25081,,1614892900,838771329,"""0""",11.0,0.0,12.25,0.0
1614964927780111074,,25082,,1614892900,888846902,"""0""",11.0,0.0,12.25,0.0
1614964927825303077,,25083,,1614892900,938817162,"""0""",11.0,0.0,12.25,0.0
1614964927889730930,,25084,,1614892900,988802318,"""0""",11.0,0.0,12.25,0.0
1614964927933754920,,25085,,1614892901,38781745,"""0""",11.0,0.0,12.3000001907,0.0
1614964927982788085,,25086,,1614892901,88760027,"""0""",11.0,0.0,12.3000001907,0.0
1614964928036725997,,25087,,1614892901,138818412,"""0""",11.0,0.0,12.3000001907,0.0
1614964928110555887,,25088,,1614892901,188801120,"""0""",11.0,0.0,12.3000001907,0.0
1614964928182527065,,25089,,1614892901,238792891,"""0""",11.0,0.0,12.3000001907,0.0
1614964928243803024,,25090,,1614892901,288807735,"""0""",11.0,0.0,12.3000001907,0.0
1614964928244055032,,25091,,1614892901,338812527,"""0""",11.0,0.0,12.3000001907,0.0
1614964928293653011,,25092,,1614892901,388784297,"""0""",11.0,0.0,12.3000001907,0.0
1614964928347058057,,25093,,1614892901,438770964,"""0""",11.0,0.0,12.3000001907,0.0
1614964928391424894,,25094,,1614892901,488796172,"""0""",11.0,0.0,12.3000001907,0.0
1614964928461183071,,25095,,1614892901,538889089,"""0""",11.0,0.0,12.3000001907,0.0
1614964928495294094,,25096,,1614892901,588779141,"""0""",11.0,0.0,12.3000001907,0.0
1614964928554060935,,25097,,1614892901,638809506,"""0""",11.0,0.0,12.3000001907,0.0
1614964928604490041,,25098,,1614892901,688764297,"""0""",11.0,0.0,12.3000001907,0.0
1614964928659661054,,25099,,1614892901,738774349,"""0""",11.0,0.0,12.3000001907,0.0
1614964928705889940,,25100,,1614892901,788879141,"""0""",11.0,0.0,12.3000001907,0.0
1614964928744352102,,25101,,1614892901,838867474,"""0""",11.0,0.0,12.3000001907,0.0
1614964928860898017,,25102,,1614892901,888791224,"""0""",11.0,0.0,12.3000001907,0.0
1614964928861043930,,25103,,1614892901,938780078,"""0""",11.0,0.0,12.3000001907,0.0
1614964928909646987,,25104,,1614892901,988771224,"""0""",11.0,0.0,12.3000001907,0.0
1614964928980575084,,25105,,1614892902,38826224,"""0""",11.0,0.0,12.3000001907,0.0
1614964929056170940,,25106,,1614892902,88821328,"""0""",11.0,0.0,12.3000001907,0.0
1614964929056299924,,25107,,1614892902,138943620,"""0""",11.0,0.0,12.3000001907,0.0
1614964929103749036,,25108,,1614892902,188813203,"""0""",11.0,0.0,12.3000001907,0.0
1614964929150666952,,25109,,1614892902,238827891,"""0""",11.0,0.0,12.3000001907,0.0
1614964929212855100,,25110,,1614892902,288803776,"""0""",12.0,0.0,12.3000001907,0.0
1614964929261090040,,25111,,1614892902,338789505,"""0""",12.0,0.0,12.3000001907,0.0
1614964929310959100,,25112,,1614892902,388791693,"""0""",12.0,0.0,12.3000001907,0.0
1614964929344364881,,25113,,1614892902,438789089,"""0""",12.0,0.0,12.3000001907,0.0
1614964929386048078,,25114,,1614892902,488787266,"""0""",12.0,0.0,12.3000001907,0.0
1614964929432527065,,25115,,1614892902,538822474,"""0""",12.0,0.0,12.3000001907,0.0
1614964929482311010,,25116,,1614892902,588813568,"""0""",12.0,0.0,12.3000001907,0.0
1614964929613055944,,25117,,1614892902,638797422,"""0""",12.0,0.0,12.3000001907,0.0
1614964929613195896,,25118,,1614892902,688847734,"""0""",12.0,0.0,12.3000001907,0.0
1614964929647799015,,25119,,1614892902,738830078,"""0""",12.0,0.0,12.3000001907,0.0
1614964929673362970,,25120,,1614892902,788789870,"""0""",12.0,0.0,12.3500003815,0.0
1614964929732027053,,25121,,1614892902,838786172,"""0""",12.0,0.0,12.3500003815,0.0
1614964929827008008,,25122,,1614892902,888819297,"""0""",12.0,0.0,12.3500003815,0.0
1614964929860829114,,25123,,1614892902,938856484,"""0""",12.0,0.0,12.3500003815,0.0
1614964929910829067,,25124,,1614892902,988948828,"""0""",12.0,0.0,12.3500003815,0.0
1614964929959094047,,25125,,1614892903,38830651,"""0""",12.0,0.0,12.3500003815,0.0
1614964930003624916,,25126,,1614892903,88809141,"""0""",12.0,0.0,12.3500003815,0.0
1614964930058495044,,25127,,1614892903,138775807,"""0""",12.0,0.0,12.3500003815,0.0
1614964930128993988,,25128,,1614892903,188828203,"""0""",12.0,0.0,12.3500003815,0.0
1614964930167709112,,25129,,1614892903,240493411,"""0""",12.0,0.0,12.3500003815,0.0
1614964930209990024,,25130,,1614892903,288796172,"""0""",12.0,0.0,12.3500003815,0.0
1614964930257649898,,25131,,1614892903,338760807,"""0""",12.0,0.0,12.3500003815,0.0
1614964930294939041,,25132,,1614892903,388805495,"""0""",12.0,0.0,12.3500003815,0.0
1614964930324744939,,25133,,1614892903,438811536,"""0""",12.0,0.0,12.3500003815,0.0
1614964930377217054,,25134,,1614892903,488919088,"""0""",12.0,0.0,12.3500003815,0.0
1614964930435056924,,25135,,1614892903,538862526,"""0""",12.0,0.0,12.3500003815,0.0
1614964930474291086,,25136,,1614892903,588840026,"""0""",12.0,0.0,12.3500003815,0.0
1614964930540977954,,25137,,1614892903,638803619,"""0""",12.0,0.0,12.3500003815,0.0
1614964930571603059,,25138,,1614892903,688824713,"""0""",12.0,0.0,12.3500003815,0.0
1614964930637569904,,25139,,1614892903,738790599,"""0""",12.0,0.0,12.3500003815,0.0
1614964930723189115,,25140,,1614892903,788809817,"""0""",12.0,0.0,12.3500003815,0.0
1614964930761904954,,25141,,1614892903,838889453,"""0""",12.0,0.0,12.3500003815,0.0
1614964930809452056,,25142,,1614892903,888829765,"""0""",12.0,0.0,12.3500003815,0.0
1614964930845452070,,25143,,1614892903,938772578,"""0""",12.0,0.0,12.3500003815,0.0
1614964930880702018,,25144,,1614892903,989031015,"""0""",12.0,0.0,12.3500003815,0.0
1614964930923773050,,25145,,1614892904,38780859,"""0""",12.0,0.0,12.3500003815,0.0
1614964930999564886,,25146,,1614892904,89716328,"""0""",12.0,0.0,12.3500003815,0.0
1614964931038963079,,25147,,1614892904,138786484,"""0""",12.0,0.0,12.3500003815,0.0
1614964931074595928,,25148,,1614892904,189279661,"""0""",12.0,0.0,12.3500003815,0.0
1614964931128477096,,25149,,1614892904,238752265,"""0""",12.0,0.0,12.3500003815,0.0
1614964931178611993,,25150,,1614892904,288849088,"""0""",12.0,0.0,12.3500003815,0.0
1614964931226089954,,25151,,1614892904,338810442,"""0""",12.0,0.0,12.3500003815,0.0
1614964931276374101,,25152,,1614892904,388846015,"""0""",12.0,0.0,12.3500003815,0.0
1614964931323903083,,25153,,1614892904,438782005,"""0""",12.0,0.0,12.3500003815,0.0
1614964931374227046,,25154,,1614892904,488860963,"""0""",12.0,0.0,12.3500003815,0.0
1614964931432956933,,25155,,1614892904,538813671,"""0""",12.0,0.0,12.3500003815,0.0
1614964931479535102,,25156,,1614892904,589822317,"""0""",12.0,0.0,12.3500003815,0.0
1614964931527354955,,25157,,1614892904,638858359,"""0""",12.0,0.0,12.3500003815,0.0
1614964931571108102,,25158,,1614892904,689096119,"""0""",12.0,0.0,12.3500003815,0.0
1614964931620800971,,25159,,1614892904,738896119,"""0""",12.0,0.0,12.3500003815,0.0
1614964931673738956,,25160,,1614892904,788832734,"""0""",12.0,0.0,12.3500003815,0.0
1614964931734714984,,25161,,1614892904,838775650,"""0""",12.0,0.0,12.3500003815,0.0
1614964931780636072,,25162,,1614892904,889146692,"""0""",12.0,0.0,12.3500003815,0.0
1614964931827094078,,25163,,1614892904,938782004,"""0""",12.0,0.0,12.3500003815,0.0
1614964931872405052,,25164,,1614892904,988956431,"""0""",12.0,0.0,12.3500003815,0.0
1614964931921489000,,25165,,1614892905,38798984,"""0""",12.0,0.0,12.3500003815,0.0
1614964931982350111,,25166,,1614892905,88874921,"""0""",12.0,0.0,12.3500003815,0.0
1614964932027497053,,25167,,1614892905,138841483,"""0""",12.0,0.0,12.3500003815,0.0
1614964932078943967,,25168,,1614892905,189447733,"""0""",12.0,0.0,12.3500003815,0.0
1614964932126363039,,25169,,1614892905,238892161,"""0""",12.0,0.0,12.3500003815,0.0
1614964932175221920,,25170,,1614892905,288794036,"""0""",12.0,0.0,12.3500003815,0.0
1614964932230587005,,25171,,1614892905,338810077,"""0""",12.0,0.0,12.3500003815,0.0
1614964932290385007,,25172,,1614892905,388791223,"""0""",12.0,0.0,12.3500003815,0.0
1614964932334384918,,25173,,1614892905,438770598,"""0""",12.0,0.0,12.3500003815,0.0
1614964932379646062,,25174,,1614892905,488793827,"""0""",12.0,0.0,12.3500003815,0.0
1614964932426739931,,25175,,1614892905,538788358,"""0""",12.0,0.0,12.3500003815,0.0
1614964932487021923,,25176,,1614892905,588880025,"""0""",12.0,0.0,12.3500003815,0.0
1614964932531800985,,25177,,1614892905,638816640,"""0""",12.0,0.0,12.3500003815,0.0
1614964932572664976,,25178,,1614892905,688778723,"""0""",12.0,0.0,12.3500003815,0.0
1614964932634524106,,25179,,1614892905,738786171,"""0""",12.0,0.0,12.3500003815,0.0
1614964932688796043,,25180,,1614892905,788851223,"""0""",12.0,0.0,12.3500003815,0.0
1614964932753372907,,25181,,1614892905,839081744,"""0""",12.0,0.0,12.3500003815,0.0
1614964932813971996,,25182,,1614892905,888796796,"""0""",12.0,0.0,12.3500003815,0.0
1614964932858246088,,25183,,1614892905,938838046,"""0""",12.0,0.0,12.3500003815,0.0
1614964932909806013,,25184,,1614892905,988912004,"""0""",12.0,0.0,12.3500003815,0.0
1614964932959616899,,25185,,1614892906,38818671,"""0""",12.0,0.0,12.3500003815,0.0
1614964933000786066,,25186,,1614892906,88797889,"""0""",12.0,0.0,12.3500003815,0.0
1614964933030894994,,25187,,1614892906,138773983,"""0""",12.0,0.0,12.3500003815,0.0
1614964933100603103,,25188,,1614892906,188793410,"""0""",12.0,0.0,12.3500003815,0.0
1614964933158813953,,25189,,1614892906,238777629,"""0""",12.0,0.0,12.3500003815,0.0
1614964933218636035,,25190,,1614892906,288848046,"""0""",12.0,0.0,12.3500003815,0.0
1614964933250498056,,25191,,1614892906,338820389,"""0""",12.0,0.0,12.3500003815,0.0
1614964933295284986,,25192,,1614892906,388798618,"""0""",12.0,0.0,12.3500003815,0.0
1614964933342103958,,25193,,1614892906,438784660,"""0""",12.0,0.0,12.3500003815,0.0
1614964933395694017,,25194,,1614892906,488867889,"""0""",12.0,0.0,12.3500003815,0.0
1614964933450544118,,25195,,1614892906,538907473,"""0""",12.0,0.0,12.3500003815,0.0
1614964933492225885,,25196,,1614892906,588781743,"""0""",12.0,0.0,12.3500003815,0.0
1614964933549771070,,25197,,1614892906,638805598,"""0""",12.0,0.0,12.3500003815,0.0
1614964933607673883,,25198,,1614892906,688862733,"""0""",12.0,0.0,12.3500003815,0.0
1614964933675683975,,25199,,1614892906,738825233,"""0""",12.0,0.0,12.3500003815,0.0
1614964933728883028,,25200,,1614892906,788778775,"""0""",12.0,0.0,12.3500003815,0.0
1614964933729016065,,25201,,1614892906,838843150,"""0""",12.0,0.0,12.3500003815,0.0
1614964933777555942,,25202,,1614892906,888804347,"""0""",12.0,0.0,12.3500003815,0.0
1614964933834588050,,25203,,1614892906,938893983,"""0""",12.0,0.0,12.3500003815,0.0
1614964933879179954,,25204,,1614892906,988870285,"""0""",12.0,0.0,12.3500003815,0.0
1614964933947161912,,25205,,1614892907,38824608,"""0""",12.0,0.0,12.3500003815,0.0
1614964933984560966,,25206,,1614892907,88826691,"""0""",12.0,0.0,12.3500003815,0.0
1614964934034691095,,25207,,1614892907,138778670,"""0""",12.0,0.0,12.3500003815,0.0
1614964934081485986,,25208,,1614892907,188806170,"""0""",12.0,0.0,12.3500003815,0.0
1614964934131514072,,25209,,1614892907,238778201,"""0""",12.0,0.0,12.3500003815,0.0
1614964934173907041,,25210,,1614892907,288762420,"""0""",12.0,0.0,12.3500003815,0.0
1614964934230822086,,25211,,1614892907,338765128,"""0""",12.0,0.0,12.3500003815,0.0
1614964934288041114,,25212,,1614892907,388908826,"""0""",12.0,0.0,12.3500003815,0.0
