rosbagTimestamp,header,seq,stamp,secs,nsecs,frame_id,Temperature,OutputCurrent,BusVoltage,ClosedLoopError
1614968293627324104,,92398,,1614896266,689334785,"""0""",12.0,0.0,12.3999996185,0.0
1614968293670624017,,92399,,1614896266,738770201,"""0""",12.0,0.0,12.3999996185,0.0
1614968293725245952,,92400,,1614896266,788937909,"""0""",12.0,0.0,12.3999996185,0.0
1614968293772627115,,92401,,1614896266,838771451,"""0""",12.0,0.0,12.3999996185,0.0
1614968293826570987,,92402,,1614896266,888963587,"""0""",12.0,0.0,12.3999996185,0.0
1614968293869163990,,92403,,1614896266,938790149,"""0""",12.0,0.0,12.3999996185,0.0
1614968293922851085,,92404,,1614896266,988775253,"""0""",12.0,0.0,12.3999996185,0.0
1614968293978759050,,92405,,1614896267,38765461,"""0""",12.0,0.0,12.3999996185,0.0
1614968294027165889,,92406,,1614896267,88802961,"""0""",12.0,0.0,12.3999996185,0.0
1614968294087208032,,92407,,1614896267,138830201,"""0""",12.0,0.0,12.3999996185,0.0
1614968294133066892,,92408,,1614896267,188861711,"""0""",12.0,0.0,12.3999996185,0.0
1614968294177968978,,92409,,1614896267,238778013,"""0""",12.0,0.0,12.3999996185,0.0
1614968294225843906,,92410,,1614896267,288929368,"""0""",12.0,0.0,12.3999996185,0.0
1614968294292191982,,92411,,1614896267,338780409,"""0""",12.0,0.0,12.3999996185,0.0
1614968294333750009,,92412,,1614896267,388846243,"""0""",12.0,0.0,12.3999996185,0.0
1614968294384526968,,92413,,1614896267,438773013,"""0""",12.0,0.0,12.3999996185,0.0
1614968294433454990,,92414,,1614896267,488857857,"""0""",12.0,0.0,12.3999996185,0.0
1614968294483243942,,92415,,1614896267,538780097,"""0""",12.0,0.0,12.3999996185,0.0
1614968294535608053,,92416,,1614896267,588844263,"""0""",12.0,0.0,12.3999996185,0.0
1614968294585858106,,92417,,1614896267,638775201,"""0""",12.0,0.0,12.3999996185,0.0
1614968294646199941,,92418,,1614896267,688856763,"""0""",12.0,0.0,12.3999996185,0.0
1614968294685276985,,92419,,1614896267,738777909,"""0""",12.0,0.0,12.3999996185,0.0
1614968294738682031,,92420,,1614896267,788903117,"""0""",12.0,0.0,12.3999996185,0.0
1614968294779345989,,92421,,1614896267,838980097,"""0""",12.0,0.0,12.3999996185,0.0
1614968294843754053,,92422,,1614896267,888974211,"""0""",12.0,0.0,12.3999996185,0.0
1614968294886419057,,92423,,1614896267,938758117,"""0""",12.0,0.0,12.3999996185,0.0
1614968294938366889,,92424,,1614896267,988851607,"""0""",12.0,0.0,12.3999996185,0.0
1614968294985235929,,92425,,1614896268,38758274,"""0""",12.0,0.0,12.3999996185,0.0
1614968295032763004,,92426,,1614896268,88802128,"""0""",12.0,0.0,12.3999996185,0.0
1614968295090920925,,92427,,1614896268,138822701,"""0""",12.0,0.0,12.3999996185,0.0
1614968295141832113,,92428,,1614896268,188840149,"""0""",12.0,0.0,12.3999996185,0.0
1614968295188982009,,92429,,1614896268,238783742,"""0""",12.0,0.0,12.3999996185,0.0
1614968295234992980,,92430,,1614896268,288803638,"""0""",12.0,0.0,12.3999996185,0.0
1614968295285929918,,92431,,1614896268,338811242,"""0""",12.0,0.0,12.3999996185,0.0
1614968295337259054,,92432,,1614896268,389037076,"""0""",12.0,0.0,12.3999996185,0.0
1614968295390615940,,92433,,1614896268,438838326,"""0""",12.0,0.0,12.3999996185,0.0
1614968295438677072,,92434,,1614896268,488805565,"""0""",12.0,0.0,12.3999996185,0.0
1614968295483198881,,92435,,1614896268,538798742,"""0""",12.0,0.0,12.3999996185,0.0
1614968295535607099,,92436,,1614896268,588845669,"""0""",12.0,0.0,12.3999996185,0.0
1614968295585326910,,92437,,1614896268,638915773,"""0""",12.0,0.0,12.3999996185,0.0
1614968295636569976,,92438,,1614896268,688798013,"""0""",12.0,0.0,12.3999996185,0.0
1614968295678452968,,92439,,1614896268,738816607,"""0""",12.0,0.0,12.3999996185,0.0
1614968295736418962,,92440,,1614896268,788856555,"""0""",12.0,0.0,12.3999996185,0.0
1614968295786350965,,92441,,1614896268,838812336,"""0""",12.0,0.0,12.3999996185,0.0
1614968295840140104,,92442,,1614896268,888890252,"""0""",12.0,0.0,12.3999996185,0.0
1614968295886708974,,92443,,1614896268,938766346,"""0""",12.0,0.0,12.3999996185,0.0
1614968295947493076,,92444,,1614896268,988887075,"""0""",12.0,0.0,12.3999996185,0.0
1614968296000592947,,92445,,1614896269,38783377,"""0""",12.0,0.0,12.3999996185,0.0
1614968296041899919,,92446,,1614896269,88815200,"""0""",12.0,0.0,12.3999996185,0.0
1614968296083941936,,92447,,1614896269,138798690,"""0""",12.0,0.0,12.3999996185,0.0
1614968296135776996,,92448,,1614896269,188859263,"""0""",12.0,0.0,12.3999996185,0.0
1614968296191514968,,92449,,1614896269,238783586,"""0""",12.0,0.0,12.3999996185,0.0
1614968296240251064,,92450,,1614896269,288778794,"""0""",12.0,0.0,12.3999996185,0.0
1614968296297615051,,92451,,1614896269,338794575,"""0""",12.0,0.0,12.3999996185,0.0
1614968296336889028,,92452,,1614896269,388874263,"""0""",12.0,0.0,12.3999996185,0.0
1614968296387789011,,92453,,1614896269,438778586,"""0""",12.0,0.0,12.3999996185,0.0
1614968296434695959,,92454,,1614896269,488812544,"""0""",12.0,0.0,12.3999996185,0.0
1614968296500731945,,92455,,1614896269,538866294,"""0""",12.0,0.0,12.3999996185,0.0
1614968296534833908,,92456,,1614896269,588889419,"""0""",12.0,0.0,12.3999996185,0.0
1614968296585237979,,92457,,1614896269,638817596,"""0""",12.0,0.0,12.3999996185,0.0
1614968296637005090,,92458,,1614896269,688944367,"""0""",12.0,0.0,12.3999996185,0.0
1614968296719307899,,92459,,1614896269,738812440,"""0""",12.0,0.0,12.3999996185,0.0
1614968296754198074,,92460,,1614896269,788803846,"""0""",12.0,0.0,12.3999996185,0.0
1614968296788526058,,92461,,1614896269,838778429,"""0""",12.0,0.0,12.3999996185,0.0
1614968296836040019,,92462,,1614896269,888784783,"""0""",12.0,0.0,12.3999996185,0.0
1614968296906500101,,92463,,1614896269,938783325,"""0""",12.0,0.0,12.3999996185,0.0
1614968296936090946,,92464,,1614896269,988892127,"""0""",12.0,0.0,12.3999996185,0.0
1614968296994990110,,92465,,1614896270,38841346,"""0""",12.0,0.0,12.3999996185,0.0
1614968297043757915,,92466,,1614896270,88897648,"""0""",12.0,0.0,12.3999996185,0.0
1614968297093550920,,92467,,1614896270,138874627,"""0""",12.0,0.0,12.3999996185,0.0
1614968297138657093,,92468,,1614896270,188819262,"""0""",12.0,0.0,12.3999996185,0.0
1614968297205578088,,92469,,1614896270,238804991,"""0""",12.0,0.0,12.3999996185,0.0
1614968297243541955,,92470,,1614896270,288911450,"""0""",12.0,0.0,12.3999996185,0.0
1614968297324687957,,92471,,1614896270,338782127,"""0""",12.0,0.0,12.3999996185,0.0
1614968297364782094,,92472,,1614896270,388878429,"""0""",12.0,0.0,12.3999996185,0.0
1614968297410794019,,92473,,1614896270,438779471,"""0""",12.0,0.0,12.3999996185,0.0
1614968297444263935,,92474,,1614896270,488972335,"""0""",12.0,0.0,12.3999996185,0.0
1614968297520823955,,92475,,1614896270,538779366,"""0""",12.0,0.0,12.3999996185,0.0
1614968297549696922,,92476,,1614896270,588863168,"""0""",12.0,0.0,12.3999996185,0.0
1614968297597278118,,92477,,1614896270,638763481,"""0""",12.0,0.0,12.3999996185,0.0
1614968297642046928,,92478,,1614896270,688829210,"""0""",12.0,0.0,12.3999996185,0.0
1614968297690113067,,92479,,1614896270,738780616,"""0""",12.0,0.0,12.3999996185,0.0
1614968297779686927,,92480,,1614896270,788825773,"""0""",12.0,0.0,12.3999996185,0.0
1614968297779803991,,92481,,1614896270,838762960,"""0""",12.0,0.0,12.3999996185,0.0
1614968297842508077,,92482,,1614896270,888862543,"""0""",12.0,0.0,12.3999996185,0.0
1614968297889125108,,92483,,1614896270,938806606,"""0""",12.0,0.0,12.3999996185,0.0
1614968297944216966,,92484,,1614896270,988909106,"""0""",12.0,0.0,12.3999996185,0.0
1614968297988733053,,92485,,1614896271,38814627,"""0""",12.0,0.0,12.3999996185,0.0
1614968298036181926,,92486,,1614896271,88813324,"""0""",12.0,0.0,12.3999996185,0.0
1614968298104680061,,92487,,1614896271,138784158,"""0""",12.0,0.0,12.3999996185,0.0
1614968298164817094,,92488,,1614896271,188899002,"""0""",12.0,0.0,12.3999996185,0.0
1614968298213535070,,92489,,1614896271,238760720,"""0""",12.0,0.0,12.3999996185,0.0
1614968298255815029,,92490,,1614896271,288897856,"""0""",12.0,0.0,12.3999996185,0.0
1614968298292870044,,92491,,1614896271,338747647,"""0""",12.0,0.0,12.3999996185,0.0
1614968298339175939,,92492,,1614896271,388801762,"""0""",12.0,0.0,12.3999996185,0.0
1614968298406641006,,92493,,1614896271,438813168,"""0""",12.0,0.0,12.3999996185,0.0
1614968298444377899,,92494,,1614896271,488782908,"""0""",12.0,0.0,12.3999996185,0.0
1614968298490485906,,92495,,1614896271,538797595,"""0""",12.0,0.0,12.3999996185,0.0
1614968298592062950,,92496,,1614896271,589534001,"""0""",12.0,0.0,12.3999996185,0.0
1614968298592171907,,92497,,1614896271,638863533,"""0""",12.0,0.0,12.3999996185,0.0
1614968298636527061,,92498,,1614896271,688892126,"""0""",12.0,0.0,12.3999996185,0.0
1614968298698914051,,92499,,1614896271,738779626,"""0""",12.0,0.0,12.3999996185,0.0
1614968298737700939,,92500,,1614896271,788809105,"""0""",12.0,0.0,12.3999996185,0.0
1614968298790337085,,92501,,1614896271,838812855,"""0""",12.0,0.0,12.3999996185,0.0
1614968298842818975,,92502,,1614896271,888848376,"""0""",12.0,0.0,12.3999996185,0.0
1614968298893738985,,92503,,1614896271,938778012,"""0""",12.0,0.0,12.3999996185,0.0
1614968298945688962,,92504,,1614896271,988904574,"""0""",12.0,0.0,12.3999996185,0.0
1614968299006536960,,92505,,1614896272,38779887,"""0""",12.0,0.0,12.3999996185,0.0
1614968299047059059,,92506,,1614896272,88877439,"""0""",12.0,0.0,12.3999996185,0.0
1614968299088236093,,92507,,1614896272,138787960,"""0""",12.0,0.0,12.3999996185,0.0
1614968299150549888,,92508,,1614896272,188955355,"""0""",12.0,0.0,12.3999996185,0.0
1614968299188451051,,92509,,1614896272,238802959,"""0""",12.0,0.0,12.3999996185,0.0
1614968299243854045,,92510,,1614896272,288901918,"""0""",12.0,0.0,12.3999996185,0.0
1614968299293273925,,92511,,1614896272,338770668,"""0""",12.0,0.0,12.3999996185,0.0
1614968299361140966,,92512,,1614896272,388802439,"""0""",12.0,0.0,12.3999996185,0.0
1614968299387253999,,92513,,1614896272,438797907,"""0""",12.0,0.0,12.3999996185,0.0
1614968299446995973,,92514,,1614896272,488871397,"""0""",12.0,0.0,12.3999996185,0.0
1614968299490931987,,92515,,1614896272,538806918,"""0""",12.0,0.0,12.3999996185,0.0
1614968299546782970,,92516,,1614896272,588920407,"""0""",12.0,0.0,12.3999996185,0.0
1614968299603935956,,92517,,1614896272,638771084,"""0""",12.0,0.0,12.3999996185,0.0
1614968299650094985,,92518,,1614896272,689086501,"""0""",12.0,0.0,12.3999996185,0.0
1614968299687464952,,92519,,1614896272,738779574,"""0""",12.0,0.0,12.3999996185,0.0
1614968299791959047,,92520,,1614896272,788785147,"""0""",12.0,0.0,12.3999996185,0.0
1614968299792093038,,92521,,1614896272,838759470,"""0""",12.0,0.0,12.3999996185,0.0
1614968299853887081,,92522,,1614896272,888934105,"""0""",12.0,0.0,12.3999996185,0.0
1614968299957298040,,92523,,1614896272,938775668,"""0""",12.0,0.0,12.3999996185,0.0
1614968299957652091,,92524,,1614896272,988861865,"""0""",12.0,0.0,12.3999996185,0.0
1614968300010068893,,92525,,1614896273,38768688,"""0""",12.0,0.0,12.3999996185,0.0
1614968300086774110,,92526,,1614896273,88802178,"""0""",12.0,0.0,12.3999996185,0.0
1614968300136930942,,92527,,1614896273,138734990,"""0""",12.0,0.0,12.3999996185,0.0
1614968300205882072,,92528,,1614896273,188788949,"""0""",12.0,0.0,12.3999996185,0.0
1614968300205996036,,92529,,1614896273,238811292,"""0""",12.0,0.0,12.3999996185,0.0
1614968300279735088,,92530,,1614896273,288837022,"""0""",12.0,0.0,12.3999996185,0.0
1614968300310556888,,92531,,1614896273,338761969,"""0""",12.0,0.0,12.3999996185,0.0
1614968300364175081,,92532,,1614896273,388784313,"""0""",12.0,0.0,12.3999996185,0.0
1614968300398333072,,92533,,1614896273,438821084,"""0""",12.0,0.0,12.3999996185,0.0
1614968300447685003,,92534,,1614896273,488840355,"""0""",12.0,0.0,12.3999996185,0.0
1614968300567804098,,92535,,1614896273,538790303,"""0""",12.0,0.0,12.3999996185,0.0
1614968300567966938,,92536,,1614896273,588861449,"""0""",12.0,0.0,12.3999996185,0.0
1614968300677571058,,92537,,1614896273,638827230,"""0""",12.0,0.0,12.3999996185,0.0
1614968300677697896,,92538,,1614896273,688783480,"""0""",12.0,0.0,12.3999996185,0.0
1614968300718538045,,92539,,1614896273,738753740,"""0""",12.0,0.0,12.3999996185,0.0
1614968300777560949,,92540,,1614896273,788844001,"""0""",12.0,0.0,12.3999996185,0.0
1614968300823452949,,92541,,1614896273,838819365,"""0""",12.0,0.0,12.3999996185,0.0
1614968300979670047,,92542,,1614896273,889022073,"""0""",12.0,0.0,12.3999996185,0.0
1614968300979775905,,92543,,1614896273,938737125,"""0""",12.0,0.0,12.3999996185,0.0
1614968300979798078,,92544,,1614896273,988901500,"""0""",12.0,0.0,12.3999996185,0.0
1614968300979818105,,92545,,1614896274,44730303,"""0""",12.0,0.0,12.3999996185,0.0
1614968301072762966,,92546,,1614896274,88825198,"""0""",12.0,0.0,12.3999996185,0.0
1614968301103547096,,92547,,1614896274,138811657,"""0""",12.0,0.0,12.3999996185,0.0
1614968301151675939,,92548,,1614896274,189184782,"""0""",12.0,0.0,12.3999996185,0.0
1614968301209112882,,92549,,1614896274,238790302,"""0""",12.0,0.0,12.3999996185,0.0
1614968301240556001,,92550,,1614896274,288888740,"""0""",12.0,0.0,12.3999996185,0.0
1614968301291980028,,92551,,1614896274,338783480,"""0""",12.0,0.0,12.3999996185,0.0
1614968301366638898,,92552,,1614896274,388840563,"""0""",12.0,0.0,12.3999996185,0.0
1614968301405945062,,92553,,1614896274,438781396,"""0""",12.0,0.0,12.3999996185,0.0
1614968301445466995,,92554,,1614896274,488994782,"""0""",12.0,0.0,12.3999996185,0.0
1614968301499324083,,92555,,1614896274,538777282,"""0""",12.0,0.0,12.3999996185,0.0
1614968301549417972,,92556,,1614896274,589010198,"""0""",12.0,0.0,12.3999996185,0.0
1614968301597879886,,92557,,1614896274,638790406,"""0""",12.0,0.0,12.3999996185,0.0
1614968301643029928,,92558,,1614896274,688832906,"""0""",12.0,0.0,12.3999996185,0.0
1614968301726360082,,92559,,1614896274,738839000,"""0""",12.0,0.0,12.3999996185,0.0
1614968301766361951,,92560,,1614896274,788788479,"""0""",12.0,0.0,12.3999996185,0.0
1614968301809525966,,92561,,1614896274,838748375,"""0""",12.0,15.375,12.3999996185,0.0
1614968301845983028,,92562,,1614896274,888892906,"""0""",12.0,10.375,11.75,0.0
1614968301900051116,,92563,,1614896274,938776292,"""0""",12.0,7.375,11.75,0.0
1614968301947101116,,92564,,1614896274,988787073,"""0""",12.0,7.25,11.75,0.0
1614968302011143922,,92565,,1614896275,38817125,"""0""",12.0,7.5,12.0,0.0
1614968302109785079,,92566,,1614896275,88800563,"""0""",12.0,7.125,12.0,0.0
1614968302109920024,,92567,,1614896275,138785250,"""0""",12.0,3.0,12.0,0.0
1614968302149662017,,92568,,1614896275,188760510,"""0""",12.0,1.75,12.25,0.0
1614968302192394971,,92569,,1614896275,238794937,"""0""",12.0,1.0,12.25,0.0
1614968302265619039,,92570,,1614896275,288969469,"""0""",12.0,0.375,12.25,0.0
1614968302318766117,,92571,,1614896275,338818115,"""0""",12.0,0.0,12.3999996185,0.0
1614968302344126939,,92572,,1614896275,388823792,"""0""",12.0,0.0,12.3999996185,0.0
1614968302394232988,,92573,,1614896275,438778375,"""0""",12.0,0.0,12.3999996185,0.0
1614968302461740970,,92574,,1614896275,488781292,"""0""",12.0,0.0,12.3999996185,0.0
1614968302488784074,,92575,,1614896275,538782594,"""0""",12.0,0.375,12.3500003815,0.0
1614968302545770883,,92576,,1614896275,588827073,"""0""",12.0,0.375,12.3500003815,0.0
1614968302604949951,,92577,,1614896275,638900927,"""0""",12.0,0.625,12.3500003815,0.0
1614968302649533033,,92578,,1614896275,688822021,"""0""",12.0,1.75,12.25,0.0
1614968302688244104,,92579,,1614896275,738852125,"""0""",12.0,1.75,12.25,0.0
1614968302743010997,,92580,,1614896275,788912073,"""0""",12.0,1.375,12.25,0.0
1614968302788492918,,92581,,1614896275,838772906,"""0""",12.0,2.0,12.25,0.0
1614968302857973098,,92582,,1614896275,888858323,"""0""",12.0,2.75,12.25,0.0
1614968302892291069,,92583,,1614896275,938788583,"""0""",12.0,2.0,12.25,0.0
1614968302941957950,,92584,,1614896275,988792281,"""0""",12.0,2.0,12.1999998093,0.0
1614968302987262964,,92585,,1614896276,38843531,"""0""",12.0,1.75,12.1999998093,0.0
1614968303039871931,,92586,,1614896276,88780250,"""0""",12.0,1.375,12.1999998093,0.0
1614968303099914073,,92587,,1614896276,138961083,"""0""",12.0,1.375,12.25,0.0
1614968303149235963,,92588,,1614896276,188959208,"""0""",12.0,1.375,12.25,0.0
1614968303236392974,,92589,,1614896276,238946135,"""0""",12.0,1.0,12.25,0.0
1614968303236511945,,92590,,1614896276,288856291,"""0""",12.0,2.0,12.25,0.0
1614968303288438081,,92591,,1614896276,338787229,"""0""",12.0,2.75,12.1499996185,0.0
1614968303351160049,,92592,,1614896276,388795614,"""0""",12.0,2.375,12.1499996185,0.0
1614968303391407012,,92593,,1614896276,438800614,"""0""",12.0,2.375,12.1499996185,0.0
1614968303445795059,,92594,,1614896276,488858583,"""0""",12.0,2.0,12.1999998093,0.0
1614968303496429920,,92595,,1614896276,538817697,"""0""",12.0,2.0,12.1999998093,0.0
1614968303559326887,,92596,,1614896276,588882645,"""0""",12.0,3.375,12.1999998093,0.0
1614968303588882923,,92597,,1614896276,638776499,"""0""",12.0,3.0,12.1999998093,0.0
1614968303646516084,,92598,,1614896276,688862385,"""0""",12.0,2.375,12.1999998093,0.0
1614968303688380002,,92599,,1614896276,739015562,"""0""",12.0,1.75,12.1999998093,0.0
1614968303754770994,,92600,,1614896276,788795510,"""0""",12.0,2.0,12.1999998093,0.0
1614968303801021099,,92601,,1614896276,838833531,"""0""",12.0,2.0,12.1999998093,0.0
1614968303849340915,,92602,,1614896276,888796656,"""0""",12.0,1.75,12.1999998093,0.0
1614968303886679887,,92603,,1614896276,938758687,"""0""",12.0,1.375,12.25,0.0
1614968303947040081,,92604,,1614896276,989079468,"""0""",12.0,2.0,12.25,0.0
1614968303986702919,,92605,,1614896277,38875666,"""0""",12.0,3.0,12.25,0.0
1614968304067635059,,92606,,1614896277,88798114,"""0""",12.0,2.375,12.25,0.0
1614968304112942934,,92607,,1614896277,138774208,"""0""",12.0,1.375,12.25,0.0
1614968304156049013,,92608,,1614896277,188763947,"""0""",12.0,1.375,12.25,0.0
1614968304189250946,,92609,,1614896277,239006812,"""0""",12.0,2.0,12.25,0.0
1614968304244522094,,92610,,1614896277,288825822,"""0""",12.0,2.0,12.1999998093,0.0
1614968304291848897,,92611,,1614896277,338733843,"""0""",12.0,2.0,12.1999998093,0.0
1614968304342638969,,92612,,1614896277,388809885,"""0""",12.0,3.375,12.1999998093,0.0
1614968304397757053,,92613,,1614896277,438766082,"""0""",12.0,3.375,12.1000003815,0.0
1614968304443842887,,92614,,1614896277,488822593,"""0""",12.0,2.75,12.1000003815,0.0
1614968304493109941,,92615,,1614896277,538815093,"""0""",12.0,2.0,12.1000003815,0.0
1614968304546777009,,92616,,1614896277,588814312,"""0""",12.0,2.0,12.1999998093,0.0
1614968304587985992,,92617,,1614896277,638784259,"""0""",12.0,2.375,12.1999998093,0.0
1614968304647183895,,92618,,1614896277,688850041,"""0""",12.0,2.75,12.1999998093,0.0
1614968304707662105,,92619,,1614896277,738777020,"""0""",12.0,2.0,12.1999998093,0.0
1614968304739871978,,92620,,1614896277,788975562,"""0""",12.0,1.75,12.1999998093,0.0
1614968304787806987,,92621,,1614896277,838820822,"""0""",12.0,1.375,12.1999998093,0.0
1614968304839267015,,92622,,1614896277,888808843,"""0""",12.0,1.0,12.1999998093,0.0
1614968304891299962,,92623,,1614896277,938880561,"""0""",12.0,1.0,12.25,0.0
1614968304944219112,,92624,,1614896277,988796395,"""0""",12.0,1.0,12.25,0.0
1614968304997325897,,92625,,1614896278,38784832,"""0""",12.0,1.0,12.25,0.0
1614968305058022022,,92626,,1614896278,88955041,"""0""",12.0,1.0,12.25,0.0
1614968305092011928,,92627,,1614896278,138768634,"""0""",12.0,1.0,12.25,0.0
1614968305145205020,,92628,,1614896278,188898999,"""0""",12.0,1.0,12.25,0.0
1614968305195864915,,92629,,1614896278,238943478,"""0""",12.0,1.0,12.25,0.0
1614968305243340015,,92630,,1614896278,289005874,"""0""",12.0,1.375,12.25,0.0
1614968305292066097,,92631,,1614896278,338823478,"""0""",12.0,1.75,12.25,0.0
1614968305332454919,,92632,,1614896278,388784988,"""0""",12.0,1.75,12.25,0.0
1614968305413146972,,92633,,1614896278,438775822,"""0""",12.0,1.75,12.25,0.0
1614968305449543952,,92634,,1614896278,488841863,"""0""",12.0,2.375,12.25,0.0
1614968305491573095,,92635,,1614896278,538780197,"""0""",12.0,2.75,12.1999998093,0.0
1614968305540733098,,92636,,1614896278,588794728,"""0""",12.0,1.75,12.1999998093,0.0
1614968305595824956,,92637,,1614896278,638820249,"""0""",12.0,2.0,12.1999998093,0.0
1614968305642828941,,92638,,1614896278,688817905,"""0""",12.0,2.375,12.1999998093,0.0
1614968305692110061,,92639,,1614896278,738780509,"""0""",12.0,1.375,12.1999998093,0.0
1614968305737281084,,92640,,1614896278,788836290,"""0""",12.0,1.0,12.1999998093,0.0
1614968305791297912,,92641,,1614896278,838783374,"""0""",12.0,1.375,12.1999998093,0.0
1614968305839589118,,92642,,1614896278,888817697,"""0""",12.0,1.75,12.1999998093,0.0
1614968305909373998,,92643,,1614896278,938769519,"""0""",12.0,3.75,12.1999998093,0.0
1614968305941668987,,92644,,1614896278,988782905,"""0""",12.0,6.75,12.1999998093,0.0
1614968305995490074,,92645,,1614896279,38783478,"""0""",12.0,3.75,12.1000003815,0.0
1614968306041630029,,92646,,1614896279,88820196,"""0""",12.0,4.125,12.1000003815,0.0
1614968306098740100,,92647,,1614896279,138783217,"""0""",12.0,6.625,12.1000003815,0.0
1614968306148116111,,92648,,1614896279,188800717,"""0""",12.0,6.5,12.0,0.0
1614968306212719917,,92649,,1614896279,238764936,"""0""",12.0,7.125,12.0,0.0
1614968306248084068,,92650,,1614896279,288931707,"""0""",12.0,7.0,12.0,0.0
1614968306302381038,,92651,,1614896279,338864155,"""0""",12.0,7.125,11.9499998093,0.0
1614968306346857070,,92652,,1614896279,388789936,"""0""",12.0,7.5,11.9499998093,0.0
1614968306394764900,,92653,,1614896279,438801498,"""0""",12.0,7.25,11.9499998093,0.0
1614968306438509941,,92654,,1614896279,488803530,"""0""",12.0,7.25,11.9499998093,0.0
1614968306501003026,,92655,,1614896279,538793425,"""0""",12.0,7.375,11.9499998093,0.0
1614968306538584947,,92656,,1614896279,588787592,"""0""",12.0,7.5,11.9499998093,0.0
1614968306590440034,,92657,,1614896279,638758113,"""0""",12.0,7.25,11.9499998093,0.0
1614968306643553018,,92658,,1614896279,688781186,"""0""",12.0,7.0,11.9499998093,0.0
1614968306691724061,,92659,,1614896279,738846550,"""0""",12.0,6.875,11.9499998093,0.0
1614968306745718955,,92660,,1614896279,788808686,"""0""",12.0,6.75,11.9499998093,0.0
1614968306816029071,,92661,,1614896279,838870873,"""0""",12.0,7.125,12.0,0.0
1614968306855953931,,92662,,1614896279,888958477,"""0""",12.0,7.125,12.0,0.0
1614968306894100904,,92663,,1614896279,938802644,"""0""",12.0,7.25,12.0,0.0
1614968306948215007,,92664,,1614896279,988838946,"""0""",12.0,7.0,12.0,0.0
1614968306998388051,,92665,,1614896280,38899831,"""0""",12.0,6.875,12.0,0.0
1614968307049552917,,92666,,1614896280,88786290,"""0""",12.0,7.0,12.0,0.0
1614968307106892108,,92667,,1614896280,138796238,"""0""",12.0,7.125,11.8999996185,0.0
1614968307149180889,,92668,,1614896280,188766654,"""0""",12.0,7.375,11.8999996185,0.0
1614968307189680099,,92669,,1614896280,238961759,"""0""",12.0,7.0,11.8999996185,0.0
1614968307253321886,,92670,,1614896280,288763373,"""0""",12.0,7.125,11.8999996185,0.0
1614968307291416883,,92671,,1614896280,338805144,"""0""",12.0,7.0,11.8999996185,0.0
1614968307376820087,,92672,,1614896280,388797800,"""0""",12.0,6.75,11.8999996185,0.0
1614968307409476995,,92673,,1614896280,438799363,"""0""",12.0,3.0,11.8999996185,0.0
1614968307460645914,,92674,,1614896280,488794883,"""0""",12.0,3.375,12.1000003815,0.0
1614968307501164913,,92675,,1614896280,538873217,"""0""",12.0,5.125,12.1000003815,0.0
1614968307548559904,,92676,,1614896280,588772540,"""0""",12.0,4.125,12.1000003815,0.0
1614968307594113111,,92677,,1614896280,638810873,"""0""",12.0,1.75,12.1999998093,0.0
1614968307645749092,,92678,,1614896280,688819050,"""0""",12.0,1.0,12.1999998093,0.0
1614968307691675901,,92679,,1614896280,738846446,"""0""",12.0,1.0,12.1999998093,0.0
1614968307750714063,,92680,,1614896280,788788008,"""0""",12.0,1.75,12.1999998093,0.0
1614968307797225952,,92681,,1614896280,838888685,"""0""",12.0,1.0,12.1999998093,0.0
1614968307862009048,,92682,,1614896280,888815456,"""0""",12.0,0.375,12.1999998093,0.0
1614968307895800113,,92683,,1614896280,938856758,"""0""",12.0,0.375,12.3000001907,0.0
1614968307949753046,,92684,,1614896280,988893737,"""0""",12.0,0.375,12.3000001907,0.0
1614968308138467073,,92685,,1614896281,38933269,"""0""",12.0,0.375,12.3000001907,0.0
1614968308138613939,,92686,,1614896281,88862383,"""0""",12.0,0.0,12.3000001907,0.0
1614968308138662099,,92687,,1614896281,138806446,"""0""",12.0,0.0,12.3500003815,0.0
1614968308138681888,,92688,,1614896281,188805821,"""0""",12.0,0.0,12.3500003815,0.0
1614968308193155050,,92689,,1614896281,238791966,"""0""",12.0,0.0,12.3500003815,0.0
1614968308292756080,,92690,,1614896281,288777383,"""0""",12.0,0.375,12.3000001907,0.0
1614968308337775945,,92691,,1614896281,338886550,"""0""",12.0,0.625,12.3000001907,0.0
1614968308386234045,,92692,,1614896281,388833893,"""0""",12.0,0.625,12.3000001907,0.0
1614968308427473068,,92693,,1614896281,438806133,"""0""",12.0,1.0,12.25,0.0
1614968308468446969,,92694,,1614896281,488975091,"""0""",12.0,1.0,12.25,0.0
1614968308513959884,,92695,,1614896281,538930664,"""0""",12.0,1.0,12.25,0.0
1614968308590724945,,92696,,1614896281,588795873,"""0""",12.0,1.0,12.25,0.0
1614968308626358985,,92697,,1614896281,638777800,"""0""",12.0,2.0,12.25,0.0
1614968308670474052,,92698,,1614896281,688924050,"""0""",12.0,3.75,12.25,0.0
1614968308710278987,,92699,,1614896281,738836393,"""0""",12.0,3.375,12.1000003815,0.0
1614968308747983932,,92700,,1614896281,788804987,"""0""",12.0,3.375,12.1000003815,0.0
1614968308793498039,,92701,,1614896281,838880039,"""0""",12.0,4.125,12.1000003815,0.0
1614968308863709926,,92702,,1614896281,888832800,"""0""",12.0,4.375,12.1000003815,0.0
1614968308898531913,,92703,,1614896281,938793216,"""0""",12.0,6.125,12.0500001907,0.0
1614968308943002939,,92704,,1614896281,988776966,"""0""",12.0,6.5,12.0500001907,0.0
1614968308991424083,,92705,,1614896282,38868372,"""0""",12.0,6.125,12.0500001907,0.0
1614968309054542064,,92706,,1614896282,88780247,"""0""",11.0,6.125,12.0,0.0
1614968309094340085,,92707,,1614896282,138894674,"""0""",11.0,5.5,12.0,0.0
1614968309148504972,,92708,,1614896282,188803789,"""0""",11.0,5.5,12.0,0.0
1614968309203515052,,92709,,1614896282,240284362,"""0""",11.0,5.125,12.0500001907,0.0
1614968309256571054,,92710,,1614896282,288945247,"""0""",11.0,5.125,12.0500001907,0.0
1614968309302903890,,92711,,1614896282,338794779,"""0""",11.0,4.75,12.0500001907,0.0
1614968309343774080,,92712,,1614896282,388759362,"""0""",11.0,4.375,12.0500001907,0.0
1614968309396198987,,92713,,1614896282,438897487,"""0""",11.0,4.125,12.0500001907,0.0
1614968309452805995,,92714,,1614896282,488782956,"""0""",11.0,3.75,12.0500001907,0.0
1614968309516102075,,92715,,1614896282,538763372,"""0""",11.0,3.0,12.1000003815,0.0
1614968309552771091,,92716,,1614896282,588758633,"""0""",11.0,3.0,12.1000003815,0.0
1614968309616687059,,92717,,1614896282,638797903,"""0""",11.0,3.0,12.1000003815,0.0
1614968309651540994,,92718,,1614896282,688843945,"""0""",11.0,3.0,12.1000003815,0.0
1614968309693753957,,92719,,1614896282,738783633,"""0""",11.0,2.75,12.1000003815,0.0
1614968309745651006,,92720,,1614896282,788814726,"""0""",11.0,2.75,12.1000003815,0.0
1614968309813905954,,92721,,1614896282,839604987,"""0""",11.0,2.75,12.1000003815,0.0
1614968309843991041,,92722,,1614896282,888975455,"""0""",12.0,2.75,12.1499996185,0.0
1614968309898827075,,92723,,1614896282,938786549,"""0""",12.0,2.75,12.1499996185,0.0
1614968310123310089,,92724,,1614896282,988828685,"""0""",12.0,3.0,12.1499996185,0.0
1614968310123650074,,92725,,1614896283,38900403,"""0""",12.0,3.0,12.1000003815,0.0
1614968310123744964,,92726,,1614896283,88777330,"""0""",12.0,2.75,12.1000003815,0.0
1614968310123766899,,92727,,1614896283,138791237,"""0""",12.0,2.75,12.1000003815,0.0
1614968310180915117,,92728,,1614896283,188738789,"""0""",11.0,2.75,12.1000003815,0.0
1614968310226260900,,92729,,1614896283,238861914,"""0""",11.0,2.375,12.1000003815,0.0
1614968310277280092,,92730,,1614896283,288814778,"""0""",11.0,2.0,12.1000003815,0.0
1614968310332397937,,92731,,1614896283,338789830,"""0""",11.0,2.0,12.1499996185,0.0
1614968310370471954,,92732,,1614896283,388787643,"""0""",11.0,2.0,12.1499996185,0.0
1614968310415517091,,92733,,1614896283,438790716,"""0""",11.0,2.0,12.1499996185,0.0
1614968310458853960,,92734,,1614896283,488812539,"""0""",11.0,2.75,12.1499996185,0.0
1614968310526721000,,92735,,1614896283,538943320,"""0""",11.0,2.375,12.1499996185,0.0
1614968310561794042,,92736,,1614896283,588812070,"""0""",11.0,2.75,12.1499996185,0.0
1614968310592081069,,92737,,1614896283,638796653,"""0""",11.0,2.75,12.1499996185,0.0
1614968310666635990,,92738,,1614896283,688759153,"""0""",11.0,2.75,12.1000003815,0.0
1614968310713747024,,92739,,1614896283,738781861,"""0""",11.0,3.0,12.1000003815,0.0
1614968310755244016,,92740,,1614896283,788787799,"""0""",11.0,3.375,12.1000003815,0.0
1614968310793133974,,92741,,1614896283,838849570,"""0""",11.0,3.0,12.1000003815,0.0
1614968310854979038,,92742,,1614896283,888775820,"""0""",11.0,3.0,12.1000003815,0.0
1614968310986102104,,92743,,1614896283,938799465,"""0""",11.0,2.75,12.1000003815,0.0
1614968310986300945,,92744,,1614896283,988842226,"""0""",11.0,2.75,12.1000003815,0.0
1614968311036761045,,92745,,1614896284,38828528,"""0""",11.0,2.375,12.1000003815,0.0
1614968311090342998,,92746,,1614896284,88779257,"""0""",11.0,2.375,12.1000003815,0.0
1614968311134885072,,92747,,1614896284,138766184,"""0""",11.0,2.0,12.1499996185,0.0
1614968311169996976,,92748,,1614896284,188975351,"""0""",11.0,2.0,12.1499996185,0.0
1614968311209853887,,92749,,1614896284,238786601,"""0""",11.0,1.75,12.1499996185,0.0
1614968311261347055,,92750,,1614896284,288784517,"""0""",11.0,2.0,12.1499996185,0.0
1614968311308547973,,92751,,1614896284,338788111,"""0""",11.0,2.75,12.1000003815,0.0
1614968311351727962,,92752,,1614896284,388842017,"""0""",11.0,2.75,12.1000003815,0.0
1614968311395499944,,92753,,1614896284,438938163,"""0""",11.0,2.75,12.1000003815,0.0
1614968311447205066,,92754,,1614896284,488804517,"""0""",11.0,3.0,12.1000003815,0.0
1614968311495259046,,92755,,1614896284,538846184,"""0""",11.0,2.75,12.1000003815,0.0
1614968311565525054,,92756,,1614896284,588774101,"""0""",11.0,2.75,12.1000003815,0.0
1614968311619509935,,92757,,1614896284,638811653,"""0""",11.0,2.75,12.1000003815,0.0
1614968311664900064,,92758,,1614896284,688820351,"""0""",11.0,2.75,12.1000003815,0.0
1614968311721065044,,92759,,1614896284,738784882,"""0""",11.0,2.375,12.1000003815,0.0
1614968311763647079,,92760,,1614896284,788853476,"""0""",12.0,2.0,12.1499996185,0.0
1614968311823255062,,92761,,1614896284,838819673,"""0""",12.0,2.375,12.1499996185,0.0
1614968311875965118,,92762,,1614896284,888889517,"""0""",12.0,2.375,12.1499996185,0.0
1614968311950025081,,92763,,1614896284,938875871,"""0""",11.0,2.75,12.1000003815,0.0
1614968311950191974,,92764,,1614896284,988798840,"""0""",11.0,2.75,12.1000003815,0.0
1614968312003444910,,92765,,1614896285,38791705,"""0""",11.0,2.375,12.1000003815,0.0
1614968312091259002,,92766,,1614896285,88797382,"""0""",11.0,2.375,12.1000003815,0.0
1614968312139853000,,92767,,1614896285,138856757,"""0""",11.0,3.0,12.1000003815,0.0
1614968312204205036,,92768,,1614896285,188828007,"""0""",11.0,3.375,12.1000003815,0.0
1614968312295125007,,92769,,1614896285,238840767,"""0""",11.0,3.0,12.1000003815,0.0
1614968312295249938,,92770,,1614896285,288913111,"""0""",11.0,3.0,12.1000003815,0.0
1614968312366208076,,92771,,1614896285,338782798,"""0""",11.0,2.75,12.1000003815,0.0
1614968312366403102,,92772,,1614896285,388808215,"""0""",11.0,2.75,12.1000003815,0.0
1614968312409099102,,92773,,1614896285,438843632,"""0""",11.0,2.375,12.1000003815,0.0
1614968312468317031,,92774,,1614896285,488800038,"""0""",11.0,2.375,12.1000003815,0.0
1614968312526840925,,92775,,1614896285,538799465,"""0""",11.0,2.75,12.1000003815,0.0
1614968312587918043,,92776,,1614896285,588848163,"""0""",11.0,2.75,12.1000003815,0.0
1614968312676840066,,92777,,1614896285,638798996,"""0""",11.0,2.375,12.1000003815,0.0
1614968312676974058,,92778,,1614896285,688802746,"""0""",11.0,2.0,12.1000003815,0.0
1614968312755189895,,92779,,1614896285,738836027,"""0""",11.0,2.375,12.1000003815,0.0
1614968312829515933,,92780,,1614896285,788797850,"""0""",11.0,2.75,12.1000003815,0.0
1614968312829680919,,92781,,1614896285,838785194,"""0""",11.0,3.0,12.1000003815,0.0
1614968312891362905,,92782,,1614896285,888938944,"""0""",11.0,2.75,12.1000003815,0.0
1614968312977282047,,92783,,1614896285,938778371,"""0""",11.0,2.75,12.1000003815,0.0
1614968313028321981,,92784,,1614896285,988901808,"""0""",11.0,2.75,12.1000003815,0.0
1614968313028351068,,92785,,1614896286,38914569,"""0""",11.0,2.75,12.1000003815,0.0
1614968313113775014,,92786,,1614896286,88854569,"""0""",11.0,2.375,12.1000003815,0.0
1614968313113889932,,92787,,1614896286,138780298,"""0""",11.0,2.375,12.1000003815,0.0
1614968313173969984,,92788,,1614896286,188827433,"""0""",11.0,2.375,12.1000003815,0.0
1614968313211026906,,92789,,1614896286,238764829,"""0""",11.0,2.375,12.1000003815,0.0
1614968313253657102,,92790,,1614896286,288786235,"""0""",11.0,2.375,12.1000003815,0.0
1614968313307352066,,92791,,1614896286,338768006,"""0""",11.0,2.375,12.1000003815,0.0
1614968313375294923,,92792,,1614896286,388787173,"""0""",11.0,2.0,12.1499996185,0.0
1614968313429655075,,92793,,1614896286,438830089,"""0""",11.0,1.75,12.1499996185,0.0
1614968313483647108,,92794,,1614896286,488850714,"""0""",11.0,1.75,12.1499996185,0.0
1614968313551065921,,92795,,1614896286,538759881,"""0""",12.0,2.0,12.1499996185,0.0
1614968313596060037,,92796,,1614896286,588852121,"""0""",12.0,1.75,12.1499996185,0.0
1614968313671010971,,92797,,1614896286,638839412,"""0""",12.0,1.375,12.1499996185,0.0
1614968313715715885,,92798,,1614896286,688871548,"""0""",12.0,1.0,12.1499996185,0.0
1614968313715826034,,92799,,1614896286,738833683,"""0""",11.0,0.625,12.25,0.0
1614968313827708005,,92800,,1614896286,788791235,"""0""",11.0,0.375,12.25,0.0
1614968313827748060,,92801,,1614896286,838761496,"""0""",11.0,0.0,12.25,0.0
1614968313874317884,,92802,,1614896286,888786548,"""0""",11.0,0.375,12.3000001907,0.0
1614968313943865060,,92803,,1614896286,938953371,"""0""",11.0,0.625,12.3000001907,0.0
1614968313998229980,,92804,,1614896286,988885558,"""0""",11.0,0.375,12.3000001907,0.0
1614968314041985988,,92805,,1614896287,38791287,"""0""",11.0,0.375,12.25,0.0
1614968314097985029,,92806,,1614896287,88873943,"""0""",11.0,0.625,12.25,0.0
1614968314154933929,,92807,,1614896287,138790298,"""0""",11.0,0.625,12.25,0.0
1614968314418401956,,92808,,1614896287,188779412,"""0""",11.0,1.0,12.1999998093,0.0
1614968314418548107,,92809,,1614896287,238780245,"""0""",11.0,1.75,12.1999998093,0.0
1614968314418569087,,92810,,1614896287,288981339,"""0""",11.0,1.375,12.1999998093,0.0
1614968314418591976,,92811,,1614896287,338840245,"""0""",11.0,2.75,12.1000003815,0.0
1614968314418643951,,92812,,1614896287,388838527,"""0""",11.0,3.75,12.1000003815,0.0
1614968314418659925,,92813,,1614896287,438868110,"""0""",11.0,2.375,12.1000003815,0.0
1614968314457525968,,92814,,1614896287,488801495,"""0""",11.0,2.0,12.1000003815,0.0
1614968314508635044,,92815,,1614896287,538814204,"""0""",11.0,2.0,12.1000003815,0.0
1614968314574431896,,92816,,1614896287,588862589,"""0""",11.0,1.75,12.1000003815,0.0
1614968314656407117,,92817,,1614896287,638781287,"""0""",11.0,1.0,12.1000003815,0.0
1614968314711355924,,92818,,1614896287,688787224,"""0""",11.0,1.0,12.1999998093,0.0
1614968314711874961,,92819,,1614896287,738753631,"""0""",11.0,1.0,12.1999998093,0.0
1614968314753221988,,92820,,1614896287,788876079,"""0""",11.0,1.375,12.1999998093,0.0
1614968314806771039,,92821,,1614896287,838875089,"""0""",11.0,1.75,12.1999998093,0.0
1614968314861520051,,92822,,1614896287,889339568,"""0""",11.0,1.375,12.1999998093,0.0
1614968314927850961,,92823,,1614896287,938781547,"""0""",11.0,1.0,12.1999998093,0.0
1614968314982338905,,92824,,1614896287,989528683,"""0""",11.0,1.0,12.1999998093,0.0
1614968315026735067,,92825,,1614896288,38951860,"""0""",11.0,1.375,12.1999998093,0.0
1614968315076313972,,92826,,1614896288,89478631,"""0""",11.0,2.0,12.1999998093,0.0
1614968315153386116,,92827,,1614896288,138848683,"""0""",11.0,2.0,12.1499996185,0.0
1614968315212421894,,92828,,1614896288,188785870,"""0""",11.0,1.375,12.1499996185,0.0
1614968315212526082,,92829,,1614896288,238813735,"""0""",11.0,1.75,12.1499996185,0.0
1614968315266396999,,92830,,1614896288,288800401,"""0""",11.0,2.375,12.1499996185,0.0
1614968315317318916,,92831,,1614896288,338775193,"""0""",11.0,1.75,12.1000003815,0.0
1614968315408019065,,92832,,1614896288,389913839,"""0""",11.0,1.0,12.1000003815,0.0
1614968315475858926,,92833,,1614896288,438775662,"""0""",11.0,1.0,12.1000003815,0.0
1614968315475991010,,92834,,1614896288,488842849,"""0""",11.0,1.375,12.1999998093,0.0
1614968315535636901,,92835,,1614896288,538778370,"""0""",11.0,1.0,12.1999998093,0.0
1614968315610686063,,92836,,1614896288,588782328,"""0""",11.0,1.375,12.1999998093,0.0
1614968315610836982,,92837,,1614896288,638885089,"""0""",11.0,3.0,12.1000003815,0.0
1614968315653960943,,92838,,1614896288,688877276,"""0""",11.0,3.0,12.1000003815,0.0
1614968315710632085,,92839,,1614896288,738954984,"""0""",11.0,2.0,12.1000003815,0.0
1614968315760835886,,92840,,1614896288,788849984,"""0""",11.0,2.375,12.1000003815,0.0
1614968315850812911,,92841,,1614896288,838771859,"""0""",11.0,2.0,12.1000003815,0.0
1614968315947191953,,92842,,1614896288,888842641,"""0""",11.0,2.0,12.1000003815,0.0
1614968315947339057,,92843,,1614896288,938768630,"""0""",11.0,3.375,12.0500001907,0.0
1614968315986438989,,92844,,1614896288,988810245,"""0""",11.0,3.375,12.0500001907,0.0
1614968316048783063,,92845,,1614896289,38822797,"""0""",11.0,1.75,12.0500001907,0.0
1614968316142688989,,92846,,1614896289,88937588,"""0""",11.0,1.375,12.0500001907,0.0
1614968316142965078,,92847,,1614896289,138786130,"""0""",11.0,1.75,12.1999998093,0.0
1614968316192873954,,92848,,1614896289,188837953,"""0""",11.0,1.75,12.1999998093,0.0
1614968316241422891,,92849,,1614896289,238792693,"""0""",11.0,1.375,12.1999998093,0.0
1614968316316308975,,92850,,1614896289,288911234,"""0""",11.0,2.0,12.1000003815,0.0
1614968316316412925,,92851,,1614896289,338967432,"""0""",11.0,1.75,12.1000003815,0.0
1614968316381525993,,92852,,1614896289,388792068,"""0""",11.0,1.375,12.1000003815,0.0
1614968316446321964,,92853,,1614896289,438776911,"""0""",11.0,1.375,12.1999998093,0.0
1614968316524848937,,92854,,1614896289,488792953,"""0""",11.0,1.375,12.1999998093,0.0
1614968316525073051,,92855,,1614896289,538778474,"""0""",11.0,6.75,12.1999998093,0.0
1614968316563189029,,92856,,1614896289,588787901,"""0""",11.0,6.875,12.0,0.0
1614968316638988018,,92857,,1614896289,638781442,"""0""",11.0,5.5,12.0,0.0
1614968316693521976,,92858,,1614896289,688826390,"""0""",11.0,6.75,12.0,0.0
1614968316742374897,,92859,,1614896289,738845765,"""0""",11.0,7.125,12.0,0.0
1614968316833118915,,92860,,1614896289,788864619,"""0""",11.0,6.875,12.0,0.0
1614968316833234071,,92861,,1614896289,838764463,"""0""",11.0,7.25,12.0,0.0
1614968316891094923,,92862,,1614896289,888776651,"""0""",11.0,7.625,12.0,0.0
1614968316951674938,,92863,,1614896289,938786390,"""0""",11.0,7.5,11.8500003815,0.0
1614968317007129907,,92864,,1614896289,988794515,"""0""",11.0,7.375,11.8500003815,0.0
1614968317007242918,,92865,,1614896290,38887484,"""0""",11.0,7.25,11.8500003815,0.0
1614968317081176042,,92866,,1614896290,88782901,"""0""",11.0,7.5,11.8500003815,0.0
1614968317119616985,,92867,,1614896290,138788578,"""0""",11.0,7.625,11.8500003815,0.0
1614968317171122074,,92868,,1614896290,188914307,"""0""",11.0,7.5,11.8500003815,0.0
1614968317214960098,,92869,,1614896290,238785661,"""0""",11.0,7.25,11.8999996185,0.0
1614968317300517082,,92870,,1614896290,288948369,"""0""",11.0,7.5,11.8999996185,0.0
1614968317300621986,,92871,,1614896290,338793838,"""0""",11.0,7.75,11.8999996185,0.0
1614968317346376895,,92872,,1614896290,388789411,"""0""",11.0,7.625,11.8500003815,0.0
1614968317395062923,,92873,,1614896290,438800453,"""0""",11.0,7.5,11.8500003815,0.0
1614968317446440935,,92874,,1614896290,488785609,"""0""",11.0,7.625,11.8500003815,0.0
1614968317499985933,,92875,,1614896290,538765244,"""0""",11.0,7.375,11.8999996185,0.0
1614968317556829929,,92876,,1614896290,588790661,"""0""",11.0,7.0,11.8999996185,0.0
1614968317600171089,,92877,,1614896290,638928161,"""0""",11.0,3.375,11.8999996185,0.0
1614968317652795076,,92878,,1614896290,688817952,"""0""",11.0,1.375,11.8999996185,0.0
1614968317696266889,,92879,,1614896290,738791859,"""0""",11.0,12.25,12.0,0.0
1614968317749685049,,92880,,1614896290,789203734,"""0""",11.0,14.125,12.0,0.0
1614968317802895069,,92881,,1614896290,838850452,"""0""",11.0,5.75,12.0,0.0
1614968317882433891,,92882,,1614896290,888775921,"""0""",11.0,1.375,12.1499996185,0.0
1614968317936321973,,92883,,1614896290,938754984,"""0""",11.0,0.375,12.1499996185,0.0
1614968317994268894,,92884,,1614896290,988873629,"""0""",11.0,0.0,12.1499996185,0.0
1614968318045190095,,92885,,1614896291,38789723,"""0""",11.0,0.375,12.25,0.0
1614968318109952926,,92886,,1614896291,88883681,"""0""",11.0,0.625,12.25,0.0
1614968318110282897,,92887,,1614896291,138759411,"""0""",11.0,0.0,12.25,0.0
1614968318153553009,,92888,,1614896291,189122171,"""0""",11.0,0.0,12.3500003815,0.0
1614968318204962968,,92889,,1614896291,238781963,"""0""",11.0,0.0,12.3500003815,0.0
1614968318253329992,,92890,,1614896291,288816754,"""0""",11.0,0.0,12.3500003815,0.0
1614968318298908948,,92891,,1614896291,338812431,"""0""",11.0,0.0,12.3500003815,0.0
1614968318361685037,,92892,,1614896291,388800296,"""0""",11.0,0.0,12.3500003815,0.0
1614968318487802982,,92893,,1614896291,438780296,"""0""",11.0,0.0,12.3500003815,0.0
1614968318487958908,,92894,,1614896291,488813629,"""0""",11.0,0.0,12.3500003815,0.0
1614968318533660888,,92895,,1614896291,538903681,"""0""",11.0,0.0,12.3500003815,0.0
1614968318601835966,,92896,,1614896291,588750869,"""0""",11.0,0.0,12.3500003815,0.0
1614968318602067947,,92897,,1614896291,638914827,"""0""",11.0,0.0,12.3500003815,0.0
1614968318649168968,,92898,,1614896291,688864254,"""0""",11.0,0.0,12.3000001907,0.0
1614968318725322961,,92899,,1614896291,738793056,"""0""",11.0,0.0,12.3000001907,0.0
1614968318816303014,,92900,,1614896291,788781442,"""0""",11.0,0.0,12.3000001907,0.0
1614968318816435098,,92901,,1614896291,838925556,"""0""",11.0,0.375,12.3000001907,0.0
1614968318865144968,,92902,,1614896291,888834931,"""0""",11.0,0.625,12.3000001907,0.0
1614968318908551931,,92903,,1614896291,938874098,"""0""",11.0,1.0,12.3000001907,0.0
1614968318953027009,,92904,,1614896291,988783577,"""0""",11.0,1.375,12.1499996185,0.0
1614968319010822057,,92905,,1614896292,38944358,"""0""",11.0,2.375,12.1499996185,0.0
1614968319074316024,,92906,,1614896292,88778889,"""0""",11.0,2.0,12.1499996185,0.0
1614968319182235002,,92907,,1614896292,138888369,"""0""",11.0,1.0,12.1999998093,0.0
1614968319182338953,,92908,,1614896292,188856858,"""0""",11.0,2.0,12.1999998093,0.0
1614968319247157096,,92909,,1614896292,238830608,"""0""",11.0,2.75,12.1999998093,0.0
1614968319247296094,,92910,,1614896292,288783525,"""0""",11.0,2.375,12.1999998093,0.0
1614968319306329965,,92911,,1614896292,338920348,"""0""",11.0,3.375,12.0500001907,0.0
1614968319371126890,,92912,,1614896292,388840504,"""0""",11.0,2.75,12.0500001907,0.0
1614968319427068948,,92913,,1614896292,438806598,"""0""",11.0,3.0,12.0500001907,0.0
1614968319474385976,,92914,,1614896292,488822587,"""0""",11.0,4.125,12.0500001907,0.0
1614968319519804954,,92915,,1614896292,538895608,"""0""",11.0,3.75,12.0500001907,0.0
1614968319565833091,,92916,,1614896292,588805660,"""0""",11.0,4.375,12.0500001907,0.0
1614968319619630098,,92917,,1614896292,638901650,"""0""",11.0,5.75,12.0,0.0
1614968319718450069,,92918,,1614896292,688816025,"""0""",11.0,6.5,12.0,0.0
1614968319718564033,,92919,,1614896292,738928733,"""0""",11.0,6.75,12.0,0.0
1614968319751014947,,92920,,1614896292,788777118,"""0""",11.0,6.5,12.0,0.0
1614968319803144931,,92921,,1614896292,838800764,"""0""",11.0,6.125,12.0,0.0
1614968319855639934,,92922,,1614896292,888791493,"""0""",11.0,5.75,12.0,0.0
1614968319903289079,,92923,,1614896292,939921597,"""0""",11.0,5.5,12.0,0.0
1614968319997349977,,92924,,1614896292,988818472,"""0""",11.0,5.5,12.0,0.0
1614968320076452016,,92925,,1614896293,38801649,"""0""",11.0,5.125,12.0,0.0
1614968320076716899,,92926,,1614896293,88838004,"""0""",11.0,4.75,12.0,0.0
1614968320142607927,,92927,,1614896293,138810868,"""0""",11.0,4.375,12.0500001907,0.0
1614968320178787946,,92928,,1614896293,188950660,"""0""",11.0,4.125,12.0500001907,0.0
1614968320255594015,,92929,,1614896293,238882170,"""0""",11.0,4.125,12.0500001907,0.0
1614968320300287961,,92930,,1614896293,288791389,"""0""",11.0,3.75,12.0500001907,0.0
1614968320375283956,,92931,,1614896293,338845451,"""0""",11.0,2.75,12.0500001907,0.0
1614968320375400066,,92932,,1614896293,388775660,"""0""",11.0,2.75,12.0500001907,0.0
1614968320449150085,,92933,,1614896293,438808108,"""0""",11.0,3.0,12.0500001907,0.0
1614968320481148958,,92934,,1614896293,488823941,"""0""",11.0,3.0,12.0500001907,0.0
1614968320522635936,,92935,,1614896293,538803681,"""0""",11.0,3.0,12.0500001907,0.0
1614968320579124927,,92936,,1614896293,588773628,"""0""",11.0,3.0,12.0500001907,0.0
1614968320622510910,,92937,,1614896293,638900660,"""0""",11.0,3.0,12.0500001907,0.0
1614968320665523052,,92938,,1614896293,688772326,"""0""",11.0,3.0,12.0500001907,0.0
1614968320712460041,,92939,,1614896293,738798108,"""0""",11.0,3.0,12.1000003815,0.0
1614968320764584064,,92940,,1614896293,788775035,"""0""",11.0,3.0,12.1000003815,0.0
1614968320859154939,,92941,,1614896293,838884201,"""0""",11.0,3.0,12.1000003815,0.0
1614968320914422988,,92942,,1614896293,888773576,"""0""",11.0,3.0,12.1000003815,0.0
1614968320914535045,,92943,,1614896293,938903576,"""0""",11.0,2.375,12.1000003815,0.0
1614968320958614110,,92944,,1614896293,988765555,"""0""",11.0,2.375,12.1000003815,0.0
1614968321019954919,,92945,,1614896294,38841441,"""0""",11.0,2.375,12.1000003815,0.0
1614968321075474977,,92946,,1614896294,88887274,"""0""",11.0,2.75,12.1000003815,0.0
1614968321140125989,,92947,,1614896294,138907587,"""0""",11.0,3.375,12.1000003815,0.0
1614968321192455053,,92948,,1614896294,188815034,"""0""",11.0,3.0,12.1000003815,0.0
1614968321235305070,,92949,,1614896294,238796805,"""0""",11.0,2.75,12.1000003815,0.0
1614968321290378093,,92950,,1614896294,288881857,"""0""",11.0,2.75,12.1000003815,0.0
1614968321355458021,,92951,,1614896294,338807534,"""0""",11.0,3.0,12.1000003815,0.0
1614968321408118963,,92952,,1614896294,388780920,"""0""",11.0,3.375,12.0500001907,0.0
1614968321408222913,,92953,,1614896294,438797482,"""0""",11.0,3.375,12.0500001907,0.0
1614968321499527931,,92954,,1614896294,488783524,"""0""",11.0,3.0,12.0500001907,0.0
1614968321552890062,,92955,,1614896294,538819930,"""0""",11.0,2.75,12.1000003815,0.0
1614968321597039937,,92956,,1614896294,588809513,"""0""",11.0,2.375,12.1000003815,0.0
1614968321687436103,,92957,,1614896294,638919618,"""0""",11.0,2.375,12.1000003815,0.0
1614968321687685012,,92958,,1614896294,688835190,"""0""",11.0,2.375,12.1000003815,0.0
1614968321736849069,,92959,,1614896294,738866440,"""0""",11.0,1.75,12.1000003815,0.0
1614968321805953979,,92960,,1614896294,788803524,"""0""",11.0,1.75,12.1000003815,0.0
1614968321867818117,,92961,,1614896294,838792326,"""0""",11.0,1.375,12.1000003815,0.0
1614968321868181943,,92962,,1614896294,888767326,"""0""",11.0,1.375,12.1499996185,0.0
1614968321916549921,,92963,,1614896294,938801649,"""0""",11.0,1.375,12.1499996185,0.0
1614968321960153102,,92964,,1614896294,988759305,"""0""",11.0,1.75,12.1499996185,0.0
1614968321999839067,,92965,,1614896295,38802951,"""0""",11.0,1.75,12.1499996185,0.0
1614968322098680019,,92966,,1614896295,88842586,"""0""",11.0,1.75,12.1499996185,0.0
1614968322134911060,,92967,,1614896295,138978003,"""0""",11.0,1.75,12.1499996185,0.0
1614968322205543041,,92968,,1614896295,188945972,"""0""",11.0,1.375,12.1499996185,0.0
1614968322205719947,,92969,,1614896295,238931805,"""0""",11.0,1.375,12.1499996185,0.0
1614968322256819963,,92970,,1614896295,288771128,"""0""",11.0,1.75,12.1499996185,0.0
1614968322309693098,,92971,,1614896295,338776492,"""0""",11.0,2.375,12.1000003815,0.0
1614968322457135915,,92972,,1614896295,388907013,"""0""",11.0,2.375,12.1000003815,0.0
1614968322457241058,,92973,,1614896295,438780294,"""0""",11.0,1.375,12.1000003815,0.0
1614968322457272052,,92974,,1614896295,488760971,"""0""",11.0,1.0,12.1000003815,0.0
1614968322498785018,,92975,,1614896295,538834461,"""0""",11.0,1.0,12.1999998093,0.0
1614968322546996116,,92976,,1614896295,588822898,"""0""",11.0,0.625,12.1999998093,0.0
1614968322599704027,,92977,,1614896295,638960190,"""0""",11.0,0.625,12.1999998093,0.0
1614968322693409919,,92978,,1614896295,688758055,"""0""",11.0,1.0,12.1999998093,0.0
1614968322728192090,,92979,,1614896295,738803836,"""0""",11.0,1.375,12.1999998093,0.0
1614968322766875028,,92980,,1614896295,788841596,"""0""",11.0,1.0,12.1999998093,0.0
1614968322798255920,,92981,,1614896295,838775398,"""0""",11.0,0.125,12.3000001907,0.0
1614968322840132951,,92982,,1614896295,888786232,"""0""",11.0,0.0,12.3000001907,0.0
1614968322900007963,,92983,,1614896295,938799982,"""0""",11.0,0.0,12.3000001907,0.0
1614968322969069004,,92984,,1614896295,988789565,"""0""",11.0,0.0,12.3500003815,0.0
1614968323004702091,,92985,,1614896296,38762794,"""0""",11.0,0.0,12.3500003815,0.0
1614968323049329042,,92986,,1614896296,88786700,"""0""",11.0,0.0,12.3500003815,0.0
1614968323091130971,,92987,,1614896296,138766700,"""0""",11.0,0.0,12.3500003815,0.0
1614968323148305892,,92988,,1614896296,188820659,"""0""",11.0,0.0,12.3500003815,0.0
1614968323203885078,,92989,,1614896296,238786023,"""0""",11.0,0.0,12.3500003815,0.0
1614968323296505928,,92990,,1614896296,288767690,"""0""",11.0,0.0,12.3500003815,0.0
1614968323296652078,,92991,,1614896296,338806440,"""0""",11.0,0.0,12.3500003815,0.0
1614968323345894098,,92992,,1614896296,388784148,"""0""",11.0,0.0,12.3500003815,0.0
1614968323396404981,,92993,,1614896296,438812586,"""0""",11.0,0.0,12.3500003815,0.0
1614968323443104028,,92994,,1614896296,488765294,"""0""",11.0,0.0,12.3500003815,0.0
1614968323506529092,,92995,,1614896296,538838159,"""0""",11.0,0.0,12.3500003815,0.0
1614968323579287052,,92996,,1614896296,588830398,"""0""",11.0,0.0,12.3500003815,0.0
1614968323648247957,,92997,,1614896296,638825658,"""0""",11.0,0.0,12.3500003815,0.0
1614968323648367881,,92998,,1614896296,689495450,"""0""",11.0,0.0,12.3500003815,0.0
1614968323694570064,,92999,,1614896296,738791700,"""0""",11.0,0.0,12.3500003815,0.0
1614968323750411987,,93000,,1614896296,788774461,"""0""",11.0,0.0,12.3500003815,0.0
1614968323798916101,,93001,,1614896296,838872221,"""0""",11.0,0.0,12.3500003815,0.0
1614968323846920013,,93002,,1614896296,888967638,"""0""",11.0,0.0,12.3500003815,0.0
1614968323897663116,,93003,,1614896296,938764200,"""0""",11.0,0.0,12.3500003815,0.0
1614968323949183940,,93004,,1614896296,988816492,"""0""",11.0,0.0,12.3500003815,0.0
1614968323995732069,,93005,,1614896297,38770190,"""0""",11.0,0.0,12.3500003815,0.0
1614968324046487092,,93006,,1614896297,88909929,"""0""",11.0,0.0,12.3500003815,0.0
1614968324107397079,,93007,,1614896297,138786908,"""0""",12.0,0.0,12.3500003815,0.0
1614968324159812927,,93008,,1614896297,188838940,"""0""",12.0,0.0,12.3500003815,0.0
1614968324208241939,,93009,,1614896297,238793106,"""0""",12.0,0.0,12.3500003815,0.0
1614968324248538017,,93010,,1614896297,288793002,"""0""",11.0,0.0,12.3500003815,0.0
1614968324302455902,,93011,,1614896297,338788731,"""0""",11.0,0.0,12.3500003815,0.0
1614968324350003957,,93012,,1614896297,388792273,"""0""",11.0,0.0,12.3500003815,0.0
1614968324393431901,,93013,,1614896297,438836439,"""0""",12.0,0.0,12.3500003815,0.0
1614968324451997041,,93014,,1614896297,488852481,"""0""",12.0,0.0,12.3500003815,0.0
1614968324500900030,,93015,,1614896297,538795658,"""0""",12.0,0.0,12.3500003815,0.0
1614968324554229021,,93016,,1614896297,588902637,"""0""",12.0,0.0,12.3500003815,0.0
1614968324611526012,,93017,,1614896297,638786804,"""0""",12.0,0.0,12.3500003815,0.0
1614968324658471107,,93018,,1614896297,688815398,"""0""",12.0,0.0,12.3500003815,0.0
1614968324703902006,,93019,,1614896297,738762429,"""0""",12.0,0.0,12.3500003815,0.0
1614968324753333091,,93020,,1614896297,788791596,"""0""",12.0,0.0,12.3500003815,0.0
1614968324799963951,,93021,,1614896297,839139668,"""0""",12.0,0.0,12.3500003815,0.0
1614968324849394083,,93022,,1614896297,888787950,"""0""",12.0,0.0,12.3500003815,0.0
1614968324897176980,,93023,,1614896297,938766283,"""0""",12.0,0.0,12.3500003815,0.0
1614968324955086946,,93024,,1614896297,988815710,"""0""",12.0,0.0,12.3500003815,0.0
1614968325075007915,,93025,,1614896298,38802637,"""0""",12.0,0.0,12.3500003815,0.0
1614968325075125932,,93026,,1614896298,88789773,"""0""",12.0,0.0,12.3500003815,0.0
1614968325107319116,,93027,,1614896298,138860450,"""0""",12.0,0.0,12.3500003815,0.0
1614968325151051044,,93028,,1614896298,188804408,"""0""",12.0,0.0,12.3500003815,0.0
1614968325202439069,,93029,,1614896298,238809252,"""0""",12.0,0.0,12.3500003815,0.0
1614968325247185945,,93030,,1614896298,288824460,"""0""",12.0,0.0,12.3500003815,0.0
1614968325301230907,,93031,,1614896298,338786387,"""0""",12.0,0.0,12.3500003815,0.0
1614968325374937057,,93032,,1614896298,388821856,"""0""",12.0,0.0,12.3500003815,0.0
1614968325412714004,,93033,,1614896298,438902533,"""0""",12.0,0.0,12.3500003815,0.0
1614968325456592082,,93034,,1614896298,488833835,"""0""",12.0,0.0,12.3500003815,0.0
1614968325495743989,,93035,,1614896298,538823679,"""0""",12.0,0.0,12.3500003815,0.0
1614968325562655925,,93036,,1614896298,589422324,"""0""",12.0,0.0,12.3500003815,0.0
1614968325632272005,,93037,,1614896298,638886856,"""0""",12.0,0.0,12.3500003815,0.0
1614968325691857099,,93038,,1614896298,688939876,"""0""",12.0,0.0,12.3500003815,0.0
1614968325723969936,,93039,,1614896298,738909512,"""0""",12.0,0.0,12.3500003815,0.0
1614968325787828922,,93040,,1614896298,788850241,"""0""",12.0,0.0,12.3500003815,0.0
1614968325833611965,,93041,,1614896298,838918626,"""0""",12.0,0.0,12.3500003815,0.0
1614968325884881019,,93042,,1614896298,888843939,"""0""",12.0,0.0,12.3500003815,0.0
1614968325939130067,,93043,,1614896298,938790606,"""0""",12.0,0.0,12.3500003815,0.0
1614968325993865966,,93044,,1614896298,988780501,"""0""",12.0,0.0,12.3500003815,0.0
1614968326038448095,,93045,,1614896299,38849720,"""0""",12.0,0.0,12.3500003815,0.0
1614968326079729080,,93046,,1614896299,88785189,"""0""",12.0,0.0,12.3500003815,0.0
1614968326134073019,,93047,,1614896299,138822480,"""0""",12.0,0.0,12.3500003815,0.0
1614968326178872108,,93048,,1614896299,188837428,"""0""",12.0,0.0,12.3500003815,0.0
1614968326270948886,,93049,,1614896299,238778210,"""0""",12.0,0.0,12.3500003815,0.0
1614968326271054029,,93050,,1614896299,288821543,"""0""",12.0,0.0,12.3500003815,0.0
1614968326313034057,,93051,,1614896299,338819355,"""0""",12.0,0.0,12.3500003815,0.0
1614968326353169918,,93052,,1614896299,388837324,"""0""",12.0,0.0,12.3500003815,0.0
1614968326403131961,,93053,,1614896299,438774199,"""0""",12.0,0.0,12.3500003815,0.0
1614968326449275970,,93054,,1614896299,488783991,"""0""",12.0,0.0,12.3500003815,0.0
1614968326512788057,,93055,,1614896299,538792689,"""0""",12.0,0.0,12.3500003815,0.0
1614968326590490102,,93056,,1614896299,588791959,"""0""",12.0,0.0,12.3500003815,0.0
1614968326620424032,,93057,,1614896299,638785657,"""0""",12.0,0.0,12.3500003815,0.0
1614968326662998914,,93058,,1614896299,688920032,"""0""",12.0,0.0,12.3500003815,0.0
1614968326724767923,,93059,,1614896299,738831855,"""0""",12.0,0.0,12.3500003815,0.0
1614968326766635894,,93060,,1614896299,788809303,"""0""",12.0,0.0,12.3500003815,0.0
1614968326810771942,,93061,,1614896299,838848418,"""0""",12.0,0.0,12.3500003815,0.0
1614968326905580043,,93062,,1614896299,889573626,"""0""",12.0,0.0,12.3500003815,0.0
1614968326905740022,,93063,,1614896299,938790605,"""0""",12.0,0.0,12.3500003815,0.0
1614968326949816942,,93064,,1614896299,988850813,"""0""",12.0,0.0,12.3500003815,0.0
1614968327003443002,,93065,,1614896300,38829824,"""0""",12.0,0.0,12.3500003815,0.0
1614968327059226989,,93066,,1614896300,88844824,"""0""",12.0,0.0,12.3500003815,0.0
1614968327117037057,,93067,,1614896300,138757376,"""0""",12.0,0.0,12.3500003815,0.0
1614968327181874990,,93068,,1614896300,189107740,"""0""",12.0,0.0,12.3500003815,0.0
1614968327228266000,,93069,,1614896300,238807532,"""0""",12.0,0.0,12.3500003815,0.0
1614968327273510932,,93070,,1614896300,289127115,"""0""",12.0,0.0,12.3500003815,0.0
1614968327324939966,,93071,,1614896300,338787845,"""0""",12.0,0.0,12.3500003815,0.0
1614968327401206970,,93072,,1614896300,390097532,"""0""",12.0,0.0,12.3500003815,0.0
1614968327435729026,,93073,,1614896300,438820188,"""0""",12.0,0.0,12.3500003815,0.0
1614968327490420103,,93074,,1614896300,490107845,"""0""",12.0,0.0,12.3500003815,0.0
1614968327530661106,,93075,,1614896300,538777220,"""0""",12.0,0.0,12.3500003815,0.0
1614968327582901954,,93076,,1614896300,589137219,"""0""",12.0,0.0,12.3500003815,0.0
1614968327635092973,,93077,,1614896300,638774719,"""0""",12.0,0.0,12.3500003815,0.0
1614968327669593095,,93078,,1614896300,689274251,"""0""",12.0,0.0,12.3500003815,0.0
1614968327727627038,,93079,,1614896300,738745709,"""0""",12.0,0.0,12.3500003815,0.0
1614968327791785001,,93080,,1614896300,789260553,"""0""",12.0,0.0,12.3500003815,0.0
1614968327827899932,,93081,,1614896300,838781959,"""0""",12.0,0.0,12.3500003815,0.0
1614968327887438058,,93082,,1614896300,889022792,"""0""",12.0,0.0,12.3500003815,0.0
1614968327928117990,,93083,,1614896300,938781386,"""0""",12.0,0.0,12.3500003815,0.0
1614968327986665964,,93084,,1614896300,988850188,"""0""",12.0,0.0,12.3500003815,0.0
