rosbagTimestamp,header,seq,stamp,secs,nsecs,frame_id,Temperature,OutputCurrent,BusVoltage,ClosedLoopError
1614967118095168113,,68888,,1614895091,188807004,"""0""",13.0,0.0,12.3999996185,0.0
1614967118154788017,,68889,,1614895091,238777941,"""0""",13.0,0.0,12.3999996185,0.0
1614967118194592952,,68890,,1614895091,288798931,"""0""",13.0,0.0,12.3999996185,0.0
1614967118251353979,,68891,,1614895091,338809243,"""0""",13.0,0.0,12.3999996185,0.0
1614967118295584917,,68892,,1614895091,388820285,"""0""",13.0,0.0,12.3999996185,0.0
1614967118357419967,,68893,,1614895091,438803254,"""0""",13.0,0.0,12.3999996185,0.0
1614967118398261070,,68894,,1614895091,488920181,"""0""",13.0,0.0,12.3999996185,0.0
1614967118455598115,,68895,,1614895091,538770806,"""0""",13.0,0.0,12.3999996185,0.0
1614967118494832038,,68896,,1614895091,588798149,"""0""",13.0,0.0,12.3999996185,0.0
1614967118556922912,,68897,,1614895091,638756587,"""0""",13.0,0.0,12.3999996185,0.0
1614967118604852914,,68898,,1614895091,688775441,"""0""",13.0,0.0,12.3999996185,0.0
1614967118664639949,,68899,,1614895091,738771639,"""0""",13.0,0.0,12.3999996185,0.0
1614967118701581954,,68900,,1614895091,788866587,"""0""",13.0,0.0,12.3999996185,0.0
1614967118768925905,,68901,,1614895091,838796847,"""0""",13.0,0.0,12.3999996185,0.0
1614967118803189992,,68902,,1614895091,888864139,"""0""",13.0,0.0,12.3999996185,0.0
1614967118859282016,,68903,,1614895091,938766847,"""0""",13.0,0.0,12.3999996185,0.0
1614967118898050069,,68904,,1614895091,988791274,"""0""",13.0,0.0,12.3999996185,0.0
1614967118966444015,,68905,,1614895092,38788826,"""0""",13.0,0.0,12.3999996185,0.0
1614967119009146928,,68906,,1614895092,88794764,"""0""",13.0,0.0,12.3999996185,0.0
1614967119061062097,,68907,,1614895092,138771170,"""0""",13.0,0.0,12.3999996185,0.0
1614967119109371900,,68908,,1614895092,188847160,"""0""",13.0,0.0,12.3999996185,0.0
1614967119157336950,,68909,,1614895092,238830389,"""0""",13.0,0.0,12.3999996185,0.0
1614967119215692996,,68910,,1614895092,288788097,"""0""",13.0,0.0,12.3999996185,0.0
1614967119260270118,,68911,,1614895092,338777941,"""0""",13.0,0.0,12.3999996185,0.0
1614967119316142082,,68912,,1614895092,388874503,"""0""",13.0,0.0,12.3999996185,0.0
1614967119365211963,,68913,,1614895092,438766326,"""0""",13.0,0.0,12.3999996185,0.0
1614967119413444042,,68914,,1614895092,488793201,"""0""",13.0,0.0,12.3999996185,0.0
1614967119468816041,,68915,,1614895092,538788201,"""0""",13.0,0.0,12.3999996185,0.0
1614967119514050960,,68916,,1614895092,589014295,"""0""",13.0,0.0,12.3999996185,0.0
1614967119558514118,,68917,,1614895092,638843618,"""0""",13.0,0.0,12.3999996185,0.0
1614967119610954999,,68918,,1614895092,689014659,"""0""",13.0,0.0,12.3999996185,0.0
1614967119665144920,,68919,,1614895092,738833305,"""0""",13.0,0.0,12.3999996185,0.0
1614967119715794086,,68920,,1614895092,788873722,"""0""",13.0,0.0,12.3999996185,0.0
1614967119773817062,,68921,,1614895092,838861066,"""0""",13.0,0.0,12.3999996185,0.0
1614967119822680950,,68922,,1614895092,888792420,"""0""",13.0,0.0,12.3999996185,0.0
1614967119875125885,,68923,,1614895092,938872889,"""0""",13.0,0.0,12.3999996185,0.0
1614967119909596920,,68924,,1614895092,988877993,"""0""",13.0,0.0,12.3999996185,0.0
1614967119965087890,,68925,,1614895093,38773201,"""0""",13.0,0.0,12.3999996185,0.0
1614967120010741949,,68926,,1614895093,88839243,"""0""",13.0,0.0,12.3999996185,0.0
1614967120063471078,,68927,,1614895093,138781638,"""0""",13.0,0.0,12.3999996185,0.0
1614967120118247985,,68928,,1614895093,188837107,"""0""",13.0,0.0,12.3999996185,0.0
1614967120159867048,,68929,,1614895093,238810493,"""0""",13.0,0.0,12.3999996185,0.0
1614967120210879087,,68930,,1614895093,288918878,"""0""",13.0,0.0,12.3999996185,0.0
1614967120263359069,,68931,,1614895093,338782836,"""0""",13.0,0.0,12.3999996185,0.0
1614967120317830085,,68932,,1614895093,389232420,"""0""",13.0,0.0,12.3999996185,0.0
1614967120372782945,,68933,,1614895093,438757680,"""0""",13.0,0.0,12.3999996185,0.0
1614967120414604902,,68934,,1614895093,488779555,"""0""",13.0,0.0,12.3999996185,0.0
1614967120477761030,,68935,,1614895093,538848930,"""0""",13.0,0.0,12.3999996185,0.0
1614967120505453109,,68936,,1614895093,588782992,"""0""",13.0,0.0,12.3999996185,0.0
1614967120562438964,,68937,,1614895093,638772211,"""0""",13.0,0.0,12.3999996185,0.0
1614967120612874031,,68938,,1614895093,688786586,"""0""",13.0,0.0,12.3999996185,0.0
1614967120658725976,,68939,,1614895093,738789711,"""0""",13.0,0.0,12.3999996185,0.0
1614967120710660934,,68940,,1614895093,788866430,"""0""",13.0,0.0,12.3999996185,0.0
1614967120752593994,,68941,,1614895093,838826482,"""0""",13.0,0.0,12.3999996185,0.0
1614967120815362930,,68942,,1614895093,888857940,"""0""",13.0,0.0,12.3999996185,0.0
1614967120863859891,,68943,,1614895093,938800336,"""0""",13.0,0.0,12.3999996185,0.0
1614967120920526981,,68944,,1614895093,988895076,"""0""",13.0,0.0,12.3999996185,0.0
1614967120958498954,,68945,,1614895094,38783305,"""0""",13.0,0.0,12.3999996185,0.0
1614967121006865978,,68946,,1614895094,88868253,"""0""",13.0,0.0,12.3999996185,0.0
1614967121057288885,,68947,,1614895094,138768773,"""0""",13.0,0.0,12.3999996185,0.0
1614967121104602098,,68948,,1614895094,188780544,"""0""",13.0,0.0,12.3999996185,0.0
1614967121163196086,,68949,,1614895094,238815336,"""0""",13.0,0.0,12.3999996185,0.0
1614967121215182065,,68950,,1614895094,288782888,"""0""",13.0,0.0,12.3999996185,0.0
1614967121262758970,,68951,,1614895094,338773148,"""0""",13.0,0.0,12.3999996185,0.0
1614967121319147109,,68952,,1614895094,388859503,"""0""",13.0,0.0,12.3999996185,0.0
1614967121358927011,,68953,,1614895094,438915648,"""0""",13.0,0.0,12.3999996185,0.0
1614967121415179014,,68954,,1614895094,488920127,"""0""",13.0,0.0,12.3999996185,0.0
1614967121461642026,,68955,,1614895094,538844919,"""0""",13.0,0.0,12.3999996185,0.0
1614967121512928962,,68956,,1614895094,588867732,"""0""",13.0,0.0,12.3999996185,0.0
1614967121561362028,,68957,,1614895094,638886013,"""0""",13.0,0.0,12.3999996185,0.0
1614967121618299961,,68958,,1614895094,688802159,"""0""",13.0,0.0,12.3999996185,0.0
1614967121657516956,,68959,,1614895094,738772211,"""0""",13.0,0.0,12.3999996185,0.0
1614967121708755970,,68960,,1614895094,788802419,"""0""",13.0,0.0,12.3999996185,0.0
1614967121765237092,,68961,,1614895094,838870544,"""0""",13.0,0.0,12.3999996185,0.0
1614967121815402984,,68962,,1614895094,888783096,"""0""",13.0,0.0,12.3999996185,0.0
1614967121861965894,,68963,,1614895094,938782315,"""0""",13.0,0.0,12.3999996185,0.0
1614967121912482023,,68964,,1614895094,988860856,"""0""",13.0,0.0,12.3999996185,0.0
1614967121960447072,,68965,,1614895095,38849606,"""0""",13.0,0.0,12.3999996185,0.0
1614967122016263008,,68966,,1614895095,89087315,"""0""",13.0,0.0,12.3999996185,0.0
1614967122063401937,,68967,,1614895095,138778721,"""0""",13.0,0.0,12.3999996185,0.0
1614967122114394903,,68968,,1614895095,188835440,"""0""",13.0,0.0,12.3999996185,0.0
1614967122193413972,,68969,,1614895095,238815648,"""0""",13.0,0.0,12.3999996185,0.0
1614967122236936092,,68970,,1614895095,288878877,"""0""",13.0,0.0,12.3999996185,0.0
1614967122263673067,,68971,,1614895095,338806325,"""0""",13.0,0.0,12.3999996185,0.0
1614967122323312997,,68972,,1614895095,388820908,"""0""",13.0,0.0,12.3999996185,0.0
1614967122365362882,,68973,,1614895095,438811065,"""0""",13.0,0.0,12.3999996185,0.0
1614967122409970998,,68974,,1614895095,488864763,"""0""",13.0,0.0,12.3999996185,0.0
1614967122461591005,,68975,,1614895095,538779033,"""0""",13.0,0.0,12.3999996185,0.0
1614967122521003961,,68976,,1614895095,588781012,"""0""",13.0,0.0,12.3999996185,0.0
1614967122566962003,,68977,,1614895095,638780231,"""0""",13.0,0.0,12.3999996185,0.0
1614967122611027956,,68978,,1614895095,688786950,"""0""",13.0,0.0,12.3999996185,0.0
1614967122664877891,,68979,,1614895095,738781794,"""0""",13.0,0.0,12.3999996185,0.0
1614967122716104984,,68980,,1614895095,788801637,"""0""",13.0,0.0,12.3999996185,0.0
1614967122777827024,,68981,,1614895095,838764606,"""0""",13.0,0.0,12.3999996185,0.0
1614967122839780092,,68982,,1614895095,888869554,"""0""",13.0,0.0,12.3999996185,0.0
1614967122864314079,,68983,,1614895095,938838408,"""0""",13.0,0.0,12.3999996185,0.0
1614967122913532018,,68984,,1614895095,988814502,"""0""",13.0,0.0,12.3999996185,0.0
1614967122972094058,,68985,,1614895096,38763096,"""0""",13.0,0.0,12.3999996185,0.0
1614967123013518095,,68986,,1614895096,88806794,"""0""",13.0,0.0,12.3999996185,0.0
1614967123072062015,,68987,,1614895096,138834710,"""0""",13.0,0.0,12.3999996185,0.0
1614967123141021013,,68988,,1614895096,188859241,"""0""",13.0,0.0,12.3999996185,0.0
1614967123167963981,,68989,,1614895096,238913356,"""0""",13.0,0.0,12.3999996185,0.0
1614967123216836929,,68990,,1614895096,288811741,"""0""",13.0,0.0,12.3999996185,0.0
1614967123275777101,,68991,,1614895096,338786377,"""0""",13.0,0.0,12.3999996185,0.0
1614967123314590930,,68992,,1614895096,388792366,"""0""",13.0,0.0,12.3999996185,0.0
1614967123380340099,,68993,,1614895096,438774398,"""0""",13.0,0.0,12.3999996185,0.0
1614967123437644958,,68994,,1614895096,488885543,"""0""",13.0,0.0,12.3999996185,0.0
1614967123467221975,,68995,,1614895096,538788512,"""0""",13.0,0.0,12.3999996185,0.0
1614967123516557931,,68996,,1614895096,588859137,"""0""",13.0,0.0,12.3999996185,0.0
1614967123566229104,,68997,,1614895096,638889970,"""0""",13.0,0.0,12.3999996185,0.0
1614967123614264965,,68998,,1614895096,688862835,"""0""",13.0,0.0,12.3999996185,0.0
1614967123674901962,,68999,,1614895096,738777991,"""0""",13.0,0.0,12.3999996185,0.0
1614967123708597898,,69000,,1614895096,788868564,"""0""",13.0,0.0,12.3999996185,0.0
1614967123759907960,,69001,,1614895096,838844241,"""0""",13.0,0.0,12.3999996185,0.0
1614967123816358089,,69002,,1614895096,888756741,"""0""",13.0,0.0,12.3999996185,0.0
1614967123862370014,,69003,,1614895096,938767210,"""0""",13.0,0.0,12.3999996185,0.0
1614967123913441896,,69004,,1614895096,988843043,"""0""",13.0,0.0,12.3999996185,0.0
1614967123965161085,,69005,,1614895097,38850960,"""0""",13.0,0.0,12.3999996185,0.0
1614967124010417938,,69006,,1614895097,88812210,"""0""",13.0,0.0,12.3999996185,0.0
1614967124063502073,,69007,,1614895097,138772887,"""0""",13.0,0.0,12.3999996185,0.0
1614967124118773937,,69008,,1614895097,188782366,"""0""",13.0,0.0,12.3999996185,0.0
1614967124164136886,,69009,,1614895097,238785647,"""0""",13.0,0.0,12.3999996185,0.0
1614967124214257955,,69010,,1614895097,288841064,"""0""",13.0,0.0,12.3999996185,0.0
1614967124277507066,,69011,,1614895097,338817783,"""0""",13.0,0.0,12.3999996185,0.0
1614967124311136007,,69012,,1614895097,388841168,"""0""",13.0,0.0,12.3999996185,0.0
1614967124368469953,,69013,,1614895097,438780803,"""0""",13.0,0.0,12.3999996185,0.0
1614967124415741920,,69014,,1614895097,488792939,"""0""",13.0,0.0,12.3999996185,0.0
1614967124469419956,,69015,,1614895097,538778355,"""0""",13.0,0.0,12.3999996185,0.0
1614967124511523008,,69016,,1614895097,588898928,"""0""",13.0,0.0,12.3999996185,0.0
1614967124571146965,,69017,,1614895097,638856637,"""0""",13.0,0.0,12.3999996185,0.0
1614967124627135038,,69018,,1614895097,688861585,"""0""",13.0,0.0,12.3999996185,0.0
1614967124659105062,,69019,,1614895097,738779137,"""0""",13.0,0.0,12.3999996185,0.0
1614967124711533069,,69020,,1614895097,788843980,"""0""",13.0,0.0,12.3999996185,0.0
1614967124762320995,,69021,,1614895097,838769397,"""0""",13.0,5.5,12.3999996185,0.0
1614967124813519954,,69022,,1614895097,888935335,"""0""",13.0,4.125,12.3999996185,0.0
1614967124867487907,,69023,,1614895097,938843564,"""0""",12.0,4.0,12.1999998093,0.0
1614967124927820920,,69024,,1614895097,988815334,"""0""",12.0,4.125,12.1999998093,0.0
1614967124977062940,,69025,,1614895098,38802522,"""0""",12.0,4.375,12.1999998093,0.0
1614967125013211965,,69026,,1614895098,88785439,"""0""",13.0,4.375,12.1000003815,0.0
1614967125064156055,,69027,,1614895098,138809709,"""0""",13.0,3.875,12.1000003815,0.0
1614967125118104934,,69028,,1614895098,188779241,"""0""",13.0,2.75,12.1000003815,0.0
1614967125162652015,,69029,,1614895098,238827001,"""0""",12.0,0.625,12.3500003815,0.0
1614967125219928979,,69030,,1614895098,288784136,"""0""",12.0,0.625,12.3500003815,0.0
1614967125263200998,,69031,,1614895098,338789293,"""0""",12.0,1.0,12.3500003815,0.0
1614967125318500995,,69032,,1614895098,388864918,"""0""",12.0,0.625,12.3500003815,0.0
1614967125361371040,,69033,,1614895098,438822209,"""0""",13.0,0.375,12.3500003815,0.0
1614967125416448116,,69034,,1614895098,488815699,"""0""",13.0,0.375,12.3500003815,0.0
1614967125463049888,,69035,,1614895098,538768303,"""0""",13.0,0.375,12.3500003815,0.0
1614967125519146919,,69036,,1614895098,588789657,"""0""",13.0,0.375,12.3500003815,0.0
1614967125560679912,,69037,,1614895098,638778668,"""0""",13.0,0.375,12.3500003815,0.0
1614967125616823911,,69038,,1614895098,688759032,"""0""",13.0,0.375,12.3500003815,0.0
1614967125674097061,,69039,,1614895098,738772938,"""0""",12.0,1.0,12.3000001907,0.0
1614967125718410968,,69040,,1614895098,788949865,"""0""",12.0,1.375,12.3000001907,0.0
1614967125769314050,,69041,,1614895098,838847313,"""0""",12.0,1.0,12.3000001907,0.0
1614967125840853929,,69042,,1614895098,888781063,"""0""",12.0,1.0,12.25,0.0
1614967125866050958,,69043,,1614895098,938760178,"""0""",12.0,1.75,12.25,0.0
1614967125917803049,,69044,,1614895098,988828303,"""0""",12.0,2.375,12.25,0.0
1614967125965763092,,69045,,1614895099,38776167,"""0""",12.0,3.375,12.1999998093,0.0
1614967126023730993,,69046,,1614895099,88797053,"""0""",12.0,3.0,12.1999998093,0.0
1614967126069020986,,69047,,1614895099,138857157,"""0""",12.0,2.0,12.1999998093,0.0
1614967126121447086,,69048,,1614895099,188873042,"""0""",12.0,2.375,12.1999998093,0.0
1614967126172091007,,69049,,1614895099,238829657,"""0""",12.0,2.375,12.1999998093,0.0
1614967126222484111,,69050,,1614895099,288813251,"""0""",12.0,1.75,12.1999998093,0.0
1614967126266112089,,69051,,1614895099,338827834,"""0""",12.0,0.625,12.1999998093,0.0
1614967126313628911,,69052,,1614895099,388818459,"""0""",12.0,0.625,12.3000001907,0.0
1614967126365937948,,69053,,1614895099,438779813,"""0""",12.0,0.625,12.3000001907,0.0
1614967126417458057,,69054,,1614895099,488842678,"""0""",12.0,0.625,12.3000001907,0.0
1614967126466077089,,69055,,1614895099,538798823,"""0""",12.0,0.625,12.3500003815,0.0
1614967126516158103,,69056,,1614895099,588781948,"""0""",12.0,0.375,12.3500003815,0.0
1614967126565449953,,69057,,1614895099,638787001,"""0""",12.0,0.375,12.3500003815,0.0
1614967126608906984,,69058,,1614895099,688922001,"""0""",12.0,0.625,12.3500003815,0.0
1614967126668173074,,69059,,1614895099,738824865,"""0""",12.0,0.375,12.3500003815,0.0
1614967126727924108,,69060,,1614895099,788787573,"""0""",12.0,0.375,12.3500003815,0.0
1614967126767222881,,69061,,1614895099,838773094,"""0""",12.0,0.0,12.3500003815,0.0
1614967126811301946,,69062,,1614895099,888784865,"""0""",12.0,0.375,12.3500003815,0.0
1614967126873087882,,69063,,1614895099,938788198,"""0""",12.0,0.375,12.3500003815,0.0
1614967126913254976,,69064,,1614895099,988785855,"""0""",12.0,0.375,12.3500003815,0.0
1614967126976115942,,69065,,1614895100,38817365,"""0""",12.0,0.0,12.3999996185,0.0
1614967127017707109,,69066,,1614895100,88781636,"""0""",12.0,0.0,12.3999996185,0.0
1614967127069336891,,69067,,1614895100,138805334,"""0""",12.0,0.0,12.3999996185,0.0
1614967127115751028,,69068,,1614895100,188786740,"""0""",12.0,0.0,12.3999996185,0.0
1614967127171458005,,69069,,1614895100,238761011,"""0""",12.0,0.0,12.3999996185,0.0
1614967127215841054,,69070,,1614895100,288801219,"""0""",12.0,0.375,12.3999996185,0.0
1614967127275039911,,69071,,1614895100,338906115,"""0""",12.0,0.375,12.3500003815,0.0
1614967127315217971,,69072,,1614895100,388851792,"""0""",12.0,0.375,12.3500003815,0.0
1614967127367353916,,69073,,1614895100,438770542,"""0""",12.0,0.375,12.3500003815,0.0
1614967127413378953,,69074,,1614895100,488776479,"""0""",12.0,0.375,12.3500003815,0.0
1614967127465120077,,69075,,1614895100,538758823,"""0""",12.0,0.625,12.3500003815,0.0
1614967127516267061,,69076,,1614895100,588766167,"""0""",12.0,1.0,12.3500003815,0.0
1614967127572838068,,69077,,1614895100,638782313,"""0""",12.0,1.0,12.3000001907,0.0
1614967127623291015,,69078,,1614895100,688790125,"""0""",12.0,0.625,12.3000001907,0.0
1614967127673295974,,69079,,1614895100,738867313,"""0""",12.0,0.375,12.3000001907,0.0
1614967127721971035,,69080,,1614895100,788774917,"""0""",12.0,0.375,12.3000001907,0.0
1614967127768769979,,69081,,1614895100,838916219,"""0""",12.0,1.0,12.3500003815,0.0
1614967127820545911,,69082,,1614895100,888918563,"""0""",12.0,1.0,12.3500003815,0.0
1614967127870026111,,69083,,1614895100,938793406,"""0""",12.0,0.625,12.3500003815,0.0
1614967127938095092,,69084,,1614895100,988849448,"""0""",12.0,0.625,12.3500003815,0.0
1614967127971235036,,69085,,1614895101,38799917,"""0""",12.0,0.625,12.3500003815,0.0
1614967128024466037,,69086,,1614895101,88787312,"""0""",12.0,0.375,12.3500003815,0.0
1614967128069111108,,69087,,1614895101,138847937,"""0""",12.0,0.375,12.3500003815,0.0
1614967128124363899,,69088,,1614895101,188816948,"""0""",12.0,0.375,12.3500003815,0.0
1614967128170320987,,69089,,1614895101,238763667,"""0""",12.0,0.625,12.3500003815,0.0
1614967128239882946,,69090,,1614895101,288791687,"""0""",12.0,0.625,12.3500003815,0.0
1614967128271325111,,69091,,1614895101,338800073,"""0""",12.0,0.625,12.3500003815,0.0
1614967128316405057,,69092,,1614895101,388943146,"""0""",12.0,0.375,12.3500003815,0.0
1614967128369353055,,69093,,1614895101,439255177,"""0""",12.0,0.625,12.3000001907,0.0
1614967128424309015,,69094,,1614895101,488900229,"""0""",12.0,1.0,12.3000001907,0.0
1614967128467979907,,69095,,1614895101,538838927,"""0""",12.0,0.625,12.3000001907,0.0
1614967128523189067,,69096,,1614895101,588791844,"""0""",12.0,1.0,12.3000001907,0.0
1614967128564928054,,69097,,1614895101,638895021,"""0""",12.0,1.0,12.3000001907,0.0
1614967128618750095,,69098,,1614895101,688769656,"""0""",12.0,1.375,12.3000001907,0.0
1614967128672005891,,69099,,1614895101,738862208,"""0""",12.0,3.0,12.3000001907,0.0
1614967128721615076,,69100,,1614895101,788794708,"""0""",12.0,3.0,12.1999998093,0.0
1614967128766844034,,69101,,1614895101,838898406,"""0""",12.0,1.75,12.1999998093,0.0
1614967128812712907,,69102,,1614895101,888810802,"""0""",12.0,1.375,12.1999998093,0.0
1614967128864061117,,69103,,1614895101,938805073,"""0""",12.0,1.75,12.25,0.0
1614967128919414043,,69104,,1614895101,989575281,"""0""",12.0,2.0,12.25,0.0
1614967128970004081,,69105,,1614895102,38892989,"""0""",12.0,1.75,12.25,0.0
1614967129017417907,,69106,,1614895102,88801166,"""0""",12.0,1.0,12.3000001907,0.0
1614967129065412044,,69107,,1614895102,138896062,"""0""",12.0,0.625,12.3000001907,0.0
1614967129121751070,,69108,,1614895102,188856635,"""0""",12.0,0.375,12.3000001907,0.0
1614967129164098024,,69109,,1614895102,238811375,"""0""",12.0,1.0,12.3000001907,0.0
1614967129220453977,,69110,,1614895102,288838406,"""0""",12.0,1.75,12.3000001907,0.0
1614967129265813112,,69111,,1614895102,338905958,"""0""",12.0,1.375,12.3000001907,0.0
1614967129320719003,,69112,,1614895102,388776635,"""0""",12.0,0.625,12.3000001907,0.0
1614967129389062881,,69113,,1614895102,439262729,"""0""",12.0,0.625,12.3500003815,0.0
1614967129423808097,,69114,,1614895102,488818354,"""0""",12.0,1.0,12.3500003815,0.0
1614967129467771053,,69115,,1614895102,538923145,"""0""",12.0,1.0,12.3500003815,0.0
1614967129521138906,,69116,,1614895102,588822051,"""0""",12.0,0.625,12.3000001907,0.0
1614967129563796997,,69117,,1614895102,638820958,"""0""",12.0,1.375,12.3000001907,0.0
1614967129622560024,,69118,,1614895102,688836947,"""0""",12.0,1.75,12.3000001907,0.0
1614967129665169000,,69119,,1614895102,738945281,"""0""",12.0,1.75,12.25,0.0
1614967129744029045,,69120,,1614895102,788769551,"""0""",12.0,1.375,12.25,0.0
1614967129767980098,,69121,,1614895102,838785176,"""0""",12.0,1.0,12.25,0.0
1614967129817219018,,69122,,1614895102,888767989,"""0""",12.0,1.0,12.3000001907,0.0
1614967129872797012,,69123,,1614895102,938867885,"""0""",12.0,0.625,12.3000001907,0.0
1614967129918219089,,69124,,1614895102,988801062,"""0""",12.0,1.0,12.3000001907,0.0
1614967129970110893,,69125,,1614895103,38877624,"""0""",12.0,1.75,12.25,0.0
1614967130023206949,,69126,,1614895103,88773770,"""0""",12.0,1.75,12.25,0.0
1614967130089337110,,69127,,1614895103,138837260,"""0""",12.0,2.0,12.25,0.0
1614967130136117935,,69128,,1614895103,188800385,"""0""",12.0,2.0,12.25,0.0
1614967130181189060,,69129,,1614895103,238797780,"""0""",12.0,1.0,12.25,0.0
1614967130225723028,,69130,,1614895103,288790124,"""0""",12.0,0.625,12.25,0.0
1614967130268342018,,69131,,1614895103,338802572,"""0""",12.0,1.0,12.25,0.0
1614967130333874940,,69132,,1614895103,388828926,"""0""",12.0,1.0,12.25,0.0
1614967130364442110,,69133,,1614895103,438794812,"""0""",12.0,1.0,12.25,0.0
1614967130426379919,,69134,,1614895103,488820072,"""0""",12.0,1.0,12.25,0.0
1614967130464749097,,69135,,1614895103,538866478,"""0""",12.0,1.0,12.3000001907,0.0
1614967130516216039,,69136,,1614895103,588850332,"""0""",12.0,1.0,12.3000001907,0.0
1614967130565973997,,69137,,1614895103,638935697,"""0""",12.0,0.625,12.3000001907,0.0
1614967130636904954,,69138,,1614895103,688788249,"""0""",12.0,1.0,12.25,0.0
1614967130677789926,,69139,,1614895103,738918301,"""0""",12.0,1.75,12.25,0.0
1614967130721987962,,69140,,1614895103,788954082,"""0""",12.0,2.0,12.25,0.0
1614967130771713972,,69141,,1614895103,838777624,"""0""",12.0,2.375,12.1999998093,0.0
1614967130821286916,,69142,,1614895103,888860280,"""0""",12.0,2.375,12.1999998093,0.0
1614967130876403093,,69143,,1614895103,939159238,"""0""",12.0,2.0,12.1999998093,0.0
1614967130960791110,,69144,,1614895103,988807936,"""0""",12.0,2.375,12.1999998093,0.0
1614967130995443105,,69145,,1614895104,38900228,"""0""",12.0,2.0,12.25,0.0
1614967131029589891,,69146,,1614895104,88774082,"""0""",12.0,1.75,12.25,0.0
1614967131077419042,,69147,,1614895104,138766843,"""0""",12.0,1.375,12.25,0.0
1614967131122622966,,69148,,1614895104,188792363,"""0""",12.0,1.375,12.25,0.0
1614967131176155090,,69149,,1614895104,238793040,"""0""",12.0,1.375,12.25,0.0
1614967131229100942,,69150,,1614895104,288768405,"""0""",12.0,1.75,12.25,0.0
1614967131281696081,,69151,,1614895104,338824499,"""0""",12.0,1.375,12.25,0.0
1614967131332420110,,69152,,1614895104,388731947,"""0""",12.0,1.0,12.25,0.0
1614967131376667022,,69153,,1614895104,438798301,"""0""",12.0,0.625,12.25,0.0
1614967131422458887,,69154,,1614895104,488780488,"""0""",12.0,0.625,12.3000001907,0.0
1614967131469701051,,69155,,1614895104,538790436,"""0""",12.0,1.0,12.3000001907,0.0
1614967131526043891,,69156,,1614895104,588827988,"""0""",12.0,0.625,12.3000001907,0.0
1614967131574007987,,69157,,1614895104,638816634,"""0""",12.0,0.375,12.3500003815,0.0
1614967131624728918,,69158,,1614895104,688816582,"""0""",12.0,0.375,12.3500003815,0.0
1614967131674845933,,69159,,1614895104,738832103,"""0""",12.0,0.375,12.3500003815,0.0
1614967131721189022,,69160,,1614895104,788825749,"""0""",12.0,0.375,12.3500003815,0.0
1614967131771202087,,69161,,1614895104,838783926,"""0""",12.0,0.375,12.3500003815,0.0
1614967131827959060,,69162,,1614895104,888863092,"""0""",12.0,0.375,12.3500003815,0.0
1614967131876779079,,69163,,1614895104,938867259,"""0""",12.0,0.375,12.3500003815,0.0
1614967131927417993,,69164,,1614895104,988780748,"""0""",12.0,0.375,12.3500003815,0.0
1614967131973701953,,69165,,1614895105,38884238,"""0""",12.0,0.375,12.3500003815,0.0
1614967132021362066,,69166,,1614895105,88796113,"""0""",12.0,0.375,12.3500003815,0.0
1614967132070846080,,69167,,1614895105,138963561,"""0""",12.0,0.375,12.3500003815,0.0
1614967132134919881,,69168,,1614895105,189772259,"""0""",12.0,0.375,12.3500003815,0.0
1614967132173247098,,69169,,1614895105,238776998,"""0""",12.0,0.375,12.3500003815,0.0
1614967132217344999,,69170,,1614895105,289342363,"""0""",12.0,0.375,12.3500003815,0.0
1614967132275511026,,69171,,1614895105,338781165,"""0""",12.0,0.375,12.3500003815,0.0
1614967132329793930,,69172,,1614895105,388802988,"""0""",12.0,0.625,12.3500003815,0.0
1614967132371481895,,69173,,1614895105,438763613,"""0""",12.0,1.0,12.25,0.0
1614967132442768096,,69174,,1614895105,488847780,"""0""",12.0,1.375,12.25,0.0
1614967132490231037,,69175,,1614895105,538779394,"""0""",12.0,2.0,12.25,0.0
1614967132529184103,,69176,,1614895105,588802571,"""0""",12.0,2.0,12.25,0.0
1614967132592343091,,69177,,1614895105,638784394,"""0""",12.0,1.375,12.25,0.0
1614967132620188951,,69178,,1614895105,688813977,"""0""",12.0,1.75,12.25,0.0
1614967132676309108,,69179,,1614895105,738834811,"""0""",12.0,2.375,12.25,0.0
1614967132749217033,,69180,,1614895105,788871634,"""0""",12.0,1.75,12.25,0.0
1614967132785967111,,69181,,1614895105,838845436,"""0""",12.0,1.375,12.25,0.0
1614967132829108953,,69182,,1614895105,888784186,"""0""",12.0,1.375,12.25,0.0
1614967132891319990,,69183,,1614895105,938872102,"""0""",12.0,0.625,12.3000001907,0.0
1614967132937241077,,69184,,1614895105,988816581,"""0""",12.0,0.375,12.3000001907,0.0
1614967133002629995,,69185,,1614895106,38898717,"""0""",12.0,0.375,12.3000001907,0.0
1614967133042975902,,69186,,1614895106,89073456,"""0""",12.0,0.625,12.3000001907,0.0
1614967133094950914,,69187,,1614895106,138847102,"""0""",12.0,0.625,12.3000001907,0.0
1614967133131934881,,69188,,1614895106,188800904,"""0""",12.0,0.625,12.3000001907,0.0
1614967133173237085,,69189,,1614895106,238771633,"""0""",12.0,0.375,12.3500003815,0.0
1614967133248207092,,69190,,1614895106,288848665,"""0""",12.0,0.375,12.3500003815,0.0
1614967133291733026,,69191,,1614895106,338783977,"""0""",12.0,0.375,12.3500003815,0.0
1614967133347920894,,69192,,1614895106,388776165,"""0""",12.0,0.625,12.3500003815,0.0
1614967133390856981,,69193,,1614895106,438765852,"""0""",12.0,0.625,12.3500003815,0.0
1614967133426307916,,69194,,1614895106,488845019,"""0""",12.0,0.625,12.3500003815,0.0
1614967133472963094,,69195,,1614895106,538810852,"""0""",12.0,0.625,12.3500003815,0.0
1614967133537677049,,69196,,1614895106,588789029,"""0""",12.0,1.375,12.25,0.0
1614967133610372066,,69197,,1614895106,638788404,"""0""",12.0,2.75,12.25,0.0
1614967133641544103,,69198,,1614895106,688777258,"""0""",12.0,4.0,12.25,0.0
1614967133674215078,,69199,,1614895106,738771737,"""0""",12.0,4.5,12.1000003815,0.0
1614967133727322101,,69200,,1614895106,788952883,"""0""",12.0,4.375,12.1000003815,0.0
1614967133770891904,,69201,,1614895106,838769862,"""0""",12.0,4.125,12.1000003815,0.0
1614967133823328971,,69202,,1614895106,888781737,"""0""",12.0,4.0,12.1499996185,0.0
1614967133869985103,,69203,,1614895106,938776685,"""0""",12.0,4.125,12.1499996185,0.0
1614967133919286966,,69204,,1614895106,988881269,"""0""",12.0,4.5,12.1499996185,0.0
1614967133971606969,,69205,,1614895107,38798039,"""0""",12.0,4.625,12.0500001907,0.0
1614967134022804975,,69206,,1614895107,88981321,"""0""",12.0,4.375,12.0500001907,0.0
1614967134092101097,,69207,,1614895107,138774706,"""0""",12.0,4.125,12.0500001907,0.0
1614967134178591012,,69208,,1614895107,188819654,"""0""",12.0,4.25,12.0500001907,0.0
1614967134236448049,,69209,,1614895107,238760175,"""0""",12.0,4.375,12.0500001907,0.0
1614967134236653089,,69210,,1614895107,288806529,"""0""",12.0,4.375,12.0500001907,0.0
1614967134272593975,,69211,,1614895107,338827258,"""0""",12.0,4.0,12.0500001907,0.0
1614967134328156948,,69212,,1614895107,388797779,"""0""",12.0,4.25,12.1000003815,0.0
1614967134405556917,,69213,,1614895107,438773300,"""0""",12.0,4.125,12.1000003815,0.0
1614967134452302932,,69214,,1614895107,488785695,"""0""",12.0,4.125,12.1000003815,0.0
1614967134504518032,,69215,,1614895107,538801060,"""0""",12.0,4.0,12.1000003815,0.0
1614967134562710046,,69216,,1614895107,588857622,"""0""",12.0,4.25,12.1000003815,0.0
1614967134613334894,,69217,,1614895107,638778404,"""0""",12.0,4.125,12.1000003815,0.0
1614967134655906915,,69218,,1614895107,688782518,"""0""",12.0,4.0,12.1000003815,0.0
1614967134702287912,,69219,,1614895107,738741945,"""0""",12.0,4.25,12.1000003815,0.0
1614967134741813898,,69220,,1614895107,788865539,"""0""",12.0,4.375,12.1000003815,0.0
1614967134827290058,,69221,,1614895107,838752883,"""0""",12.0,4.375,12.0500001907,0.0
1614967134827419996,,69222,,1614895107,888780435,"""0""",12.0,4.375,12.0500001907,0.0
1614967134874392032,,69223,,1614895107,938844445,"""0""",12.0,4.375,12.0500001907,0.0
1614967134927134037,,69224,,1614895107,988821060,"""0""",12.0,4.375,12.0500001907,0.0
1614967134972517967,,69225,,1614895108,38774654,"""0""",12.0,4.375,12.0500001907,0.0
1614967135014389038,,69226,,1614895108,88810435,"""0""",12.0,4.375,12.0500001907,0.0
1614967135075293064,,69227,,1614895108,138810487,"""0""",12.0,4.375,12.0500001907,0.0
1614967135134959936,,69228,,1614895108,189379914,"""0""",12.0,4.375,12.1000003815,0.0
1614967135173079967,,69229,,1614895108,238879549,"""0""",12.0,4.375,12.1000003815,0.0
1614967135212745904,,69230,,1614895108,289289237,"""0""",12.0,4.125,12.1000003815,0.0
1614967135272408962,,69231,,1614895108,338769914,"""0""",12.0,4.25,12.0500001907,0.0
1614967135317615032,,69232,,1614895108,389150695,"""0""",12.0,4.375,12.0500001907,0.0
1614967135372834920,,69233,,1614895108,438764185,"""0""",12.0,4.625,12.0500001907,0.0
1614967135413562059,,69234,,1614895108,489267310,"""0""",12.0,4.375,12.0500001907,0.0
1614967135471551895,,69235,,1614895108,538835330,"""0""",12.0,4.375,12.0500001907,0.0
1614967135519557952,,69236,,1614895108,588883299,"""0""",12.0,4.375,12.0500001907,0.0
1614967135579175949,,69237,,1614895108,639175799,"""0""",12.0,4.375,12.0500001907,0.0
1614967135615546941,,69238,,1614895108,688848091,"""0""",12.0,4.5,12.0500001907,0.0
1614967135676623106,,69239,,1614895108,738799080,"""0""",12.0,4.375,12.0500001907,0.0
1614967135723676919,,69240,,1614895108,789360591,"""0""",12.0,4.25,12.0500001907,0.0
1614967135772727966,,69241,,1614895108,838898507,"""0""",12.0,4.375,12.1000003815,0.0
1614967135817728996,,69242,,1614895108,889452518,"""0""",12.0,4.375,12.1000003815,0.0
1614967135877512931,,69243,,1614895108,938776737,"""0""",12.0,4.25,12.1000003815,0.0
1614967135931468009,,69244,,1614895108,989347934,"""0""",12.0,4.125,12.1000003815,0.0
1614967135979515075,,69245,,1614895109,38773351,"""0""",12.0,4.375,12.1000003815,0.0
1614967136043857097,,69246,,1614895109,89023976,"""0""",12.0,4.625,12.1000003815,0.0
1614967136079870939,,69247,,1614895109,138768872,"""0""",12.0,4.625,12.0500001907,0.0
1614967136126667976,,69248,,1614895109,189133768,"""0""",12.0,4.5,12.0500001907,0.0
1614967136167912960,,69249,,1614895109,238781945,"""0""",12.0,4.25,12.0500001907,0.0
1614967136215035915,,69250,,1614895109,288884653,"""0""",12.0,4.375,12.1000003815,0.0
1614967136285109043,,69251,,1614895109,338787257,"""0""",12.0,4.5,12.1000003815,0.0
1614967136324876070,,69252,,1614895109,388869549,"""0""",12.0,4.5,12.1000003815,0.0
1614967136370877027,,69253,,1614895109,438931841,"""0""",12.0,4.125,12.1000003815,0.0
1614967136417282104,,69254,,1614895109,488798195,"""0""",12.0,4.125,12.1000003815,0.0
1614967136472047090,,69255,,1614895109,538785747,"""0""",12.0,4.125,12.1000003815,0.0
1614967136514231920,,69256,,1614895109,588782257,"""0""",12.0,4.125,12.1000003815,0.0
1614967136578202962,,69257,,1614895109,638775174,"""0""",12.0,3.75,12.1499996185,0.0
1614967136632113933,,69258,,1614895109,688751788,"""0""",12.0,3.75,12.1499996185,0.0
1614967136674583911,,69259,,1614895109,738764236,"""0""",12.0,3.875,12.1499996185,0.0
1614967136721204996,,69260,,1614895109,788796372,"""0""",12.0,3.875,12.1499996185,0.0
1614967136770737886,,69261,,1614895109,838795799,"""0""",12.0,3.375,12.1499996185,0.0
1614967136815323114,,69262,,1614895109,888826215,"""0""",12.0,3.375,12.1499996185,0.0
1614967136877471923,,69263,,1614895109,938779080,"""0""",12.0,2.75,12.1999998093,0.0
1614967136920317888,,69264,,1614895109,988793924,"""0""",12.0,2.0,12.1999998093,0.0
1614967136965365886,,69265,,1614895110,38806319,"""0""",12.0,1.0,12.1999998093,0.0
1614967137018376111,,69266,,1614895110,88801580,"""0""",12.0,1.0,12.25,0.0
1614967137062928915,,69267,,1614895110,138798299,"""0""",12.0,1.0,12.25,0.0
1614967137115200996,,69268,,1614895110,188806944,"""0""",12.0,0.625,12.25,0.0
1614967137166344881,,69269,,1614895110,238860694,"""0""",12.0,0.375,12.3000001907,0.0
1614967137228833913,,69270,,1614895110,288797309,"""0""",12.0,0.375,12.3000001907,0.0
1614967137271188020,,69271,,1614895110,338782934,"""0""",12.0,0.375,12.3000001907,0.0
1614967137317301034,,69272,,1614895110,388780590,"""0""",12.0,0.375,12.3000001907,0.0
1614967137366467952,,69273,,1614895110,438812986,"""0""",12.0,0.0,12.3500003815,0.0
1614967137415635108,,69274,,1614895110,488781319,"""0""",12.0,0.0,12.3500003815,0.0
1614967137490987062,,69275,,1614895110,538841736,"""0""",12.0,0.0,12.3500003815,0.0
1614967137527122974,,69276,,1614895110,588752726,"""0""",12.0,0.0,12.3500003815,0.0
1614967137566571950,,69277,,1614895110,638832048,"""0""",12.0,0.0,12.3500003815,0.0
1614967137612865924,,69278,,1614895110,688784913,"""0""",12.0,0.0,12.3500003815,0.0
1614967137667295932,,69279,,1614895110,738793142,"""0""",12.0,0.0,12.3500003815,0.0
1614967137723496913,,69280,,1614895110,788769184,"""0""",12.0,0.0,12.3500003815,0.0
1614967137775882005,,69281,,1614895110,838756059,"""0""",12.0,0.0,12.3500003815,0.0
1614967137837774991,,69282,,1614895110,888779288,"""0""",12.0,0.0,12.3500003815,0.0
1614967137875263929,,69283,,1614895110,938772100,"""0""",12.0,0.0,12.3500003815,0.0
1614967137928065061,,69284,,1614895110,988792517,"""0""",12.0,0.0,12.3500003815,0.0
1614967137972886085,,69285,,1614895111,38753246,"""0""",12.0,0.375,12.3500003815,0.0
1614967138028836965,,69286,,1614895111,88789913,"""0""",12.0,0.375,12.3500003815,0.0
1614967138068340063,,69287,,1614895111,138806475,"""0""",12.0,0.375,12.3500003815,0.0
1614967138143543958,,69288,,1614895111,188833767,"""0""",12.0,0.375,12.3500003815,0.0
1614967138171660900,,69289,,1614895111,238796007,"""0""",12.0,0.375,12.3500003815,0.0
1614967138226069927,,69290,,1614895111,288830694,"""0""",12.0,0.375,12.3500003815,0.0
1614967138271790981,,69291,,1614895111,338765954,"""0""",12.0,0.375,12.3500003815,0.0
1614967138325694084,,69292,,1614895111,388849340,"""0""",12.0,0.375,12.3000001907,0.0
1614967138363789081,,69293,,1614895111,438857465,"""0""",12.0,0.375,12.3000001907,0.0
1614967138430989027,,69294,,1614895111,488839444,"""0""",12.0,0.375,12.3000001907,0.0
1614967138465022087,,69295,,1614895111,538771006,"""0""",12.0,0.375,12.3500003815,0.0
1614967138524558067,,69296,,1614895111,588794027,"""0""",12.0,0.375,12.3500003815,0.0
1614967138569196939,,69297,,1614895111,638785954,"""0""",12.0,0.375,12.3500003815,0.0
1614967138623931884,,69298,,1614895111,689274027,"""0""",12.0,0.375,12.3000001907,0.0
1614967138669222116,,69299,,1614895111,738809027,"""0""",12.0,0.375,12.3000001907,0.0
1614967138719634056,,69300,,1614895111,788789860,"""0""",12.0,0.375,12.3000001907,0.0
1614967138766453027,,69301,,1614895111,838812777,"""0""",12.0,0.625,12.25,0.0
1614967138825803041,,69302,,1614895111,888854079,"""0""",12.0,0.625,12.25,0.0
1614967138867507934,,69303,,1614895111,938962881,"""0""",12.0,1.375,12.25,0.0
1614967138916934967,,69304,,1614895111,988851110,"""0""",12.0,2.0,12.25,0.0
1614967138970902919,,69305,,1614895112,38862465,"""0""",12.0,3.75,12.1999998093,0.0
1614967139017416954,,69306,,1614895112,88803923,"""0""",12.0,4.0,12.1999998093,0.0
1614967139066031932,,69307,,1614895112,138783142,"""0""",12.0,4.0,12.1999998093,0.0
1614967139120284080,,69308,,1614895112,188778819,"""0""",12.0,3.875,12.1499996185,0.0
1614967139180125951,,69309,,1614895112,238804079,"""0""",12.0,4.0,12.1499996185,0.0
1614967139222440958,,69310,,1614895112,288791944,"""0""",12.0,4.0,12.1499996185,0.0
1614967139268217086,,69311,,1614895112,338812673,"""0""",12.0,4.0,12.1000003815,0.0
1614967139357491970,,69312,,1614895112,388847881,"""0""",12.0,3.875,12.1000003815,0.0
1614967139387094974,,69313,,1614895112,438892360,"""0""",12.0,4.0,12.1000003815,0.0
1614967139422919034,,69314,,1614895112,488778975,"""0""",12.0,3.875,12.1499996185,0.0
1614967139470650911,,69315,,1614895112,538797256,"""0""",12.0,3.875,12.1499996185,0.0
1614967139521950006,,69316,,1614895112,588793610,"""0""",12.0,3.375,12.1499996185,0.0
1614967139575788974,,69317,,1614895112,638821943,"""0""",12.0,3.375,12.1999998093,0.0
1614967139640010118,,69318,,1614895112,688776943,"""0""",12.0,3.375,12.1999998093,0.0
1614967139689666032,,69319,,1614895112,738816162,"""0""",12.0,3.375,12.1999998093,0.0
1614967139726258993,,69320,,1614895112,788766527,"""0""",12.0,3.375,12.1999998093,0.0
1614967139771023988,,69321,,1614895112,838785954,"""0""",12.0,3.375,12.1999998093,0.0
1614967139822417974,,69322,,1614895112,888778350,"""0""",12.0,3.375,12.1999998093,0.0
1614967139867389917,,69323,,1614895112,938794079,"""0""",12.0,3.75,12.1999998093,0.0
1614967139923269987,,69324,,1614895112,988852673,"""0""",12.0,3.75,12.1999998093,0.0
1614967139974867105,,69325,,1614895113,38882048,"""0""",12.0,3.75,12.1999998093,0.0
1614967140020222902,,69326,,1614895113,88766422,"""0""",12.0,3.75,12.1999998093,0.0
1614967140080204963,,69327,,1614895113,138912256,"""0""",12.0,3.375,12.1999998093,0.0
1614967140130727052,,69328,,1614895113,188810745,"""0""",12.0,3.375,12.1999998093,0.0
1614967140197196960,,69329,,1614895113,238772516,"""0""",12.0,3.0,12.1999998093,0.0
1614967140254569053,,69330,,1614895113,288807464,"""0""",12.0,3.0,12.1999998093,0.0
1614967140296741008,,69331,,1614895113,338796370,"""0""",12.0,3.375,12.1999998093,0.0
1614967140329402923,,69332,,1614895113,388768922,"""0""",12.0,3.375,12.1999998093,0.0
1614967140377443075,,69333,,1614895113,438792308,"""0""",12.0,2.375,12.1499996185,0.0
1614967140424074888,,69334,,1614895113,488752933,"""0""",12.0,2.75,12.1499996185,0.0
1614967140471651077,,69335,,1614895113,538922933,"""0""",12.0,3.375,12.1499996185,0.0
1614967140519299983,,69336,,1614895113,588840901,"""0""",12.0,3.875,12.1499996185,0.0
1614967140577615976,,69337,,1614895113,638824287,"""0""",12.0,3.875,12.1499996185,0.0
1614967140622955083,,69338,,1614895113,688876110,"""0""",12.0,3.875,12.1499996185,0.0
1614967140677551984,,69339,,1614895113,738810953,"""0""",12.0,3.0,12.1499996185,0.0
1614967140723443984,,69340,,1614895113,788742256,"""0""",12.0,2.75,12.1999998093,0.0
1614967140791941881,,69341,,1614895113,838793297,"""0""",12.0,3.375,12.1999998093,0.0
1614967140835201978,,69342,,1614895113,888776318,"""0""",12.0,3.375,12.1999998093,0.0
1614967140886750936,,69343,,1614895113,938913974,"""0""",12.0,2.75,12.1999998093,0.0
1614967140925296068,,69344,,1614895113,988800901,"""0""",12.0,2.75,12.1999998093,0.0
1614967140976285934,,69345,,1614895114,38800641,"""0""",12.0,2.75,12.1999998093,0.0
1614967141024369955,,69346,,1614895114,88776005,"""0""",12.0,2.375,12.1499996185,0.0
1614967141074105978,,69347,,1614895114,138805016,"""0""",12.0,2.0,12.1499996185,0.0
1614967141123929977,,69348,,1614895114,188786526,"""0""",12.0,2.0,12.1499996185,0.0
1614967141179476976,,69349,,1614895114,238971943,"""0""",12.0,1.75,12.1999998093,0.0
1614967141221020936,,69350,,1614895114,288780224,"""0""",12.0,1.75,12.1999998093,0.0
1614967141279902935,,69351,,1614895114,338849495,"""0""",12.0,1.75,12.1999998093,0.0
1614967141329540014,,69352,,1614895114,388800172,"""0""",12.0,1.75,12.1999998093,0.0
1614967141380512952,,69353,,1614895114,438903922,"""0""",12.0,1.75,12.1999998093,0.0
1614967141428384065,,69354,,1614895114,488798245,"""0""",12.0,1.375,12.1999998093,0.0
1614967141472480058,,69355,,1614895114,538862464,"""0""",12.0,1.375,12.1999998093,0.0
1614967141526556015,,69356,,1614895114,588769547,"""0""",12.0,1.375,12.1999998093,0.0
1614967141570837974,,69357,,1614895114,638929859,"""0""",12.0,1.375,12.1999998093,0.0
1614967141625586032,,69358,,1614895114,688817776,"""0""",12.0,1.375,12.1999998093,0.0
1614967141674227952,,69359,,1614895114,738913557,"""0""",12.0,1.375,12.25,0.0
1614967141726725101,,69360,,1614895114,788803505,"""0""",12.0,1.375,12.25,0.0
1614967141774722099,,69361,,1614895114,838931266,"""0""",12.0,1.375,12.25,0.0
1614967141828453063,,69362,,1614895114,888800172,"""0""",12.0,1.375,12.25,0.0
1614967141876133918,,69363,,1614895114,938890432,"""0""",12.0,1.375,12.25,0.0
1614967141930453062,,69364,,1614895114,988781266,"""0""",12.0,1.375,12.25,0.0
1614967141979110002,,69365,,1614895115,38766838,"""0""",12.0,1.375,12.25,0.0
1614967142038286924,,69366,,1614895115,88786474,"""0""",12.0,1.75,12.25,0.0
1614967142098460912,,69367,,1614895115,138782828,"""0""",12.0,1.75,12.25,0.0
1614967142136022090,,69368,,1614895115,188772307,"""0""",12.0,1.375,12.25,0.0
1614967142182626962,,69369,,1614895115,238852984,"""0""",12.0,1.375,12.1999998093,0.0
1614967142231728076,,69370,,1614895115,288804286,"""0""",12.0,1.75,12.1999998093,0.0
1614967142283760070,,69371,,1614895115,338953609,"""0""",12.0,1.75,12.1999998093,0.0
1614967142323983907,,69372,,1614895115,388841942,"""0""",12.0,2.0,12.1999998093,0.0
1614967142371844053,,69373,,1614895115,438789390,"""0""",12.0,2.0,12.1999998093,0.0
1614967142428283929,,69374,,1614895115,488785172,"""0""",12.0,2.0,12.1999998093,0.0
1614967142481091976,,69375,,1614895115,538816265,"""0""",12.0,2.0,12.1999998093,0.0
1614967142523504018,,69376,,1614895115,588794755,"""0""",12.0,2.0,12.1999998093,0.0
1614967142570492982,,69377,,1614895115,638779338,"""0""",12.0,2.0,12.1999998093,0.0
1614967142628854036,,69378,,1614895115,688788140,"""0""",12.0,2.0,12.1999998093,0.0
1614967142672019958,,69379,,1614895115,738779286,"""0""",12.0,2.0,12.1999998093,0.0
1614967142724838972,,69380,,1614895115,788781369,"""0""",12.0,1.75,12.1999998093,0.0
1614967142768585920,,69381,,1614895115,838806578,"""0""",12.0,1.75,12.25,0.0
1614967142830091953,,69382,,1614895115,888796213,"""0""",12.0,1.75,12.25,0.0
1614967142872538089,,69383,,1614895115,938810067,"""0""",12.0,1.75,12.25,0.0
1614967142923615932,,69384,,1614895115,988822411,"""0""",12.0,1.75,12.25,0.0
1614967142967917919,,69385,,1614895116,38786578,"""0""",12.0,1.75,12.25,0.0
1614967143026880979,,69386,,1614895116,88886213,"""0""",12.0,1.75,12.25,0.0
1614967143071028947,,69387,,1614895116,138776786,"""0""",12.0,1.75,12.25,0.0
1614967143127778053,,69388,,1614895116,188814025,"""0""",12.0,2.0,12.1999998093,0.0
1614967143167866945,,69389,,1614895116,238806786,"""0""",12.0,2.375,12.1999998093,0.0
1614967143232877969,,69390,,1614895116,288930796,"""0""",12.0,1.75,12.1999998093,0.0
1614967143279825925,,69391,,1614895116,338777984,"""0""",12.0,1.375,12.25,0.0
1614967143323785066,,69392,,1614895116,388789442,"""0""",12.0,1.375,12.25,0.0
1614967143377995967,,69393,,1614895116,438804338,"""0""",12.0,1.75,12.25,0.0
1614967143425820112,,69394,,1614895116,488752515,"""0""",12.0,1.75,12.1999998093,0.0
1614967143474833965,,69395,,1614895116,538875015,"""0""",12.0,1.75,12.1999998093,0.0
1614967143531410932,,69396,,1614895116,588817723,"""0""",12.0,1.75,12.1999998093,0.0
1614967143569251060,,69397,,1614895116,638785327,"""0""",12.0,2.0,12.1999998093,0.0
1614967143620110034,,69398,,1614895116,688765223,"""0""",12.0,1.75,12.1999998093,0.0
1614967143674209117,,69399,,1614895116,738829650,"""0""",12.0,1.375,12.1999998093,0.0
1614967143724627971,,69400,,1614895116,788781890,"""0""",12.0,1.375,12.1999998093,0.0
1614967143781523942,,69401,,1614895116,838813713,"""0""",12.0,2.0,12.1999998093,0.0
1614967143819330930,,69402,,1614895116,888771734,"""0""",12.0,2.0,12.1999998093,0.0
1614967143866612911,,69403,,1614895116,938873296,"""0""",12.0,1.75,12.1999998093,0.0
1614967143920929908,,69404,,1614895116,988779025,"""0""",12.0,1.75,12.1999998093,0.0
1614967143969131946,,69405,,1614895117,38845536,"""0""",12.0,1.75,12.1999998093,0.0
1614967144023753881,,69406,,1614895117,88814077,"""0""",12.0,1.75,12.1999998093,0.0
1614967144068813085,,69407,,1614895117,138784546,"""0""",12.0,1.75,12.1999998093,0.0
1614967144118665933,,69408,,1614895117,188876942,"""0""",12.0,1.75,12.1999998093,0.0
1614967144180459976,,69409,,1614895117,238809338,"""0""",12.0,1.75,12.1999998093,0.0
1614967144220778942,,69410,,1614895117,288785640,"""0""",12.0,1.75,12.1999998093,0.0
1614967144271315097,,69411,,1614895117,338783140,"""0""",12.0,1.75,12.1999998093,0.0
1614967144321505069,,69412,,1614895117,388850535,"""0""",12.0,1.75,12.1999998093,0.0
1614967144380048990,,69413,,1614895117,438769233,"""0""",12.0,1.75,12.1999998093,0.0
1614967144420229911,,69414,,1614895117,488913973,"""0""",12.0,1.75,12.1999998093,0.0
1614967144473095893,,69415,,1614895117,538886733,"""0""",12.0,1.375,12.1999998093,0.0
1614967144518868923,,69416,,1614895117,588852202,"""0""",12.0,1.375,12.1999998093,0.0
1614967144569315910,,69417,,1614895117,638854129,"""0""",12.0,1.75,12.25,0.0
1614967144615745067,,69418,,1614895117,688844389,"""0""",12.0,1.75,12.25,0.0
1614967144681859016,,69419,,1614895117,738811473,"""0""",12.0,1.75,12.25,0.0
1614967144725011110,,69420,,1614895117,788789546,"""0""",12.0,1.75,12.1999998093,0.0
1614967144782411098,,69421,,1614895117,839202514,"""0""",12.0,1.375,12.1999998093,0.0
1614967144826982021,,69422,,1614895117,888824910,"""0""",12.0,1.75,12.1999998093,0.0
1614967144880652904,,69423,,1614895117,938846004,"""0""",12.0,2.375,12.1999998093,0.0
1614967144922522068,,69424,,1614895117,988974858,"""0""",12.0,2.375,12.1999998093,0.0
1614967144991961002,,69425,,1614895118,38848400,"""0""",12.0,2.0,12.1999998093,0.0
1614967145036330938,,69426,,1614895118,88925223,"""0""",12.0,2.0,12.1999998093,0.0
1614967145072709083,,69427,,1614895118,138865483,"""0""",12.0,2.0,12.1999998093,0.0
1614967145124900102,,69428,,1614895118,188808296,"""0""",12.0,2.0,12.1999998093,0.0
1614967145172674894,,69429,,1614895118,238776316,"""0""",12.0,2.0,12.1999998093,0.0
1614967145225290060,,69430,,1614895118,288848764,"""0""",12.0,2.0,12.1999998093,0.0
1614967145270944118,,69431,,1614895118,338789910,"""0""",12.0,1.75,12.1999998093,0.0
1614967145322489023,,69432,,1614895118,388796160,"""0""",12.0,1.75,12.1999998093,0.0
1614967145375808954,,69433,,1614895118,438837462,"""0""",12.0,1.75,12.1999998093,0.0
1614967145424916028,,69434,,1614895118,488879181,"""0""",12.0,1.75,12.1999998093,0.0
1614967145478615045,,69435,,1614895118,538833920,"""0""",12.0,1.75,12.1999998093,0.0
1614967145522394895,,69436,,1614895118,588797097,"""0""",12.0,1.375,12.25,0.0
1614967145577456951,,69437,,1614895118,638772775,"""0""",12.0,1.375,12.25,0.0
1614967145621007919,,69438,,1614895118,688795483,"""0""",12.0,1.75,12.25,0.0
1614967145681389093,,69439,,1614895118,738782358,"""0""",12.0,2.0,12.1999998093,0.0
1614967145717318058,,69440,,1614895118,788785170,"""0""",12.0,2.375,12.1999998093,0.0
1614967145776694059,,69441,,1614895118,838811785,"""0""",12.0,2.375,12.1999998093,0.0
1614967145819027900,,69442,,1614895118,888886993,"""0""",12.0,2.0,12.1999998093,0.0
1614967145872466087,,69443,,1614895118,938839649,"""0""",12.0,1.75,12.1999998093,0.0
1614967145926731109,,69444,,1614895118,988821629,"""0""",12.0,1.75,12.1999998093,0.0
1614967145975599050,,69445,,1614895119,38753712,"""0""",12.0,1.75,12.1999998093,0.0
1614967146021631002,,69446,,1614895119,88789389,"""0""",12.0,1.75,12.1999998093,0.0
1614967146080337047,,69447,,1614895119,138781837,"""0""",12.0,1.75,12.1999998093,0.0
1614967146123019933,,69448,,1614895119,188799128,"""0""",12.0,1.75,12.1999998093,0.0
1614967146171452999,,69449,,1614895119,238786576,"""0""",12.0,1.75,12.1499996185,0.0
1614967146221437931,,69450,,1614895119,288809545,"""0""",12.0,1.75,12.1499996185,0.0
1614967146274444103,,69451,,1614895119,338767097,"""0""",12.0,1.75,12.1499996185,0.0
1614967146317981958,,69452,,1614895119,388825014,"""0""",12.0,2.0,12.1999998093,0.0
1614967146372076034,,69453,,1614895119,438765483,"""0""",12.0,2.0,12.1999998093,0.0
1614967146423031091,,69454,,1614895119,488766055,"""0""",12.0,1.75,12.1999998093,0.0
1614967146473391056,,69455,,1614895119,538796368,"""0""",12.0,1.75,12.25,0.0
1614967146527610063,,69456,,1614895119,588785639,"""0""",12.0,1.75,12.25,0.0
1614967146573594093,,69457,,1614895119,638781993,"""0""",12.0,1.75,12.25,0.0
1614967146627926111,,69458,,1614895119,688782514,"""0""",12.0,1.75,12.1999998093,0.0
1614967146688455104,,69459,,1614895119,738853087,"""0""",12.0,1.75,12.1999998093,0.0
1614967146721647024,,69460,,1614895119,788779493,"""0""",12.0,1.75,12.1999998093,0.0
1614967146783596992,,69461,,1614895119,838780170,"""0""",12.0,1.75,12.1999998093,0.0
1614967146826402902,,69462,,1614895119,888823607,"""0""",12.0,2.0,12.1999998093,0.0
1614967146872100114,,69463,,1614895119,938817566,"""0""",12.0,1.75,12.1999998093,0.0
1614967146920825958,,69464,,1614895119,988816889,"""0""",12.0,1.375,12.1999998093,0.0
1614967146972527027,,69465,,1614895120,38792514,"""0""",12.0,1.75,12.1999998093,0.0
1614967147024621009,,69466,,1614895120,89764284,"""0""",12.0,1.75,12.1999998093,0.0
1614967147069740056,,69467,,1614895120,138786368,"""0""",12.0,1.375,12.1999998093,0.0
1614967147121514081,,69468,,1614895120,188902878,"""0""",12.0,1.375,12.1999998093,0.0
1614967147168158054,,69469,,1614895120,238784857,"""0""",12.0,1.375,12.1999998093,0.0
1614967147226716995,,69470,,1614895120,289231211,"""0""",12.0,1.375,12.1999998093,0.0
1614967147324012041,,69471,,1614895120,338786159,"""0""",12.0,1.375,12.1999998093,0.0
1614967147324155092,,69472,,1614895120,389060482,"""0""",12.0,1.375,12.1999998093,0.0
1614967147371949911,,69473,,1614895120,438870170,"""0""",12.0,1.75,12.1999998093,0.0
1614967147421442031,,69474,,1614895120,488844493,"""0""",12.0,1.75,12.1999998093,0.0
1614967147474438905,,69475,,1614895120,538889440,"""0""",12.0,1.75,12.1999998093,0.0
1614967147517494916,,69476,,1614895120,589084284,"""0""",12.0,1.75,12.1999998093,0.0
1614967147579536914,,69477,,1614895120,638816420,"""0""",12.0,1.75,12.25,0.0
1614967147616672039,,69478,,1614895120,688996003,"""0""",12.0,1.75,12.25,0.0
1614967147683777093,,69479,,1614895120,738818867,"""0""",12.0,1.75,12.25,0.0
1614967147737909078,,69480,,1614895120,788820586,"""0""",12.0,1.75,12.25,0.0
1614967147789288997,,69481,,1614895120,838782982,"""0""",12.0,1.375,12.1999998093,0.0
1614967147841605901,,69482,,1614895120,888845951,"""0""",12.0,1.375,12.1999998093,0.0
1614967147881609916,,69483,,1614895120,938832409,"""0""",12.0,1.375,12.1999998093,0.0
1614967147953131914,,69484,,1614895120,988815117,"""0""",12.0,1.0,12.25,0.0
1614967148027793884,,69485,,1614895121,38778503,"""0""",12.0,1.0,12.25,0.0
1614967148027915954,,69486,,1614895121,89025742,"""0""",12.0,1.0,12.25,0.0
1614967148074737071,,69487,,1614895121,138782930,"""0""",12.0,1.0,12.25,0.0
1614967148119430065,,69488,,1614895121,188856471,"""0""",12.0,1.0,12.25,0.0
1614967148171585083,,69489,,1614895121,238860326,"""0""",12.0,0.625,12.25,0.0
1614967148218072891,,69490,,1614895121,289284857,"""0""",12.0,0.625,12.3000001907,0.0
1614967148270461082,,69491,,1614895121,338763399,"""0""",12.0,0.375,12.3000001907,0.0
1614967148313684940,,69492,,1614895121,388793346,"""0""",12.0,0.375,12.3000001907,0.0
1614967148375770092,,69493,,1614895121,438755117,"""0""",12.0,0.0,12.3500003815,0.0
1614967148418311119,,69494,,1614895121,488846159,"""0""",12.0,0.0,12.3500003815,0.0
1614967148475223064,,69495,,1614895121,538813346,"""0""",12.0,0.0,12.3500003815,0.0
1614967148527951955,,69496,,1614895121,588781628,"""0""",12.0,0.0,12.3500003815,0.0
1614967148578579902,,69497,,1614895121,638950638,"""0""",12.0,0.0,12.3999996185,0.0
1614967148636555910,,69498,,1614895121,688778034,"""0""",12.0,0.0,12.3999996185,0.0
1614967148696095943,,69499,,1614895121,738792357,"""0""",12.0,0.0,12.3999996185,0.0
1614967148727093935,,69500,,1614895121,788798034,"""0""",12.0,0.375,12.3000001907,0.0
1614967148786684036,,69501,,1614895121,838805221,"""0""",12.0,0.375,12.3000001907,0.0
1614967148834229946,,69502,,1614895121,888779023,"""0""",12.0,0.375,12.3000001907,0.0
1614967148871846914,,69503,,1614895121,938772461,"""0""",12.0,0.375,12.3000001907,0.0
1614967148919322013,,69504,,1614895121,988786732,"""0""",12.0,0.375,12.3000001907,0.0
1614967148974061965,,69505,,1614895122,38853138,"""0""",12.0,1.0,12.3000001907,0.0
1614967149017271041,,69506,,1614895122,88790638,"""0""",12.0,0.625,12.25,0.0
1614967149074070930,,69507,,1614895122,138783294,"""0""",12.0,0.625,12.25,0.0
1614967149115792036,,69508,,1614895122,188786263,"""0""",12.0,1.0,12.25,0.0
1614967149177196979,,69509,,1614895122,238755325,"""0""",12.0,1.75,12.1999998093,0.0
1614967149227051019,,69510,,1614895122,288904804,"""0""",12.0,1.375,12.1999998093,0.0
1614967149287147045,,69511,,1614895122,338878034,"""0""",12.0,0.625,12.1999998093,0.0
1614967149334974050,,69512,,1614895122,388794804,"""0""",12.0,0.625,12.1999998093,0.0
1614967149385410070,,69513,,1614895122,438807773,"""0""",12.0,0.625,12.3000001907,0.0
1614967149418414115,,69514,,1614895122,488806575,"""0""",12.0,0.625,12.3000001907,0.0
1614967149472028017,,69515,,1614895122,538784856,"""0""",12.0,1.0,12.3000001907,0.0
1614967149536451101,,69516,,1614895122,588924127,"""0""",12.0,0.625,12.25,0.0
1614967149576560974,,69517,,1614895122,638768658,"""0""",12.0,0.625,12.25,0.0
1614967149624316930,,69518,,1614895122,688790481,"""0""",12.0,1.0,12.25,0.0
1614967149676966905,,69519,,1614895122,738842513,"""0""",12.0,0.625,12.25,0.0
1614967149719728946,,69520,,1614895122,788807408,"""0""",12.0,1.0,12.25,0.0
1614967149770690917,,69521,,1614895122,838768450,"""0""",12.0,0.625,12.25,0.0
1614967149829349994,,69522,,1614895122,888784127,"""0""",12.0,1.0,12.25,0.0
1614967149873414039,,69523,,1614895122,938810585,"""0""",12.0,1.375,12.25,0.0
1614967149921247005,,69524,,1614895122,988783971,"""0""",12.0,1.375,12.25,0.0
1614967149973897933,,69525,,1614895123,38760794,"""0""",12.0,1.0,12.25,0.0
1614967150020812034,,69526,,1614895123,88774492,"""0""",12.0,0.625,12.25,0.0
1614967150068722963,,69527,,1614895123,138774856,"""0""",12.0,0.625,12.25,0.0
1614967150135276079,,69528,,1614895123,188810637,"""0""",12.0,0.625,12.25,0.0
1614967150180495977,,69529,,1614895123,238750064,"""0""",12.0,0.625,12.25,0.0
1614967150221304893,,69530,,1614895123,288871939,"""0""",12.0,0.625,12.25,0.0
1614967150268933057,,69531,,1614895123,338801887,"""0""",12.0,0.625,12.25,0.0
1614967150324924945,,69532,,1614895123,388791002,"""0""",12.0,0.625,12.25,0.0
1614967150427934885,,69533,,1614895123,438910481,"""0""",12.0,1.0,12.25,0.0
1614967150463576078,,69534,,1614895123,488828502,"""0""",12.0,1.0,12.25,0.0
1614967150512453079,,69535,,1614895123,538776054,"""0""",12.0,0.625,12.25,0.0
1614967150563844919,,69536,,1614895123,588780689,"""0""",12.0,0.625,12.25,0.0
1614967150608048915,,69537,,1614895123,638779127,"""0""",12.0,0.625,12.25,0.0
1614967150659249067,,69538,,1614895123,688867825,"""0""",12.0,0.625,12.25,0.0
1614967150727291107,,69539,,1614895123,738790950,"""0""",12.0,0.625,12.25,0.0
1614967150727775096,,69540,,1614895123,788825741,"""0""",12.0,0.625,12.25,0.0
1614967150772464036,,69541,,1614895123,839286887,"""0""",12.0,0.625,12.25,0.0
1614967150825139045,,69542,,1614895123,888787095,"""0""",12.0,0.625,12.25,0.0
1614967150893243074,,69543,,1614895123,938926158,"""0""",12.0,0.625,12.25,0.0
1614967150938577890,,69544,,1614895123,988984700,"""0""",12.0,1.0,12.25,0.0
1614967150969906091,,69545,,1614895124,38877512,"""0""",12.0,0.625,12.25,0.0
1614967151038252115,,69546,,1614895124,88803762,"""0""",12.0,0.625,12.25,0.0
1614967151068531990,,69547,,1614895124,138788762,"""0""",12.0,0.375,12.25,0.0
1614967151123749971,,69548,,1614895124,188851991,"""0""",12.0,0.625,12.3000001907,0.0
1614967151179270029,,69549,,1614895124,238806002,"""0""",12.0,1.375,12.3000001907,0.0
1614967151225281953,,69550,,1614895124,288838085,"""0""",12.0,1.375,12.3000001907,0.0
1614967151323962926,,69551,,1614895124,338863293,"""0""",12.0,1.0,12.25,0.0
1614967151368026018,,69552,,1614895124,388755272,"""0""",12.0,0.625,12.25,0.0
1614967151403573036,,69553,,1614895124,438803501,"""0""",12.0,0.625,12.25,0.0
1614967151447240114,,69554,,1614895124,488794283,"""0""",12.0,0.625,12.25,0.0
1614967151481787919,,69555,,1614895124,538797668,"""0""",12.0,1.375,12.25,0.0
1614967151526705026,,69556,,1614895124,588775949,"""0""",12.0,1.0,12.25,0.0
1614967151576324939,,69557,,1614895124,638782772,"""0""",12.0,0.625,12.25,0.0
1614967151631493091,,69558,,1614895124,688779699,"""0""",12.0,0.625,12.25,0.0
1614967151665493011,,69559,,1614895124,738937824,"""0""",12.0,0.625,12.25,0.0
1614967151729166030,,69560,,1614895124,788816001,"""0""",12.0,0.625,12.25,0.0
1614967151787370920,,69561,,1614895124,838815324,"""0""",12.0,0.625,12.25,0.0
1614967151819405078,,69562,,1614895124,888797564,"""0""",12.0,1.0,12.25,0.0
1614967151873786926,,69563,,1614895124,938950064,"""0""",12.0,1.375,12.25,0.0
1614967151934765100,,69564,,1614895124,988908137,"""0""",12.0,1.75,12.1999998093,0.0
1614967151973752021,,69565,,1614895125,38818085,"""0""",12.0,1.75,12.1999998093,0.0
1614967152023478031,,69566,,1614895125,88770897,"""0""",12.0,1.375,12.1999998093,0.0
1614967152072839021,,69567,,1614895125,138820012,"""0""",12.0,1.375,12.1999998093,0.0
1614967152121452093,,69568,,1614895125,188845220,"""0""",12.0,1.75,12.1999998093,0.0
1614967152173743963,,69569,,1614895125,238799491,"""0""",12.0,1.375,12.1999998093,0.0
1614967152228193998,,69570,,1614895125,288868032,"""0""",12.0,1.375,12.1999998093,0.0
1614967152275460958,,69571,,1614895125,338811262,"""0""",12.0,1.375,12.1999998093,0.0
1614967152320828914,,69572,,1614895125,388770741,"""0""",12.0,1.0,12.1999998093,0.0
1614967152373472929,,69573,,1614895125,438778814,"""0""",12.0,1.0,12.25,0.0
1614967152417828083,,69574,,1614895125,488780012,"""0""",12.0,1.375,12.25,0.0
1614967152480159044,,69575,,1614895125,538797928,"""0""",12.0,2.0,12.25,0.0
1614967152527725934,,69576,,1614895125,588770532,"""0""",12.0,2.0,12.25,0.0
1614967152595119953,,69577,,1614895125,638799230,"""0""",12.0,1.0,12.1999998093,0.0
1614967152633452892,,69578,,1614895125,688799074,"""0""",12.0,0.625,12.1999998093,0.0
1614967152676444053,,69579,,1614895125,738814595,"""0""",12.0,0.625,12.1999998093,0.0
1614967152717897891,,69580,,1614895125,788807772,"""0""",12.0,1.375,12.25,0.0
1614967152771781921,,69581,,1614895125,838801782,"""0""",12.0,1.75,12.25,0.0
1614967152832717895,,69582,,1614895125,888805116,"""0""",12.0,1.0,12.25,0.0
1614967152879410982,,69583,,1614895125,938801782,"""0""",12.0,1.0,12.25,0.0
1614967152920330047,,69584,,1614895125,988766730,"""0""",12.0,0.625,12.25,0.0
1614967152979346036,,69585,,1614895126,38845220,"""0""",12.0,0.625,12.25,0.0
1614967153022443056,,69586,,1614895126,88798605,"""0""",12.0,1.0,12.25,0.0
1614967153097341060,,69587,,1614895126,138795793,"""0""",12.0,1.375,12.25,0.0
1614967153146392107,,69588,,1614895126,188826782,"""0""",12.0,1.0,12.25,0.0
1614967153183399915,,69589,,1614895126,238783865,"""0""",12.0,0.625,12.25,0.0
1614967153226944923,,69590,,1614895126,288773501,"""0""",12.0,0.625,12.25,0.0
1614967153288496971,,69591,,1614895126,338774386,"""0""",12.0,1.0,12.25,0.0
1614967153340920925,,69592,,1614895126,388798553,"""0""",12.0,0.625,12.25,0.0
1614967153408598899,,69593,,1614895126,438812563,"""0""",12.0,0.625,12.25,0.0
1614967153452985048,,69594,,1614895126,488770949,"""0""",12.0,0.375,12.25,0.0
1614967153517040014,,69595,,1614895126,538776626,"""0""",12.0,0.625,12.25,0.0
1614967153549024105,,69596,,1614895126,588860167,"""0""",12.0,2.0,12.1999998093,0.0
1614967153604610919,,69597,,1614895126,638790532,"""0""",12.0,4.0,12.1999998093,0.0
1614967153637918949,,69598,,1614895126,688878136,"""0""",12.0,3.875,12.1999998093,0.0
