rosbagTimestamp,header,seq,stamp,secs,nsecs,frame_id,Temperature,OutputCurrent,BusVoltage,ClosedLoopError
1614971339292402029,,153303,,1614899311,938877946,"""0""",12.0,0.0,12.3999996185,0.0
1614971339332149028,,153304,,1614899311,988855914,"""0""",12.0,0.0,12.3999996185,0.0
1614971339384927034,,153305,,1614899312,38821123,"""0""",12.0,0.0,12.3999996185,0.0
1614971339433865070,,153306,,1614899312,88780862,"""0""",12.0,0.0,12.3999996185,0.0
1614971339494674921,,153307,,1614899312,138787685,"""0""",12.0,0.0,12.3999996185,0.0
1614971339532835006,,153308,,1614899312,188786019,"""0""",12.0,0.0,12.3999996185,0.0
1614971339589808940,,153309,,1614899312,238772269,"""0""",12.0,0.0,12.3999996185,0.0
1614971339632536888,,153310,,1614899312,288779508,"""0""",12.0,0.0,12.3999996185,0.0
1614971339691812992,,153311,,1614899312,338786175,"""0""",12.0,0.0,12.3999996185,0.0
1614971339739371061,,153312,,1614899312,388790393,"""0""",12.0,0.0,12.3999996185,0.0
1614971339793195009,,153313,,1614899312,438787893,"""0""",12.0,0.0,12.3999996185,0.0
1614971339835421085,,153314,,1614899312,488791591,"""0""",12.0,0.0,12.3999996185,0.0
1614971339901103019,,153315,,1614899312,538767841,"""0""",12.0,0.0,12.3999996185,0.0
1614971339950125932,,153316,,1614899312,588847268,"""0""",12.0,0.0,12.3999996185,0.0
1614971339991832971,,153317,,1614899312,638788779,"""0""",12.0,0.0,12.3999996185,0.0
1614971340038839101,,153318,,1614899312,688785914,"""0""",12.0,0.0,12.3999996185,0.0
1614971340096095085,,153319,,1614899312,738799195,"""0""",12.0,0.0,12.3999996185,0.0
1614971340153587102,,153320,,1614899312,788796591,"""0""",12.0,0.0,12.3999996185,0.0
1614971340200493097,,153321,,1614899312,838762737,"""0""",12.0,0.0,12.3999996185,0.0
1614971340255116939,,153322,,1614899312,888882216,"""0""",12.0,0.0,12.3999996185,0.0
1614971340301124095,,153323,,1614899312,938766175,"""0""",12.0,0.0,12.3999996185,0.0
1614971340346106052,,153324,,1614899312,988812320,"""0""",12.0,0.0,12.3999996185,0.0
1614971340403338909,,153325,,1614899313,38864299,"""0""",12.0,0.0,12.3999996185,0.0
1614971340441035032,,153326,,1614899313,88889612,"""0""",12.0,0.0,12.3999996185,0.0
1614971340500134944,,153327,,1614899313,138872997,"""0""",12.0,0.0,12.3999996185,0.0
1614971340558722972,,153328,,1614899313,188891852,"""0""",12.0,0.0,12.3999996185,0.0
1614971340603141069,,153329,,1614899313,238910133,"""0""",12.0,0.0,12.3999996185,0.0
1614971340649822950,,153330,,1614899313,288853674,"""0""",12.0,0.0,12.3999996185,0.0
1614971340705949068,,153331,,1614899313,338762893,"""0""",12.0,0.0,12.3999996185,0.0
1614971340749309062,,153332,,1614899313,388851591,"""0""",12.0,0.0,12.3999996185,0.0
1614971340802426099,,153333,,1614899313,438801539,"""0""",12.0,0.0,12.3999996185,0.0
1614971340875225067,,153334,,1614899313,488900706,"""0""",12.0,0.0,12.3999996185,0.0
1614971340896698951,,153335,,1614899313,538786174,"""0""",12.0,0.0,12.3999996185,0.0
1614971340948967933,,153336,,1614899313,588826018,"""0""",12.0,0.0,12.3999996185,0.0
1614971341000133991,,153337,,1614899313,638748987,"""0""",12.0,0.0,12.3999996185,0.0
1614971341050548076,,153338,,1614899313,688801695,"""0""",12.0,0.0,12.3999996185,0.0
1614971341107394933,,153339,,1614899313,738808205,"""0""",12.0,0.0,12.3999996185,0.0
1614971341166320085,,153340,,1614899313,788845862,"""0""",12.0,0.0,12.3999996185,0.0
1614971341203732967,,153341,,1614899313,838766122,"""0""",12.0,0.0,12.3999996185,0.0
1614971341250783920,,153342,,1614899313,888885185,"""0""",12.0,0.0,12.3999996185,0.0
1614971341301922082,,153343,,1614899313,938805549,"""0""",12.0,0.0,12.3999996185,0.0
1614971341353750944,,153344,,1614899313,988910185,"""0""",12.0,0.0,12.3999996185,0.0
1614971341402084112,,153345,,1614899314,38843674,"""0""",12.0,0.0,12.3999996185,0.0
1614971341467704057,,153346,,1614899314,88910289,"""0""",12.0,0.0,12.3999996185,0.0
1614971341499305009,,153347,,1614899314,138807737,"""0""",12.0,0.0,12.3999996185,0.0
1614971341551830053,,153348,,1614899314,188784716,"""0""",12.0,0.0,12.3999996185,0.0
1614971341618751049,,153349,,1614899314,238936226,"""0""",12.0,0.0,12.3999996185,0.0
1614971341649501085,,153350,,1614899314,288793205,"""0""",12.0,0.0,12.3999996185,0.0
1614971341708970069,,153351,,1614899314,338732164,"""0""",12.0,0.0,12.3999996185,0.0
1614971341755162000,,153352,,1614899314,388856799,"""0""",12.0,0.0,12.3999996185,0.0
1614971341806318044,,153353,,1614899314,438855757,"""0""",12.0,0.0,12.3999996185,0.0
1614971341857295036,,153354,,1614899314,489112528,"""0""",12.0,0.0,12.3999996185,0.0
1614971341902246952,,153355,,1614899314,538797841,"""0""",12.0,0.0,12.3999996185,0.0
1614971341964747905,,153356,,1614899314,588794403,"""0""",12.0,0.0,12.3999996185,0.0
1614971341999813079,,153357,,1614899314,638788518,"""0""",12.0,0.0,12.3999996185,0.0
1614971342061480045,,153358,,1614899314,688791174,"""0""",12.0,0.0,12.3999996185,0.0
1614971342112400054,,153359,,1614899314,738795653,"""0""",12.0,0.0,12.3999996185,0.0
1614971342164238929,,153360,,1614899314,788806226,"""0""",12.0,0.0,12.3999996185,0.0
1614971342213213920,,153361,,1614899314,838807893,"""0""",12.0,0.0,12.3999996185,0.0
1614971342269783973,,153362,,1614899314,888814715,"""0""",12.0,0.0,12.3999996185,0.0
1614971342303230047,,153363,,1614899314,938763413,"""0""",12.0,0.0,12.3999996185,0.0
1614971342360192060,,153364,,1614899314,988803049,"""0""",12.0,0.0,12.3999996185,0.0
1614971342422563076,,153365,,1614899315,38778465,"""0""",12.0,0.0,12.3999996185,0.0
1614971342470036029,,153366,,1614899315,88820340,"""0""",12.0,0.0,12.3999996185,0.0
1614971342508388042,,153367,,1614899315,138816226,"""0""",12.0,0.0,12.3999996185,0.0
1614971342550900936,,153368,,1614899315,188854247,"""0""",12.0,0.0,12.3999996185,0.0
1614971342603775024,,153369,,1614899315,238778257,"""0""",12.0,0.0,12.3999996185,0.0
1614971342681956052,,153370,,1614899315,288811642,"""0""",12.0,0.0,12.3999996185,0.0
1614971342725912094,,153371,,1614899315,338787632,"""0""",12.0,0.0,12.3999996185,0.0
1614971342785342931,,153372,,1614899315,388800288,"""0""",12.0,0.0,12.3999996185,0.0
1614971342823290109,,153373,,1614899315,438779455,"""0""",12.0,0.0,12.3999996185,0.0
1614971342847711086,,153374,,1614899315,488836382,"""0""",12.0,0.0,12.3999996185,0.0
1614971342899280071,,153375,,1614899315,538787007,"""0""",12.0,0.0,12.3999996185,0.0
1614971342974828958,,153376,,1614899315,588803934,"""0""",12.0,0.0,12.3999996185,0.0
1614971342997240066,,153377,,1614899315,638794194,"""0""",12.0,0.0,12.3999996185,0.0
1614971343053167104,,153378,,1614899315,688798621,"""0""",12.0,0.0,12.3999996185,0.0
1614971343101897954,,153379,,1614899315,739256590,"""0""",12.0,0.0,12.3999996185,0.0
1614971343154283046,,153380,,1614899315,788823673,"""0""",12.0,0.0,12.3999996185,0.0
1614971343212843894,,153381,,1614899315,838785340,"""0""",12.0,0.0,12.3999996185,0.0
1614971343255424976,,153382,,1614899315,888796694,"""0""",12.0,0.0,12.3999996185,0.0
1614971343333681106,,153383,,1614899315,938859403,"""0""",12.0,0.0,12.3999996185,0.0
1614971343356549024,,153384,,1614899315,988800392,"""0""",12.0,0.0,12.3999996185,0.0
1614971343405831098,,153385,,1614899316,38781173,"""0""",12.0,0.0,12.3999996185,0.0
1614971343454531908,,153386,,1614899316,88878257,"""0""",12.0,0.0,12.3999996185,0.0
1614971343507025957,,153387,,1614899316,138785340,"""0""",12.0,0.0,12.3999996185,0.0
1614971343591164112,,153388,,1614899316,188856277,"""0""",12.0,0.0,12.3999996185,0.0
1614971343642765045,,153389,,1614899316,238785965,"""0""",12.0,0.0,12.3999996185,0.0
1614971343692660093,,153390,,1614899316,288898673,"""0""",12.0,0.0,12.3999996185,0.0
1614971343733151912,,153391,,1614899316,338775027,"""0""",12.0,0.0,12.3999996185,0.0
1614971343777180910,,153392,,1614899316,388836277,"""0""",12.0,0.0,12.3999996185,0.0
1614971343811414003,,153393,,1614899316,438899923,"""0""",12.0,0.0,12.3999996185,0.0
1614971343882230043,,153394,,1614899316,488776434,"""0""",12.0,0.0,12.3999996185,0.0
1614971343922348976,,153395,,1614899316,538782736,"""0""",12.0,0.0,12.3999996185,0.0
1614971343958142995,,153396,,1614899316,588797059,"""0""",12.0,0.0,12.3999996185,0.0
1614971344003753900,,153397,,1614899316,638739350,"""0""",12.0,0.0,12.3999996185,0.0
1614971344051069974,,153398,,1614899316,690481329,"""0""",12.0,0.0,12.3999996185,0.0
1614971344109772920,,153399,,1614899316,738792319,"""0""",12.0,0.0,12.3999996185,0.0
1614971344167969942,,153400,,1614899316,788805600,"""0""",12.0,0.0,12.3999996185,0.0
1614971344204986095,,153401,,1614899316,838779090,"""0""",12.0,0.0,12.3999996185,0.0
1614971344257463932,,153402,,1614899316,888792996,"""0""",12.0,0.0,12.3999996185,0.0
1614971344310775995,,153403,,1614899316,938772579,"""0""",12.0,0.0,12.3999996185,0.0
1614971344349164962,,153404,,1614899316,988794819,"""0""",12.0,0.0,12.3999996185,0.0
1614971344411580085,,153405,,1614899317,38777527,"""0""",12.0,0.0,12.3999996185,0.0
1614971344477334976,,153406,,1614899317,89137267,"""0""",12.0,0.0,12.3999996185,0.0
1614971344530067920,,153407,,1614899317,138814038,"""0""",12.0,0.0,12.3999996185,0.0
1614971344563446044,,153408,,1614899317,188885444,"""0""",12.0,0.0,12.3999996185,0.0
1614971344604705095,,153409,,1614899317,238797631,"""0""",12.0,0.0,12.3999996185,0.0
1614971344665632009,,153410,,1614899317,288795860,"""0""",12.0,0.0,12.3999996185,0.0
1614971344724073886,,153411,,1614899317,338824923,"""0""",12.0,0.0,12.3999996185,0.0
1614971344765863895,,153412,,1614899317,388808933,"""0""",12.0,0.0,12.3999996185,0.0
1614971344800184011,,153413,,1614899317,438788933,"""0""",12.0,0.0,12.3999996185,0.0
1614971344858412027,,153414,,1614899317,488833412,"""0""",12.0,0.0,12.3999996185,0.0
1614971344904349088,,153415,,1614899317,538788933,"""0""",12.0,0.0,12.3999996185,0.0
1614971344954169034,,153416,,1614899317,588796589,"""0""",12.0,0.0,12.3999996185,0.0
1614971345008168935,,153417,,1614899317,638780235,"""0""",12.0,0.0,12.3999996185,0.0
1614971345061316967,,153418,,1614899317,688774610,"""0""",12.0,0.0,12.3999996185,0.0
1614971345098212003,,153419,,1614899317,738768412,"""0""",12.0,0.0,12.3999996185,0.0
1614971345150109052,,153420,,1614899317,788954714,"""0""",12.0,0.0,12.3999996185,0.0
1614971345204061031,,153421,,1614899317,838793725,"""0""",12.0,0.0,12.3999996185,0.0
1614971345251240015,,153422,,1614899317,888792214,"""0""",12.0,0.0,12.3999996185,0.0
1614971345308315992,,153423,,1614899317,938765027,"""0""",12.0,0.0,12.3999996185,0.0
1614971345375150918,,153424,,1614899317,988797527,"""0""",12.0,0.0,12.3999996185,0.0
1614971345417541980,,153425,,1614899318,38758568,"""0""",12.0,0.0,12.3999996185,0.0
1614971345450706958,,153426,,1614899318,88794714,"""0""",12.0,0.0,12.3999996185,0.0
1614971345505775928,,153427,,1614899318,138829714,"""0""",12.0,0.0,12.3999996185,0.0
1614971345555756092,,153428,,1614899318,188807891,"""0""",12.0,0.0,12.3999996185,0.0
1614971345606791019,,153429,,1614899318,238803829,"""0""",12.0,0.0,12.3999996185,0.0
1614971345682106971,,153430,,1614899318,288795704,"""0""",12.0,0.0,12.3999996185,0.0
1614971345715759992,,153431,,1614899318,338793881,"""0""",12.0,0.0,12.3999996185,0.0
1614971345766110897,,153432,,1614899318,388786902,"""0""",12.0,14.125,12.3999996185,0.0
1614971345805210113,,153433,,1614899318,438787475,"""0""",12.0,11.125,12.3999996185,0.0
1614971345858454942,,153434,,1614899318,488801225,"""0""",12.0,8.875,11.75,0.0
1614971345900682926,,153435,,1614899318,538825860,"""0""",12.0,9.875,11.75,0.0
1614971345954643011,,153436,,1614899318,588882631,"""0""",12.0,12.875,11.75,0.0
1614971345997658967,,153437,,1614899318,638841172,"""0""",12.0,13.5,11.75,0.0
1614971346057235956,,153438,,1614899318,688868360,"""0""",12.0,11.625,11.5500001907,0.0
1614971346103388071,,153439,,1614899318,738852162,"""0""",12.0,10.875,11.5500001907,0.0
1614971346154906988,,153440,,1614899318,788875287,"""0""",12.0,7.875,11.5500001907,0.0
1614971346207184076,,153441,,1614899318,838775495,"""0""",12.0,6.75,12.0500001907,0.0
1614971346267627000,,153442,,1614899318,888862683,"""0""",12.0,3.0,12.0500001907,0.0
1614971346308950901,,153443,,1614899318,938831797,"""0""",12.0,3.0,12.0500001907,0.0
1614971346354720115,,153444,,1614899318,988950131,"""0""",12.0,1.375,12.1999998093,0.0
1614971346403158903,,153445,,1614899319,38879141,"""0""",12.0,1.0,12.1999998093,0.0
1614971346455881118,,153446,,1614899319,88837631,"""0""",12.0,1.0,12.1999998093,0.0
1614971346507854938,,153447,,1614899319,138779922,"""0""",12.0,1.0,12.25,0.0
1614971346583200931,,153448,,1614899319,188814141,"""0""",12.0,1.0,12.25,0.0
1614971346618802070,,153449,,1614899319,238773776,"""0""",12.0,1.0,12.25,0.0
1614971346650635004,,153450,,1614899319,288753880,"""0""",12.0,0.625,12.25,0.0
1614971346705110073,,153451,,1614899319,338768047,"""0""",12.0,0.375,12.25,0.0
1614971346749552965,,153452,,1614899319,388781849,"""0""",12.0,0.375,12.25,0.0
1614971346801127910,,153453,,1614899319,438770703,"""0""",12.0,0.625,12.25,0.0
1614971346848695039,,153454,,1614899319,488792995,"""0""",12.0,0.375,12.25,0.0
1614971346903036117,,153455,,1614899319,538857110,"""0""",12.0,0.625,12.25,0.0
1614971346953697919,,153456,,1614899319,588783880,"""0""",12.0,0.625,12.25,0.0
1614971346995282888,,153457,,1614899319,638769974,"""0""",12.0,0.625,12.25,0.0
1614971347056644916,,153458,,1614899319,688907005,"""0""",12.0,1.0,12.25,0.0
1614971347133757114,,153459,,1614899319,738859818,"""0""",12.0,1.0,12.25,0.0
1614971347198494911,,153460,,1614899319,788846901,"""0""",12.0,1.0,12.25,0.0
1614971347244198083,,153461,,1614899319,838792474,"""0""",12.0,1.0,12.25,0.0
1614971347280766010,,153462,,1614899319,888824766,"""0""",12.0,1.0,12.25,0.0
1614971347329564094,,153463,,1614899319,938739505,"""0""",12.0,1.0,12.1999998093,0.0
1614971347352443933,,153464,,1614899319,988834089,"""0""",12.0,2.375,12.1999998093,0.0
1614971347401671886,,153465,,1614899320,38820807,"""0""",12.0,2.375,12.1999998093,0.0
1614971347484138011,,153466,,1614899320,88814036,"""0""",12.0,5.75,12.0,0.0
1614971347507004022,,153467,,1614899320,138811276,"""0""",12.0,6.875,12.0,0.0
1614971347563941001,,153468,,1614899320,188778568,"""0""",12.0,6.75,12.0,0.0
1614971347601186990,,153469,,1614899320,238855338,"""0""",12.0,5.75,12.0,0.0
1614971347649683952,,153470,,1614899320,288796849,"""0""",12.0,5.125,12.0500001907,0.0
1614971347710619926,,153471,,1614899320,338774922,"""0""",12.0,7.25,12.0500001907,0.0
1614971347748724937,,153472,,1614899320,388871640,"""0""",12.0,6.75,12.0500001907,0.0
1614971347803965091,,153473,,1614899320,438800130,"""0""",12.0,3.375,12.1000003815,0.0
1614971347848004102,,153474,,1614899320,488859140,"""0""",12.0,4.75,12.1000003815,0.0
1614971347903700113,,153475,,1614899320,538759245,"""0""",12.0,6.5,12.1000003815,0.0
1614971347956878900,,153476,,1614899320,588846692,"""0""",12.0,3.375,12.1000003815,0.0
1614971348002621889,,153477,,1614899320,638852422,"""0""",12.0,3.375,12.1000003815,0.0
1614971348059339046,,153478,,1614899320,688844140,"""0""",12.0,6.125,12.1000003815,0.0
1614971348104883909,,153479,,1614899320,738887057,"""0""",12.0,5.75,12.0500001907,0.0
1614971348149624109,,153480,,1614899320,788821328,"""0""",12.0,3.0,12.0500001907,0.0
1614971348205492973,,153481,,1614899320,838832630,"""0""",12.0,2.0,12.0500001907,0.0
1614971348250776052,,153482,,1614899320,888928984,"""0""",12.0,3.0,12.0500001907,0.0
1614971348307178974,,153483,,1614899320,938820130,"""0""",12.0,4.125,12.0500001907,0.0
1614971348360726118,,153484,,1614899320,988796171,"""0""",12.0,7.125,12.0500001907,0.0
1614971348413992881,,153485,,1614899321,38785963,"""0""",12.0,6.5,12.0500001907,0.0
1614971348450326919,,153486,,1614899321,88799557,"""0""",12.0,4.125,12.0500001907,0.0
1614971348505214929,,153487,,1614899321,138802317,"""0""",12.0,3.375,12.0500001907,0.0
1614971348554971933,,153488,,1614899321,188809088,"""0""",12.0,5.75,12.0500001907,0.0
1614971348600552082,,153489,,1614899321,238789765,"""0""",12.0,5.5,12.0500001907,0.0
1614971348658535003,,153490,,1614899321,288892838,"""0""",12.0,3.375,12.0500001907,0.0
1614971348708353042,,153491,,1614899321,338772057,"""0""",12.0,2.0,12.0500001907,0.0
1614971348758780002,,153492,,1614899321,388795859,"""0""",12.0,2.375,12.1000003815,0.0
1614971348803575038,,153493,,1614899321,438791380,"""0""",12.0,1.375,12.1000003815,0.0
1614971348848247051,,153494,,1614899321,488892473,"""0""",12.0,1.0,12.1000003815,0.0
1614971348920176982,,153495,,1614899321,539129765,"""0""",12.0,1.0,12.25,0.0
1614971348977011919,,153496,,1614899321,588845911,"""0""",12.0,1.0,12.25,0.0
1614971349036775112,,153497,,1614899321,638845130,"""0""",12.0,1.0,12.25,0.0
1614971349075619935,,153498,,1614899321,688788567,"""0""",12.0,2.0,12.1499996185,0.0
1614971349118522882,,153499,,1614899321,738767421,"""0""",12.0,1.75,12.1499996185,0.0
1614971349156656026,,153500,,1614899321,788807786,"""0""",12.0,2.375,12.1499996185,0.0
1614971349199834108,,153501,,1614899321,838794296,"""0""",12.0,2.75,12.1499996185,0.0
1614971349266060113,,153502,,1614899321,888792213,"""0""",12.0,2.0,12.1499996185,0.0
1614971349299839019,,153503,,1614899321,938845338,"""0""",12.0,2.75,12.1499996185,0.0
1614971349348362922,,153504,,1614899321,988805859,"""0""",12.0,2.75,12.1499996185,0.0
1614971349401757001,,153505,,1614899322,38784504,"""0""",12.0,3.0,12.1000003815,0.0
1614971349450609922,,153506,,1614899322,88837161,"""0""",12.0,2.75,12.1000003815,0.0
1614971349502756118,,153507,,1614899322,138801379,"""0""",12.0,6.625,12.1000003815,0.0
1614971349583043098,,153508,,1614899322,188903723,"""0""",11.0,10.0,11.6999998093,0.0
1614971349642303943,,153509,,1614899322,238826952,"""0""",11.0,7.25,11.6999998093,0.0
1614971349687069892,,153510,,1614899322,288781171,"""0""",11.0,6.75,11.6999998093,0.0
1614971349725727081,,153511,,1614899322,338778306,"""0""",11.0,7.0,11.8500003815,0.0
1614971349772627115,,153512,,1614899322,388810650,"""0""",11.0,8.125,11.8500003815,0.0
1614971349802514076,,153513,,1614899322,438789713,"""0""",11.0,8.625,11.8500003815,0.0
1614971349873326063,,153514,,1614899322,488901952,"""0""",11.0,9.625,11.75,0.0
1614971349907735109,,153515,,1614899322,538816588,"""0""",11.0,8.625,11.75,0.0
1614971349957987070,,153516,,1614899322,588801952,"""0""",11.0,10.125,11.75,0.0
1614971350003216028,,153517,,1614899322,638767369,"""0""",11.0,10.0,11.75,0.0
1614971350053473949,,153518,,1614899322,688795181,"""0""",12.0,9.625,11.6999998093,0.0
1614971350111357927,,153519,,1614899322,738897212,"""0""",12.0,10.125,11.6999998093,0.0
1614971350169595003,,153520,,1614899322,788826900,"""0""",12.0,9.875,11.6999998093,0.0
1614971350200539112,,153521,,1614899322,838803723,"""0""",11.0,9.625,11.6000003815,0.0
1614971350252089023,,153522,,1614899322,888882837,"""0""",11.0,9.75,11.6000003815,0.0
1614971350302077054,,153523,,1614899322,938891848,"""0""",11.0,9.625,11.6000003815,0.0
1614971350354882001,,153524,,1614899322,988797264,"""0""",11.0,8.75,11.75,0.0
1614971350408252954,,153525,,1614899323,38806275,"""0""",11.0,9.25,11.75,0.0
1614971350452552080,,153526,,1614899323,88835650,"""0""",11.0,8.75,11.75,0.0
1614971350508676052,,153527,,1614899323,138815910,"""0""",11.0,9.5,11.6000003815,0.0
1614971350570074081,,153528,,1614899323,188818619,"""0""",11.0,9.25,11.6000003815,0.0
1614971350602693080,,153529,,1614899323,238827629,"""0""",11.0,8.125,11.6000003815,0.0
1614971350656459093,,153530,,1614899323,288837525,"""0""",11.0,7.875,11.8500003815,0.0
1614971350711606979,,153531,,1614899323,338886535,"""0""",11.0,7.75,11.8500003815,0.0
1614971350773801088,,153532,,1614899323,388799973,"""0""",11.0,8.125,11.8500003815,0.0
1614971350812681913,,153533,,1614899323,438769556,"""0""",11.0,7.75,11.8500003815,0.0
1614971350849484920,,153534,,1614899323,488856900,"""0""",11.0,7.125,11.8500003815,0.0
1614971350905510902,,153535,,1614899323,538841014,"""0""",11.0,6.75,11.8500003815,0.0
1614971350950390100,,153536,,1614899323,588823775,"""0""",11.0,3.0,11.8500003815,0.0
1614971351015300989,,153537,,1614899323,638745545,"""0""",11.0,2.75,12.1000003815,0.0
1614971351057594060,,153538,,1614899323,688834295,"""0""",11.0,1.75,12.1000003815,0.0
1614971351112710952,,153539,,1614899323,738796691,"""0""",11.0,1.0,12.1000003815,0.0
1614971351152575969,,153540,,1614899323,788921743,"""0""",11.0,0.375,12.1999998093,0.0
1614971351212599992,,153541,,1614899323,838773618,"""0""",11.0,0.375,12.1999998093,0.0
1614971351255110979,,153542,,1614899323,888860233,"""0""",11.0,0.375,12.1999998093,0.0
1614971351313973903,,153543,,1614899323,938848462,"""0""",11.0,0.375,12.25,0.0
1614971351374381065,,153544,,1614899323,988937993,"""0""",11.0,0.0,12.25,0.0
1614971351405241966,,153545,,1614899324,38944191,"""0""",11.0,0.0,12.25,0.0
1614971351462946891,,153546,,1614899324,88915910,"""0""",11.0,0.625,12.1999998093,0.0
1614971351504090070,,153547,,1614899324,138798983,"""0""",11.0,0.625,12.1999998093,0.0
1614971351553534984,,153548,,1614899324,188791743,"""0""",11.0,0.0,12.1999998093,0.0
1614971351634183883,,153549,,1614899324,238806274,"""0""",11.0,0.0,12.1999998093,0.0
1614971351683414936,,153550,,1614899324,288794816,"""0""",11.0,2.375,12.25,0.0
1614971351712335109,,153551,,1614899324,338838931,"""0""",11.0,3.0,12.25,0.0
1614971351758057117,,153552,,1614899324,388789295,"""0""",11.0,7.5,12.25,0.0
1614971351804060935,,153553,,1614899324,438780337,"""0""",11.0,7.5,11.8500003815,0.0
1614971351857633113,,153554,,1614899324,488942264,"""0""",11.0,7.875,11.8500003815,0.0
1614971351919126987,,153555,,1614899324,538824868,"""0""",11.0,8.75,11.8500003815,0.0
1614971351985754013,,153556,,1614899324,588794087,"""0""",11.0,9.625,11.6000003815,0.0
1614971352009954929,,153557,,1614899324,638783670,"""0""",11.0,9.25,11.6000003815,0.0
1614971352052671909,,153558,,1614899324,689050597,"""0""",11.0,10.0,11.6000003815,0.0
1614971352111589908,,153559,,1614899324,738794920,"""0""",11.0,10.875,11.5500001907,0.0
1614971352163131952,,153560,,1614899324,788815805,"""0""",11.0,10.0,11.5500001907,0.0
1614971352213673114,,153561,,1614899324,838942107,"""0""",11.0,10.5,11.5500001907,0.0
1614971352281794071,,153562,,1614899324,888778514,"""0""",11.0,11.625,11.4499998093,0.0
1614971352310508012,,153563,,1614899324,938812993,"""0""",11.0,11.5,11.4499998093,0.0
1614971352365096092,,153564,,1614899324,989100441,"""0""",11.0,8.875,11.4499998093,0.0
1614971352404716968,,153565,,1614899325,38841378,"""0""",11.0,10.125,11.4499998093,0.0
1614971352480580091,,153566,,1614899325,88917576,"""0""",11.0,10.75,11.6000003815,0.0
1614971352509871006,,153567,,1614899325,138769659,"""0""",11.0,9.625,11.6000003815,0.0
1614971352560882091,,153568,,1614899325,188783149,"""0""",11.0,9.25,11.6000003815,0.0
1614971352605577945,,153569,,1614899325,238763618,"""0""",11.0,9.25,11.6999998093,0.0
1614971352661331892,,153570,,1614899325,288846066,"""0""",11.0,9.125,11.6999998093,0.0
1614971352718352079,,153571,,1614899325,338801430,"""0""",11.0,8.375,11.6999998093,0.0
1614971352765054941,,153572,,1614899325,388820545,"""0""",11.0,8.0,11.8000001907,0.0
1614971352839581012,,153573,,1614899325,438775232,"""0""",11.0,8.0,11.8000001907,0.0
1614971352911530017,,153574,,1614899325,488789243,"""0""",11.0,8.125,11.8000001907,0.0
1614971352911648035,,153575,,1614899325,538794451,"""0""",11.0,7.875,11.8000001907,0.0
1614971352952013969,,153576,,1614899325,588896066,"""0""",11.0,7.5,11.8000001907,0.0
1614971353032212018,,153577,,1614899325,638815545,"""0""",11.0,7.375,11.8000001907,0.0
1614971353059173107,,153578,,1614899325,688807628,"""0""",11.0,7.5,11.8000001907,0.0
1614971353105833053,,153579,,1614899325,738790388,"""0""",11.0,7.5,11.8000001907,0.0
1614971353161505937,,153580,,1614899325,788838149,"""0""",11.0,7.75,11.8000001907,0.0
1614971353221456050,,153581,,1614899325,838786951,"""0""",11.0,7.875,11.8000001907,0.0
1614971353253859043,,153582,,1614899325,888914711,"""0""",11.0,7.5,11.8500003815,0.0
1614971353304053068,,153583,,1614899325,938787784,"""0""",11.0,7.375,11.8500003815,0.0
1614971353353996992,,153584,,1614899325,988825857,"""0""",11.0,7.625,11.8500003815,0.0
1614971353411657094,,153585,,1614899326,38777055,"""0""",11.0,7.875,11.75,0.0
1614971353453496932,,153586,,1614899326,88834503,"""0""",11.0,7.5,11.75,0.0
1614971353512068033,,153587,,1614899326,138788669,"""0""",11.0,7.0,11.75,0.0
1614971353582941055,,153588,,1614899326,188935076,"""0""",11.0,7.125,11.8999996185,0.0
1614971353622615098,,153589,,1614899326,238783149,"""0""",11.0,7.375,11.8999996185,0.0
1614971353651370048,,153590,,1614899326,288859607,"""0""",11.0,8.125,11.8999996185,0.0
1614971353712146997,,153591,,1614899326,338780076,"""0""",11.0,7.875,11.8500003815,0.0
1614971353786051034,,153592,,1614899326,388811742,"""0""",11.0,7.75,11.8500003815,0.0
1614971353828670024,,153593,,1614899326,438948149,"""0""",11.0,7.75,11.8500003815,0.0
1614971353859966993,,153594,,1614899326,488809763,"""0""",11.0,7.625,11.8500003815,0.0
1614971353912097930,,153595,,1614899326,538838044,"""0""",11.0,7.625,11.8500003815,0.0
1614971353951272010,,153596,,1614899326,588802055,"""0""",11.0,7.75,11.8500003815,0.0
1614971354007843017,,153597,,1614899326,638814815,"""0""",11.0,8.0,11.8500003815,0.0
1614971354090960025,,153598,,1614899326,688969971,"""0""",11.0,7.75,11.75,0.0
1614971354142626047,,153599,,1614899326,738795753,"""0""",11.0,7.75,11.75,0.0
1614971354191653966,,153600,,1614899326,788947680,"""0""",11.0,8.0,11.75,0.0
1614971354224723100,,153601,,1614899326,838838617,"""0""",11.0,7.875,11.75,0.0
1614971354254851102,,153602,,1614899326,889386794,"""0""",11.0,7.5,11.75,0.0
1614971354310908079,,153603,,1614899326,938868513,"""0""",11.0,7.5,11.75,0.0
1614971354375653982,,153604,,1614899326,989042159,"""0""",11.0,8.25,11.75,0.0
1614971354401715993,,153605,,1614899327,38845805,"""0""",11.0,8.125,11.75,0.0
1614971354453999042,,153606,,1614899327,88841325,"""0""",11.0,7.875,11.75,0.0
1614971354503731966,,153607,,1614899327,138791325,"""0""",11.0,8.0,11.75,0.0
1614971354556387901,,153608,,1614899327,189137732,"""0""",11.0,8.0,11.75,0.0
1614971354605320930,,153609,,1614899327,238895648,"""0""",11.0,7.75,11.75,0.0
1614971354675940990,,153610,,1614899327,288782315,"""0""",11.0,7.875,11.75,0.0
1614971354707297086,,153611,,1614899327,338763513,"""0""",11.0,7.875,11.75,0.0
1614971354760349035,,153612,,1614899327,389362054,"""0""",11.0,8.0,11.75,0.0
1614971354820365905,,153613,,1614899327,438823825,"""0""",11.0,8.25,11.75,0.0
1614971354865084886,,153614,,1614899327,488970856,"""0""",11.0,8.0,11.6999998093,0.0
1614971354925131082,,153615,,1614899327,538909502,"""0""",11.0,7.625,11.6999998093,0.0
1614971354981487035,,153616,,1614899327,588811794,"""0""",11.0,7.25,11.6999998093,0.0
1614971355030910015,,153617,,1614899327,638819711,"""0""",11.0,7.125,11.8500003815,0.0
1614971355066179990,,153618,,1614899327,688791638,"""0""",11.0,7.125,11.8500003815,0.0
1614971355110502958,,153619,,1614899327,738830961,"""0""",11.0,7.375,11.8500003815,0.0
1614971355153918981,,153620,,1614899327,788992731,"""0""",11.0,7.375,11.75,0.0
1614971355211489915,,153621,,1614899327,838801273,"""0""",11.0,7.0,11.75,0.0
1614971355272346973,,153622,,1614899327,888873304,"""0""",11.0,5.75,11.75,0.0
1614971355336885929,,153623,,1614899327,938775804,"""0""",11.0,7.125,11.8000001907,0.0
1614971355382981061,,153624,,1614899327,988802367,"""0""",11.0,7.875,11.8000001907,0.0
1614971355432549953,,153625,,1614899328,38772679,"""0""",11.0,7.75,11.8000001907,0.0
1614971355477229118,,153626,,1614899328,88837783,"""0""",11.0,7.75,11.8000001907,0.0
1614971355583777904,,153627,,1614899328,138786690,"""0""",11.0,7.75,11.8000001907,0.0
1614971355584033012,,153628,,1614899328,188814137,"""0""",11.0,7.625,11.8000001907,0.0
1614971355658225059,,153629,,1614899328,238808669,"""0""",11.0,7.75,11.8000001907,0.0
1614971355695061922,,153630,,1614899328,288781585,"""0""",11.0,7.75,11.75,0.0
1614971355742527961,,153631,,1614899328,338782106,"""0""",11.0,7.625,11.75,0.0
1614971355790266990,,153632,,1614899328,388890179,"""0""",11.0,7.0,11.75,0.0
1614971355865931034,,153633,,1614899328,438812106,"""0""",11.0,6.625,11.9499998093,0.0
1614971355899199962,,153634,,1614899328,488814867,"""0""",11.0,6.75,11.9499998093,0.0
1614971355943917036,,153635,,1614899328,538819866,"""0""",11.0,5.75,11.9499998093,0.0
1614971355991342067,,153636,,1614899328,588807210,"""0""",11.0,6.125,11.8999996185,0.0
1614971356041587114,,153637,,1614899328,638858460,"""0""",11.0,3.75,11.8999996185,0.0
1614971356106601953,,153638,,1614899328,688790856,"""0""",11.0,1.75,11.8999996185,0.0
1614971356150656938,,153639,,1614899328,738766741,"""0""",11.0,1.0,12.1499996185,0.0
1614971356190707921,,153640,,1614899328,788909346,"""0""",11.0,0.375,12.1499996185,0.0
1614971356256346940,,153641,,1614899328,838780856,"""0""",11.0,0.0,12.1499996185,0.0
1614971356289624929,,153642,,1614899328,888807523,"""0""",11.0,0.625,12.1499996185,0.0
1614971356313935041,,153643,,1614899328,938946585,"""0""",11.0,1.0,12.1499996185,0.0
1614971356370111942,,153644,,1614899328,988787210,"""0""",11.0,1.0,12.1499996185,0.0
1614971356451822996,,153645,,1614899329,38897835,"""0""",11.0,0.625,12.1499996185,0.0
1614971356504369974,,153646,,1614899329,88829398,"""0""",11.0,0.375,12.1999998093,0.0
1614971356552706003,,153647,,1614899329,138829970,"""0""",11.0,0.625,12.1999998093,0.0
1614971356628634929,,153648,,1614899329,188774710,"""0""",11.0,1.0,12.1999998093,0.0
1614971356628907918,,153649,,1614899329,238821429,"""0""",11.0,1.0,12.1499996185,0.0
1614971356658070087,,153650,,1614899329,288828825,"""0""",11.0,1.0,12.1499996185,0.0
1614971356716006040,,153651,,1614899329,338793981,"""0""",11.0,1.375,12.1499996185,0.0
1614971356762767076,,153652,,1614899329,388780856,"""0""",11.0,2.0,12.1000003815,0.0
1614971356812573909,,153653,,1614899329,438788772,"""0""",11.0,3.0,12.1000003815,0.0
1614971356866513967,,153654,,1614899329,488782679,"""0""",11.0,4.75,12.1000003815,0.0
1614971356904788017,,153655,,1614899329,538798408,"""0""",11.0,6.625,11.9499998093,0.0
1614971356964340925,,153656,,1614899329,588777314,"""0""",11.0,5.5,11.9499998093,0.0
1614971357023252964,,153657,,1614899329,638879033,"""0""",11.0,3.375,11.9499998093,0.0
1614971357055609941,,153658,,1614899329,688820543,"""0""",11.0,1.75,12.1000003815,0.0
1614971357105761051,,153659,,1614899329,738780387,"""0""",11.0,7.625,12.1000003815,0.0
1614971357171042919,,153660,,1614899329,788804918,"""0""",11.0,7.625,12.1000003815,0.0
1614971357212116003,,153661,,1614899329,838802106,"""0""",11.0,3.375,12.1000003815,0.0
1614971357273968935,,153662,,1614899329,888854137,"""0""",11.0,3.0,12.1000003815,0.0
1614971357344418048,,153663,,1614899329,938919241,"""0""",11.0,5.125,12.1000003815,0.0
1614971357384713888,,153664,,1614899329,988865908,"""0""",11.0,1.375,12.1000003815,0.0
1614971357439819097,,153665,,1614899330,38805751,"""0""",11.0,1.0,12.1499996185,0.0
1614971357479804039,,153666,,1614899330,88758199,"""0""",11.0,2.75,12.1499996185,0.0
1614971357534702062,,153667,,1614899330,138802678,"""0""",11.0,4.125,12.1499996185,0.0
1614971357577678918,,153668,,1614899330,188798199,"""0""",11.0,6.75,11.8999996185,0.0
1614971357611506938,,153669,,1614899330,238876064,"""0""",11.0,4.375,11.8999996185,0.0
1614971357677007913,,153670,,1614899330,288929605,"""0""",11.0,4.75,11.8999996185,0.0
1614971357711714982,,153671,,1614899330,338806793,"""0""",11.0,3.0,12.0500001907,0.0
1614971357758374929,,153672,,1614899330,388798043,"""0""",11.0,6.625,12.0500001907,0.0
1614971357825305938,,153673,,1614899330,438796585,"""0""",11.0,7.0,12.0500001907,0.0
1614971357854847908,,153674,,1614899330,488762053,"""0""",11.0,3.0,12.0500001907,0.0
1614971357908061981,,153675,,1614899330,538802470,"""0""",11.0,5.125,12.0500001907,0.0
1614971357976430892,,153676,,1614899330,588782522,"""0""",11.0,2.375,12.0500001907,0.0
1614971358038683891,,153677,,1614899330,638802626,"""0""",11.0,2.375,12.0500001907,0.0
1614971358066049098,,153678,,1614899330,688772626,"""0""",11.0,3.375,12.0500001907,0.0
1614971358102715015,,153679,,1614899330,739012678,"""0""",11.0,2.375,12.0500001907,0.0
1614971358158888101,,153680,,1614899330,788769293,"""0""",11.0,1.375,12.0500001907,0.0
1614971358236109018,,153681,,1614899330,838799814,"""0""",11.0,6.125,12.1000003815,0.0
1614971358270761013,,153682,,1614899330,888790126,"""0""",11.0,7.875,12.1000003815,0.0
1614971358307643890,,153683,,1614899330,938912991,"""0""",11.0,7.125,12.1000003815,0.0
1614971358358290910,,153684,,1614899330,988821793,"""0""",11.0,7.875,11.6999998093,0.0
1614971358421354055,,153685,,1614899331,38828511,"""0""",11.0,8.125,11.6999998093,0.0
1614971358470428943,,153686,,1614899331,88818563,"""0""",11.0,8.375,11.6999998093,0.0
1614971358520200014,,153687,,1614899331,138910334,"""0""",11.0,8.75,11.6000003815,0.0
1614971358563489913,,153688,,1614899331,188837105,"""0""",11.0,9.75,11.6000003815,0.0
1614971358629937887,,153689,,1614899331,238801011,"""0""",11.0,11.125,11.6000003815,0.0
1614971358663753032,,153690,,1614899331,288784293,"""0""",11.0,12.5,11.5,0.0
1614971358707029104,,153691,,1614899331,338805907,"""0""",11.0,11.625,11.5,0.0
1614971358756361961,,153692,,1614899331,388840230,"""0""",11.0,11.375,11.5,0.0
1614971358812369108,,153693,,1614899331,439111428,"""0""",11.0,12.25,11.5,0.0
1614971358878439903,,153694,,1614899331,488851428,"""0""",11.0,12.5,11.5,0.0
1614971358913305997,,153695,,1614899331,538797626,"""0""",11.0,11.375,11.5,0.0
1614971358964287996,,153696,,1614899331,588807522,"""0""",11.0,11.125,11.5,0.0
1614971359006663084,,153697,,1614899331,638838876,"""0""",11.0,12.0,11.5,0.0
1614971359061939954,,153698,,1614899331,688796428,"""0""",11.0,10.125,11.5,0.0
1614971359106770038,,153699,,1614899331,738800803,"""0""",11.0,8.375,11.5,0.0
1614971359164309978,,153700,,1614899331,788773042,"""0""",11.0,8.625,11.8500003815,0.0
1614971359221755027,,153701,,1614899331,838918771,"""0""",11.0,14.0,11.8500003815,0.0
1614971359281176090,,153702,,1614899331,888831063,"""0""",11.0,7.5,11.8500003815,0.0
1614971359310247898,,153703,,1614899331,938870178,"""0""",11.0,6.75,11.8999996185,0.0
1614971359365047931,,153704,,1614899331,988928199,"""0""",11.0,4.75,11.8999996185,0.0
1614971359413111925,,153705,,1614899332,38798042,"""0""",11.0,3.375,11.8999996185,0.0
1614971359463917016,,153706,,1614899332,88832678,"""0""",11.0,1.0,12.1499996185,0.0
1614971359506016969,,153707,,1614899332,138830073,"""0""",11.0,0.0,12.1499996185,0.0
1614971359566286087,,153708,,1614899332,188775855,"""0""",11.0,0.0,12.1499996185,0.0
1614971359614500045,,153709,,1614899332,238866948,"""0""",11.0,0.0,12.1499996185,0.0
1614971359666286945,,153710,,1614899332,288789188,"""0""",11.0,0.0,12.1999998093,0.0
1614971359704426050,,153711,,1614899332,338921063,"""0""",11.0,0.0,12.1999998093,0.0
1614971359758408069,,153712,,1614899332,388794396,"""0""",11.0,0.0,12.1999998093,0.0
1614971359815696001,,153713,,1614899332,438839084,"""0""",11.0,0.0,12.3999996185,0.0
1614971359860400915,,153714,,1614899332,488937573,"""0""",11.0,0.0,12.3999996185,0.0
1614971359903784036,,153715,,1614899332,538794605,"""0""",11.0,0.0,12.3999996185,0.0
1614971359947119951,,153716,,1614899332,588819552,"""0""",11.0,0.0,12.3999996185,0.0
1614971360759453058,,153717,,1614899332,638832573,"""0""",11.0,0.0,12.3999996185,0.0
1614971360761790037,,153718,,1614899332,688759813,"""0""",11.0,0.625,12.3999996185,0.0
1614971360761980056,,153719,,1614899332,738766896,"""0""",11.0,1.0,12.1999998093,0.0
1614971360762061119,,153720,,1614899332,788769448,"""0""",11.0,1.0,12.1999998093,0.0
1614971360762088060,,153721,,1614899332,838858407,"""0""",11.0,1.0,12.1999998093,0.0
1614971361104629039,,153722,,1614899332,888776427,"""0""",11.0,1.375,12.1000003815,0.0
1614971361104733943,,153723,,1614899332,938873198,"""0""",11.0,1.0,12.1000003815,0.0
1614971361104754924,,153724,,1614899332,988776584,"""0""",11.0,3.0,12.1000003815,0.0
1614971361104805946,,153725,,1614899333,38901011,"""0""",11.0,6.75,12.1000003815,0.0
1614971361104829072,,153726,,1614899333,88778406,"""0""",11.0,7.125,11.8999996185,0.0
1614971361104849100,,153727,,1614899333,138785958,"""0""",11.0,8.0,11.8999996185,0.0
1614971361104883909,,153728,,1614899333,188788927,"""0""",11.0,8.5,11.8999996185,0.0
1614971361104903936,,153729,,1614899333,238884761,"""0""",11.0,9.0,11.6499996185,0.0
1614971361104923009,,153730,,1614899333,288772365,"""0""",11.0,9.0,11.6499996185,0.0
1614971361104943037,,153731,,1614899333,338792156,"""0""",11.0,8.875,11.6499996185,0.0
1614971361104962110,,153732,,1614899333,388780177,"""0""",11.0,9.125,11.6999998093,0.0
1614971361104983091,,153733,,1614899333,438781896,"""0""",11.0,9.375,11.6999998093,0.0
1614971361105000972,,153734,,1614899333,488819708,"""0""",11.0,10.125,11.6999998093,0.0
1614971361105020999,,153735,,1614899333,538789604,"""0""",11.0,10.5,11.5500001907,0.0
1614971361271949052,,153736,,1614899333,588771635,"""0""",11.0,11.375,11.5500001907,0.0
1614971361271992921,,153737,,1614899333,638819292,"""0""",11.0,11.375,11.5500001907,0.0
1614971361272022962,,153738,,1614899333,688774552,"""0""",11.0,11.25,11.5,0.0
1614971361272053003,,153739,,1614899333,738768719,"""0""",11.0,11.25,11.5,0.0
1614971361295329093,,153740,,1614899333,788765958,"""0""",11.0,11.25,11.5,0.0
1614971361295495986,,153741,,1614899333,838809187,"""0""",11.0,11.125,11.5,0.0
1614971361295525074,,153742,,1614899333,888776792,"""0""",11.0,11.25,11.5500001907,0.0
1614971361787635087,,153743,,1614899333,938794917,"""0""",11.0,11.375,11.5500001907,0.0
1614971361788332939,,153744,,1614899333,988749031,"""0""",11.0,11.625,11.5500001907,0.0
1614971361788388967,,153745,,1614899334,38782625,"""0""",11.0,11.625,11.5,0.0
1614971362425349950,,153746,,1614899334,88770437,"""0""",11.0,11.5,11.5,0.0
1614971362425489902,,153747,,1614899334,138791896,"""0""",11.0,12.0,11.5,0.0
1614971362425558090,,153748,,1614899334,188775594,"""0""",11.0,12.5,11.3999996185,0.0
1614971362425579071,,153749,,1614899334,238839239,"""0""",11.0,12.375,11.3999996185,0.0
1614971362425604104,,153750,,1614899334,288836375,"""0""",11.0,12.125,11.3999996185,0.0
1614971362425632953,,153751,,1614899334,338797885,"""0""",11.0,12.0,11.4499998093,0.0
1614971362425657033,,153752,,1614899334,388868562,"""0""",11.0,12.0,11.4499998093,0.0
1614971362425681114,,153753,,1614899334,438840906,"""0""",11.0,12.25,11.4499998093,0.0
1614971362425704956,,153754,,1614899334,488766323,"""0""",11.0,12.0,11.3999996185,0.0
1614971362425729036,,153755,,1614899334,538810750,"""0""",11.0,12.0,11.3999996185,0.0
1614971362425753116,,153756,,1614899334,588774812,"""0""",11.0,11.75,11.3999996185,0.0
1614971362618149995,,153757,,1614899334,638856479,"""0""",11.0,11.5,11.3999996185,0.0
1614971362618335008,,153758,,1614899334,688801583,"""0""",11.0,11.375,11.5,0.0
1614971362618388891,,153759,,1614899334,738846635,"""0""",11.0,11.375,11.5,0.0
1614971362618422031,,153760,,1614899334,788790125,"""0""",11.0,11.375,11.5,0.0
1614971362618467092,,153761,,1614899334,838790333,"""0""",11.0,11.375,11.5500001907,0.0
1614971362618490934,,153762,,1614899334,888783510,"""0""",11.0,11.375,11.5500001907,0.0
1614971362618511915,,153763,,1614899334,938844604,"""0""",11.0,11.625,11.5500001907,0.0
1614971362618539094,,153764,,1614899334,988784760,"""0""",11.0,11.625,11.5,0.0
1614971362618602991,,153765,,1614899335,38778197,"""0""",11.0,11.625,11.5,0.0
1614971362618627071,,153766,,1614899335,88796583,"""0""",11.0,12.25,11.5,0.0
1614971362755219936,,153767,,1614899335,138827572,"""0""",11.0,12.375,11.5,0.0
1614971362755269050,,153768,,1614899335,188792260,"""0""",11.0,12.125,11.5,0.0
1614971362755302906,,153769,,1614899335,238913406,"""0""",11.0,12.125,11.5,0.0
1614971362791872024,,153770,,1614899335,289036270,"""0""",11.0,11.875,11.5,0.0
1614971362792196989,,153771,,1614899335,338839551,"""0""",11.0,11.5,11.5,0.0
1614971362793209075,,153772,,1614899335,388804395,"""0""",11.0,11.625,11.5,0.0
1614971362944123029,,153773,,1614899335,438789031,"""0""",11.0,11.625,11.5,0.0
1614971362944237947,,153774,,1614899335,488817468,"""0""",11.0,10.75,11.5,0.0
1614971362944259881,,153775,,1614899335,538907155,"""0""",11.0,10.125,11.5,0.0
1614971363135354995,,153776,,1614899335,588866062,"""0""",11.0,9.625,11.5,0.0
1614971363601341009,,153777,,1614899335,638790541,"""0""",11.0,9.375,11.6499996185,0.0
1614971363601490974,,153778,,1614899335,688800385,"""0""",11.0,9.0,11.6499996185,0.0
1614971363601512908,,153779,,1614899335,738797885,"""0""",11.0,8.875,11.6499996185,0.0
1614971363601535081,,153780,,1614899335,788862416,"""0""",11.0,8.625,11.6499996185,0.0
1614971363601555109,,153781,,1614899335,838846739,"""0""",11.0,8.375,11.6499996185,0.0
1614971363601574897,,153782,,1614899335,888851374,"""0""",11.0,8.0,11.6499996185,0.0
1614971363601594924,,153783,,1614899335,938855489,"""0""",11.0,7.875,11.6999998093,0.0
1614971363601615905,,153784,,1614899335,988911009,"""0""",11.0,7.75,11.6999998093,0.0
1614971363601634025,,153785,,1614899336,38812572,"""0""",11.0,7.625,11.6999998093,0.0
1614971363675683975,,153786,,1614899336,88861582,"""0""",11.0,7.125,11.8500003815,0.0
1614971363675740003,,153787,,1614899336,138784343,"""0""",11.0,1.25,11.8500003815,0.0
1614971363675812959,,153788,,1614899336,188866374,"""0""",11.0,0.0,11.8500003815,0.0
1614971363675837039,,153789,,1614899336,238794551,"""0""",11.0,0.0,11.8500003815,0.0
1614971363675858974,,153790,,1614899336,288819186,"""0""",11.0,0.0,12.25,0.0
1614971363697973966,,153791,,1614899336,338797520,"""0""",11.0,0.0,12.25,0.0
1614971363746728897,,153792,,1614899336,388806843,"""0""",11.0,0.0,12.25,0.0
1614971363801521062,,153793,,1614899336,438791113,"""0""",11.0,0.0,12.25,0.0
1614971363853714942,,153794,,1614899336,488791530,"""0""",11.0,0.0,12.25,0.0
1614971363904422998,,153795,,1614899336,538780697,"""0""",11.0,0.0,12.25,0.0
1614971363949095964,,153796,,1614899336,588792728,"""0""",11.0,0.0,12.25,0.0
1614971363993319034,,153797,,1614899336,638791218,"""0""",11.0,0.0,12.25,0.0
1614971364046227931,,153798,,1614899336,688785697,"""0""",11.0,0.0,12.25,0.0
1614971364097845077,,153799,,1614899336,738787259,"""0""",11.0,0.0,12.25,0.0
1614971364148046016,,153800,,1614899336,788791322,"""0""",11.0,0.0,12.25,0.0
1614971364197630882,,153801,,1614899336,838795593,"""0""",11.0,0.0,12.25,0.0
1614971364256761074,,153802,,1614899336,888889551,"""0""",11.0,0.0,12.25,0.0
1614971364312546968,,153803,,1614899336,938892572,"""0""",11.0,0.0,12.25,0.0
1614971364352993965,,153804,,1614899336,988821999,"""0""",11.0,0.0,12.25,0.0
1614971364406274080,,153805,,1614899337,38785332,"""0""",11.0,0.0,12.25,0.0
1614971364469161033,,153806,,1614899337,88790488,"""0""",11.0,0.0,12.25,0.0
1614971364504400014,,153807,,1614899337,138827624,"""0""",11.0,0.0,12.25,0.0
1614971364546822071,,153808,,1614899337,188915332,"""0""",11.0,0.0,12.25,0.0
1614971364597769975,,153809,,1614899337,238771061,"""0""",11.0,0.0,12.25,0.0
1614971364650357961,,153810,,1614899337,288878196,"""0""",11.0,0.0,12.25,0.0
1614971364700824022,,153811,,1614899337,338777780,"""0""",11.0,0.0,12.25,0.0
1614971364742717027,,153812,,1614899337,388796321,"""0""",11.0,0.0,12.25,0.0
1614971364804244995,,153813,,1614899337,438763769,"""0""",11.0,0.0,12.25,0.0
1614971364856221914,,153814,,1614899337,488801894,"""0""",11.0,0.0,12.25,0.0
1614971364905731916,,153815,,1614899337,538799655,"""0""",12.0,0.0,12.25,0.0
1614971364955394029,,153816,,1614899337,588796321,"""0""",12.0,0.0,12.25,0.0
1614971365014242887,,153817,,1614899337,638788353,"""0""",12.0,0.0,12.25,0.0
1614971365057348012,,153818,,1614899337,688766790,"""0""",12.0,0.0,12.25,0.0
1614971365110574007,,153819,,1614899337,738781061,"""0""",12.0,0.0,12.25,0.0
1614971365159930944,,153820,,1614899337,788808300,"""0""",12.0,0.0,12.25,0.0
1614971365205174922,,153821,,1614899337,838781582,"""0""",12.0,0.0,12.25,0.0
1614971365246682882,,153822,,1614899337,888783769,"""0""",12.0,0.0,12.25,0.0
1614971365302668094,,153823,,1614899337,938791686,"""0""",12.0,0.0,12.25,0.0
1614971365382050991,,153824,,1614899337,988893457,"""0""",12.0,0.0,12.25,0.0
1614971365430088996,,153825,,1614899338,38840175,"""0""",12.0,0.0,12.25,0.0
1614971365465661048,,153826,,1614899338,88798352,"""0""",12.0,0.0,12.25,0.0
1614971365498115062,,153827,,1614899338,138791269,"""0""",12.0,0.0,12.25,0.0
1614971365550720930,,153828,,1614899338,188942259,"""0""",12.0,0.0,12.25,0.0
1614971365606547117,,153829,,1614899338,238782363,"""0""",12.0,0.0,12.25,0.0
1614971365655477046,,153830,,1614899338,288905332,"""0""",12.0,0.0,12.25,0.0
1614971365746507883,,153831,,1614899338,338794498,"""0""",12.0,0.0,12.25,0.0
1614971365764452934,,153832,,1614899338,389600800,"""0""",12.0,0.0,12.25,0.0
1614971365796325922,,153833,,1614899338,438785696,"""0""",12.0,0.0,12.25,0.0
1614971365849823951,,153834,,1614899338,489780644,"""0""",12.0,0.0,12.25,0.0
1614971365901587963,,153835,,1614899338,538764550,"""0""",12.0,0.0,12.25,0.0
1614971365950393915,,153836,,1614899338,589082258,"""0""",12.0,0.0,12.25,0.0
1614971365999510049,,153837,,1614899338,638747415,"""0""",12.0,0.0,12.25,0.0
1614971366048358917,,153838,,1614899338,689362571,"""0""",12.0,0.0,12.25,0.0
1614971366100042104,,153839,,1614899338,738776113,"""0""",12.0,0.0,12.25,0.0
1614971366157567977,,153840,,1614899338,788876842,"""0""",12.0,0.0,12.25,0.0
1614971366199975013,,153841,,1614899338,838780123,"""0""",12.0,0.0,12.3000001907,0.0
1614971366242150068,,153842,,1614899338,888875592,"""0""",12.0,0.0,12.3000001907,0.0
1614971366297966957,,153843,,1614899338,938798456,"""0""",12.0,0.0,12.3000001907,0.0
1614971366345149040,,153844,,1614899338,988824602,"""0""",12.0,0.0,12.3000001907,0.0
1614971366398180961,,153845,,1614899339,38803040,"""0""",12.0,0.0,12.3000001907,0.0
1614971366453700065,,153846,,1614899339,89262675,"""0""",12.0,0.0,12.3000001907,0.0
1614971366499762058,,153847,,1614899339,138788300,"""0""",12.0,0.0,12.3000001907,0.0
1614971366557507038,,153848,,1614899339,189194810,"""0""",12.0,0.0,12.3000001907,0.0
1614971366608858108,,153849,,1614899339,238771737,"""0""",12.0,0.0,12.3000001907,0.0
1614971366640579938,,153850,,1614899339,288867935,"""0""",12.0,0.0,12.3000001907,0.0
1614971366706630945,,153851,,1614899339,338874133,"""0""",12.0,0.0,12.3000001907,0.0
1614971366750116109,,153852,,1614899339,388992362,"""0""",12.0,0.0,12.3000001907,0.0
1614971366805721044,,153853,,1614899339,438879550,"""0""",12.0,0.0,12.3000001907,0.0
1614971366859539031,,153854,,1614899339,488858873,"""0""",12.0,0.0,12.3000001907,0.0
1614971366918478965,,153855,,1614899339,538830383,"""0""",12.0,0.0,12.3000001907,0.0
1614971366954003095,,153856,,1614899339,588808248,"""0""",12.0,0.0,12.3000001907,0.0
1614971366995155096,,153857,,1614899339,638793769,"""0""",12.0,0.0,12.3000001907,0.0
1614971367052759885,,153858,,1614899339,688792258,"""0""",12.0,0.0,12.3000001907,0.0
1614971367103705883,,153859,,1614899339,738874810,"""0""",12.0,0.0,12.3000001907,0.0
1614971367153708934,,153860,,1614899339,788787518,"""0""",12.0,0.0,12.3000001907,0.0
1614971367206914901,,153861,,1614899339,838866633,"""0""",12.0,0.0,12.3000001907,0.0
1614971367246814012,,153862,,1614899339,888861060,"""0""",12.0,0.0,12.3000001907,0.0
1614971367292017936,,153863,,1614899339,938816112,"""0""",12.0,0.0,12.3000001907,0.0
1614971367356367111,,153864,,1614899339,988800175,"""0""",12.0,0.0,12.3000001907,0.0
1614971367399313926,,153865,,1614899340,38834498,"""0""",12.0,0.0,12.3000001907,0.0
1614971367448712110,,153866,,1614899340,88781529,"""0""",12.0,0.0,12.3000001907,0.0
1614971367509036064,,153867,,1614899340,138773768,"""0""",12.0,0.0,12.3000001907,0.0
1614971367563211917,,153868,,1614899340,188895331,"""0""",12.0,0.0,12.3000001907,0.0
1614971367629035949,,153869,,1614899340,238808977,"""0""",12.0,0.0,12.3000001907,0.0
1614971367661926984,,153870,,1614899340,288792258,"""0""",12.0,0.0,12.3000001907,0.0
1614971367710105895,,153871,,1614899340,338781268,"""0""",12.0,0.0,12.3000001907,0.0
1614971367749582052,,153872,,1614899340,389253039,"""0""",12.0,0.0,12.3000001907,0.0
1614971367814629077,,153873,,1614899340,438765174,"""0""",12.0,0.0,12.3000001907,0.0
1614971367847313880,,153874,,1614899340,488960643,"""0""",12.0,0.0,12.3000001907,0.0
1614971367897808074,,153875,,1614899340,538774393,"""0""",12.0,0.0,12.3000001907,0.0
1614971367950368881,,153876,,1614899340,588823560,"""0""",12.0,0.0,12.3000001907,0.0
1614971367999671936,,153877,,1614899340,638785799,"""0""",12.0,0.0,12.3000001907,0.0
1614971368049854993,,153878,,1614899340,688818872,"""0""",12.0,0.0,12.3000001907,0.0
1614971368104075908,,153879,,1614899340,738763091,"""0""",12.0,0.0,12.3000001907,0.0
1614971368147465944,,153880,,1614899340,788761372,"""0""",12.0,0.0,12.3000001907,0.0
1614971368203560113,,153881,,1614899340,838802778,"""0""",12.0,0.0,12.3000001907,0.0
1614971368253614902,,153882,,1614899340,888812622,"""0""",12.0,0.0,12.3000001907,0.0
1614971368302309989,,153883,,1614899340,938875226,"""0""",12.0,0.0,12.3000001907,0.0
1614971368348629951,,153884,,1614899340,988788924,"""0""",12.0,0.0,12.3000001907,0.0
1614971368408226013,,153885,,1614899341,38794497,"""0""",12.0,0.0,12.3000001907,0.0
1614971368448193073,,153886,,1614899341,88802674,"""0""",12.0,0.0,12.3000001907,0.0
1614971368497632980,,153887,,1614899341,138743403,"""0""",12.0,0.0,12.3000001907,0.0
1614971368554879903,,153888,,1614899341,188817466,"""0""",12.0,0.0,12.3000001907,0.0
1614971368595962047,,153889,,1614899341,238812570,"""0""",12.0,0.0,12.3000001907,0.0
1614971368646383047,,153890,,1614899341,288795591,"""0""",12.0,0.0,12.3000001907,0.0
1614971368719232082,,153891,,1614899341,338789080,"""0""",12.0,0.0,12.3000001907,0.0
1614971368756009101,,153892,,1614899341,388811789,"""0""",12.0,0.0,12.3000001907,0.0
1614971368806119918,,153893,,1614899341,438787882,"""0""",12.0,0.0,12.3000001907,0.0
1614971368843656063,,153894,,1614899341,488778664,"""0""",12.0,0.0,12.3000001907,0.0
1614971368899137973,,153895,,1614899341,538747257,"""0""",12.0,0.0,12.3000001907,0.0
1614971368944370031,,153896,,1614899341,588781059,"""0""",12.0,0.0,12.3000001907,0.0
1614971369007862091,,153897,,1614899341,638787309,"""0""",12.0,0.0,12.3000001907,0.0
1614971369054153919,,153898,,1614899341,688772361,"""0""",12.0,0.0,12.3000001907,0.0
1614971369098182916,,153899,,1614899341,738806216,"""0""",12.0,0.0,12.3000001907,0.0
1614971369145446062,,153900,,1614899341,788840799,"""0""",12.0,0.0,12.3000001907,0.0
1614971369202263116,,153901,,1614899341,838783716,"""0""",12.0,0.0,12.3000001907,0.0
1614971369248157978,,153902,,1614899341,888778611,"""0""",12.0,0.0,12.3000001907,0.0
1614971369306618928,,153903,,1614899341,938899601,"""0""",12.0,0.0,12.3000001907,0.0
1614971369344541072,,153904,,1614899341,988837257,"""0""",12.0,0.0,12.3000001907,0.0
1614971369394357919,,153905,,1614899342,38862726,"""0""",12.0,0.0,12.3000001907,0.0
1614971369444098949,,153906,,1614899342,88842726,"""0""",12.0,0.0,12.3000001907,0.0
1614971369491799116,,153907,,1614899342,138796111,"""0""",12.0,0.0,12.3000001907,0.0
1614971369549639940,,153908,,1614899342,188817934,"""0""",12.0,0.0,12.3000001907,0.0
1614971369601345062,,153909,,1614899342,238839028,"""0""",12.0,0.0,12.3000001907,0.0
1614971369645911931,,153910,,1614899342,288783768,"""0""",12.0,0.0,12.3000001907,0.0
1614971369704701900,,153911,,1614899342,338909236,"""0""",12.0,0.0,12.3000001907,0.0
1614971369751308917,,153912,,1614899342,388844392,"""0""",12.0,0.0,12.3000001907,0.0
1614971369809669017,,153913,,1614899342,438845330,"""0""",12.0,0.0,12.3000001907,0.0
1614971369850570917,,153914,,1614899342,488862882,"""0""",12.0,0.0,12.3000001907,0.0
1614971369901304006,,153915,,1614899342,538908559,"""0""",12.0,0.0,12.3000001907,0.0
