rosbagTimestamp,header,seq,stamp,secs,nsecs,frame_id,Temperature,OutputCurrent,BusVoltage,ClosedLoopError
1614964783955391883,,22206,,1614892757,88859665,"""0""",12.0,0.0,12.3999996185,0.0
1614964784009393930,,22207,,1614892757,138798050,"""0""",12.0,0.0,12.3999996185,0.0
1614964784051785945,,22208,,1614892757,188871332,"""0""",12.0,0.0,12.3999996185,0.0
1614964784113560914,,22209,,1614892757,238774977,"""0""",12.0,0.0,12.3999996185,0.0
1614964784154457092,,22210,,1614892757,288834925,"""0""",12.0,0.0,12.3999996185,0.0
1614964784209573984,,22211,,1614892757,338822894,"""0""",12.0,0.0,12.3999996185,0.0
1614964784251318931,,22212,,1614892757,388879613,"""0""",12.0,0.0,12.3999996185,0.0
1614964784319737911,,22213,,1614892757,438951644,"""0""",12.0,0.0,12.3999996185,0.0
1614964784352349996,,22214,,1614892757,488799613,"""0""",12.0,0.0,12.3999996185,0.0
1614964784409950971,,22215,,1614892757,538859717,"""0""",12.0,0.0,12.3999996185,0.0
1614964784452955961,,22216,,1614892757,588965238,"""0""",12.0,0.0,12.3999996185,0.0
1614964784515784978,,22217,,1614892757,638776748,"""0""",12.0,0.0,12.3999996185,0.0
1614964784550246000,,22218,,1614892757,688851696,"""0""",12.0,0.0,12.3999996185,0.0
1614964784612746000,,22219,,1614892757,738807113,"""0""",12.0,0.0,12.3999996185,0.0
1614964784653306961,,22220,,1614892757,789253779,"""0""",12.0,0.0,12.3999996185,0.0
1614964784717740058,,22221,,1614892757,838862477,"""0""",12.0,0.0,12.3999996185,0.0
1614964784759380102,,22222,,1614892757,889177633,"""0""",12.0,0.0,12.3999996185,0.0
1614964784820173025,,22223,,1614892757,938811644,"""0""",12.0,0.0,12.3999996185,0.0
1614964784859821081,,22224,,1614892757,988948623,"""0""",12.0,0.0,12.3999996185,0.0
1614964784912416934,,22225,,1614892758,38772738,"""0""",12.0,0.0,12.3999996185,0.0
1614964784952239036,,22226,,1614892758,88933519,"""0""",12.0,0.0,12.3999996185,0.0
1614964785018516063,,22227,,1614892758,138805237,"""0""",12.0,0.0,12.3999996185,0.0
1614964785060336112,,22228,,1614892758,189583779,"""0""",12.0,0.0,12.3999996185,0.0
1614964785113748073,,22229,,1614892758,238783571,"""0""",12.0,0.0,12.3999996185,0.0
1614964785158565044,,22230,,1614892758,289240602,"""0""",12.0,0.0,12.3999996185,0.0
1614964785212861061,,22231,,1614892758,338778050,"""0""",12.0,0.0,12.3999996185,0.0
1614964785257525920,,22232,,1614892758,388888935,"""0""",12.0,0.0,12.3999996185,0.0
1614964785314873933,,22233,,1614892758,438756331,"""0""",12.0,0.0,12.3999996185,0.0
1614964785367863893,,22234,,1614892758,489253362,"""0""",12.0,0.0,12.3999996185,0.0
1614964785421114921,,22235,,1614892758,538781852,"""0""",12.0,0.0,12.3999996185,0.0
1614964785465641021,,22236,,1614892758,588858362,"""0""",12.0,0.0,12.3999996185,0.0
1614964785516412973,,22237,,1614892758,638852946,"""0""",12.0,0.0,12.3999996185,0.0
1614964785553652048,,22238,,1614892758,688896956,"""0""",12.0,0.0,12.3999996185,0.0
1614964785614981889,,22239,,1614892758,738823779,"""0""",12.0,0.0,12.3999996185,0.0
1614964785652698993,,22240,,1614892758,788816175,"""0""",12.0,0.0,12.3999996185,0.0
1614964785714366912,,22241,,1614892758,838778414,"""0""",12.0,0.0,12.3999996185,0.0
1614964785765422105,,22242,,1614892758,889428935,"""0""",12.0,0.0,12.3999996185,0.0
1614964785816682100,,22243,,1614892758,938760237,"""0""",12.0,0.0,12.3999996185,0.0
1614964785860824108,,22244,,1614892758,989754716,"""0""",12.0,0.0,12.3999996185,0.0
1614964785918344020,,22245,,1614892759,39056904,"""0""",12.0,0.0,12.3999996185,0.0
1614964785959142923,,22246,,1614892759,88858154,"""0""",12.0,0.0,12.3999996185,0.0
1614964786013501882,,22247,,1614892759,138831383,"""0""",12.0,0.0,12.3999996185,0.0
1614964786063911914,,22248,,1614892759,188980133,"""0""",12.0,0.0,12.3999996185,0.0
1614964786116940021,,22249,,1614892759,238804768,"""0""",12.0,0.0,12.3999996185,0.0
1614964786166476011,,22250,,1614892759,289174560,"""0""",12.0,0.0,12.3999996185,0.0
1614964786213114976,,22251,,1614892759,338799768,"""0""",12.0,0.0,12.3999996185,0.0
1614964786259219884,,22252,,1614892759,388975237,"""0""",12.0,0.0,12.3999996185,0.0
1614964786319457054,,22253,,1614892759,438783831,"""0""",12.0,0.0,12.3999996185,0.0
1614964786369112968,,22254,,1614892759,488881799,"""0""",12.0,0.0,12.3999996185,0.0
1614964786417680978,,22255,,1614892759,538762737,"""0""",12.0,0.0,12.3999996185,0.0
1614964786466255903,,22256,,1614892759,588799560,"""0""",12.0,0.0,12.3999996185,0.0
1614964786509345054,,22257,,1614892759,638757060,"""0""",12.0,0.0,12.3999996185,0.0
1614964786561614036,,22258,,1614892759,689248726,"""0""",12.0,0.0,12.3999996185,0.0
1614964786611160039,,22259,,1614892759,738800862,"""0""",12.0,0.0,12.3999996185,0.0
1614964786659620046,,22260,,1614892759,788897372,"""0""",12.0,0.0,12.3999996185,0.0
1614964786724931001,,22261,,1614892759,838748466,"""0""",12.0,0.0,12.3999996185,0.0
1614964786776792049,,22262,,1614892759,888912216,"""0""",12.0,0.0,12.3999996185,0.0
1614964786831137895,,22263,,1614892759,938816070,"""0""",12.0,0.0,12.3999996185,0.0
1614964786864545106,,22264,,1614892759,988919195,"""0""",12.0,0.0,12.3999996185,0.0
1614964786922013998,,22265,,1614892760,38761018,"""0""",12.0,0.0,12.3999996185,0.0
1614964786960611104,,22266,,1614892760,89018414,"""0""",12.0,0.0,12.3999996185,0.0
1614964787022608995,,22267,,1614892760,138773726,"""0""",12.0,0.0,12.3999996185,0.0
1614964787060877084,,22268,,1614892760,188930758,"""0""",12.0,0.0,12.3999996185,0.0
1614964787117474079,,22269,,1614892760,238771799,"""0""",12.0,0.0,12.3999996185,0.0
1614964787163408041,,22270,,1614892760,289210601,"""0""",12.0,0.0,12.3999996185,0.0
1614964787214622974,,22271,,1614892760,338832997,"""0""",12.0,0.0,12.3999996185,0.0
1614964787265995979,,22272,,1614892760,388871955,"""0""",12.0,0.0,12.3999996185,0.0
1614964787324798107,,22273,,1614892760,438798882,"""0""",12.0,0.0,12.3999996185,0.0
1614964787371392965,,22274,,1614892760,488996018,"""0""",12.0,0.0,12.3999996185,0.0
1614964787427340984,,22275,,1614892760,538795393,"""0""",12.0,0.0,12.3999996185,0.0
1614964787462393045,,22276,,1614892760,589079664,"""0""",12.0,0.0,12.3999996185,0.0
1614964787530294895,,22277,,1614892760,638844299,"""0""",12.0,0.0,12.3999996185,0.0
1614964787571546077,,22278,,1614892760,689669247,"""0""",12.0,0.0,12.3999996185,0.0
1614964787619206905,,22279,,1614892760,738736851,"""0""",12.0,0.0,12.3999996185,0.0
1614964787663937091,,22280,,1614892760,788946070,"""0""",12.0,0.0,12.3999996185,0.0
1614964787715214967,,22281,,1614892760,838776955,"""0""",12.0,0.0,12.3999996185,0.0
1614964787759598016,,22282,,1614892760,888925601,"""0""",12.0,0.0,12.3999996185,0.0
1614964787819921016,,22283,,1614892760,938767111,"""0""",12.0,0.0,12.3999996185,0.0
1614964787866364955,,22284,,1614892760,988893153,"""0""",12.0,0.0,12.3999996185,0.0
1614964787913100957,,22285,,1614892761,38844247,"""0""",12.0,0.0,12.3999996185,0.0
1614964787973000049,,22286,,1614892761,88992684,"""0""",12.0,0.0,12.3999996185,0.0
1614964788024703979,,22287,,1614892761,138778934,"""0""",12.0,0.0,12.3999996185,0.0
1614964788077620983,,22288,,1614892761,188999820,"""0""",12.0,0.0,12.3999996185,0.0
1614964788122718095,,22289,,1614892761,238800132,"""0""",12.0,0.0,12.3999996185,0.0
1614964788167704105,,22290,,1614892761,289026174,"""0""",12.0,0.0,12.3999996185,0.0
1614964788211999893,,22291,,1614892761,338768570,"""0""",12.0,0.0,12.3999996185,0.0
1614964788263518095,,22292,,1614892761,389163830,"""0""",12.0,0.0,12.3999996185,0.0
1614964788322221040,,22293,,1614892761,438772111,"""0""",12.0,0.0,12.3999996185,0.0
1614964788364959955,,22294,,1614892761,488992476,"""0""",12.0,0.0,12.3999996185,0.0
1614964788421292066,,22295,,1614892761,538802320,"""0""",12.0,0.0,12.3999996185,0.0
1614964788464638948,,22296,,1614892761,588921017,"""0""",12.0,0.0,12.3999996185,0.0
1614964788517633914,,22297,,1614892761,638754819,"""0""",12.0,0.0,12.3999996185,0.0
1614964788568520069,,22298,,1614892761,688896017,"""0""",12.0,0.0,12.3999996185,0.0
1614964788619493961,,22299,,1614892761,738905444,"""0""",12.0,0.0,12.3999996185,0.0
1614964788670605897,,22300,,1614892761,788802840,"""0""",12.0,0.0,12.3999996185,0.0
1614964788721982002,,22301,,1614892761,838779455,"""0""",12.0,0.0,12.3999996185,0.0
1614964788760032892,,22302,,1614892761,889027215,"""0""",12.0,0.0,12.3999996185,0.0
1614964788827872991,,22303,,1614892761,938896226,"""0""",12.0,0.0,12.3999996185,0.0
1614964788872438907,,22304,,1614892761,988997632,"""0""",12.0,0.0,12.3999996185,0.0
1614964788928323030,,22305,,1614892762,38759559,"""0""",12.0,0.0,12.3999996185,0.0
1614964788969820022,,22306,,1614892762,88915601,"""0""",12.0,0.0,12.3999996185,0.0
1614964789023000001,,22307,,1614892762,138761382,"""0""",12.0,0.0,12.3999996185,0.0
1614964789089843034,,22308,,1614892762,188993153,"""0""",12.0,0.0,12.3999996185,0.0
1614964789124403953,,22309,,1614892762,238816798,"""0""",12.0,0.0,12.3999996185,0.0
1614964789167160034,,22310,,1614892762,289098517,"""0""",12.0,0.0,12.3999996185,0.0
1614964789223840951,,22311,,1614892762,338850236,"""0""",12.0,0.0,12.3999996185,0.0
1614964789263763904,,22312,,1614892762,388899194,"""0""",12.0,0.0,12.3999996185,0.0
1614964789323322057,,22313,,1614892762,438789559,"""0""",12.0,0.0,12.3999996185,0.0
1614964789367660999,,22314,,1614892762,488915548,"""0""",12.0,0.0,12.3999996185,0.0
1614964789424413919,,22315,,1614892762,538772423,"""0""",12.0,0.0,12.3999996185,0.0
1614964789463429927,,22316,,1614892762,589417215,"""0""",12.0,0.0,12.3999996185,0.0
1614964789526336908,,22317,,1614892762,638745600,"""0""",12.0,0.0,12.3999996185,0.0
1614964789565784931,,22318,,1614892762,689126382,"""0""",12.0,0.0,12.3999996185,0.0
1614964789621920108,,22319,,1614892762,738762684,"""0""",12.0,0.0,12.3999996185,0.0
1614964789670912981,,22320,,1614892762,789271590,"""0""",12.0,5.125,12.1000003815,0.0
1614964789730504035,,22321,,1614892762,838767944,"""0""",12.0,4.375,12.1000003815,0.0
1614964789793154954,,22322,,1614892762,888835809,"""0""",12.0,4.625,12.1000003815,0.0
1614964789824965000,,22323,,1614892762,938806277,"""0""",12.0,4.875,12.1000003815,0.0
1614964789866972923,,22324,,1614892762,988879715,"""0""",12.0,5.625,12.1000003815,0.0
1614964789921647071,,22325,,1614892763,38815236,"""0""",12.0,5.875,12.1000003815,0.0
1614964789978924036,,22326,,1614892763,88776486,"""0""",12.0,5.125,12.0500001907,0.0
1614964790064879894,,22327,,1614892763,138740236,"""0""",12.0,4.25,12.0500001907,0.0
1614964790115365982,,22328,,1614892763,188936902,"""0""",12.0,4.375,12.0500001907,0.0
1614964790190908908,,22329,,1614892763,238757475,"""0""",12.0,4.125,12.1499996185,0.0
1614964790191057920,,22330,,1614892763,288805183,"""0""",12.0,3.875,12.1499996185,0.0
1614964790227523088,,22331,,1614892763,338874402,"""0""",12.0,3.75,12.1499996185,0.0
1614964790265197992,,22332,,1614892763,388806277,"""0""",12.0,2.0,12.1499996185,0.0
1614964790319654941,,22333,,1614892763,438794194,"""0""",12.0,1.375,12.25,0.0
1614964790407991886,,22334,,1614892763,489202631,"""0""",12.0,1.375,12.25,0.0
1614964790429469108,,22335,,1614892763,538768256,"""0""",12.0,2.375,12.25,0.0
1614964790469314098,,22336,,1614892763,588984402,"""0""",12.0,2.0,12.25,0.0
1614964790520248889,,22337,,1614892763,638824246,"""0""",12.0,1.75,12.25,0.0
1614964790566330909,,22338,,1614892763,688922267,"""0""",12.0,1.0,12.25,0.0
1614964790620634078,,22339,,1614892763,738767944,"""0""",12.0,1.375,12.25,0.0
1614964790665361881,,22340,,1614892763,788887058,"""0""",12.0,3.375,12.25,0.0
1614964790715593099,,22341,,1614892763,838779402,"""0""",12.0,3.375,12.25,0.0
1614964790768343925,,22342,,1614892763,888877214,"""0""",12.0,2.75,12.1999998093,0.0
1614964790822635889,,22343,,1614892763,938757475,"""0""",12.0,3.875,12.1999998093,0.0
1614964790866883993,,22344,,1614892763,988881069,"""0""",12.0,4.0,12.1999998093,0.0
1614964790918816089,,22345,,1614892764,38875860,"""0""",12.0,3.875,12.1999998093,0.0
1614964791006880998,,22346,,1614892764,88880912,"""0""",12.0,3.0,12.1999998093,0.0
1614964791047435045,,22347,,1614892764,138786537,"""0""",12.0,2.75,12.1999998093,0.0
1614964791098730087,,22348,,1614892764,188918516,"""0""",12.0,2.375,12.1999998093,0.0
1614964791133109092,,22349,,1614892764,238747162,"""0""",12.0,3.75,12.1999998093,0.0
1614964791196080923,,22350,,1614892764,288882006,"""0""",12.0,3.875,12.1999998093,0.0
1614964791257610082,,22351,,1614892764,338816016,"""0""",12.0,4.125,12.1999998093,0.0
1614964791323646068,,22352,,1614892764,388939818,"""0""",12.0,4.0,12.1499996185,0.0
1614964791323785066,,22353,,1614892764,438775287,"""0""",12.0,3.75,12.1499996185,0.0
1614964791373850107,,22354,,1614892764,488878516,"""0""",12.0,3.75,12.1499996185,0.0
1614964791420172929,,22355,,1614892764,538759193,"""0""",12.0,3.0,12.1999998093,0.0
1614964791467339992,,22356,,1614892764,589244610,"""0""",12.0,3.0,12.1999998093,0.0
1614964791524338006,,22357,,1614892764,638790495,"""0""",12.0,2.375,12.1999998093,0.0
1614964791617019891,,22358,,1614892764,689400652,"""0""",12.0,2.75,12.1999998093,0.0
1614964791653484106,,22359,,1614892764,738764350,"""0""",12.0,3.0,12.1999998093,0.0
1614964791692570924,,22360,,1614892764,788841329,"""0""",12.0,2.75,12.1999998093,0.0
1614964791742980957,,22361,,1614892764,838768620,"""0""",12.0,1.375,12.3000001907,0.0
1614964791766102075,,22362,,1614892764,888839922,"""0""",12.0,1.0,12.3000001907,0.0
1614964791819822072,,22363,,1614892764,938780079,"""0""",12.0,0.375,12.3000001907,0.0
1614964791878252029,,22364,,1614892764,988804558,"""0""",12.0,0.625,12.3000001907,0.0
1614964791923012971,,22365,,1614892765,38756745,"""0""",12.0,1.0,12.3000001907,0.0
1614964791969224929,,22366,,1614892765,88940391,"""0""",12.0,1.0,12.3000001907,0.0
1614964792047579050,,22367,,1614892765,138814818,"""0""",12.0,0.375,12.3000001907,0.0
1614964792077604055,,22368,,1614892765,188847526,"""0""",12.0,0.375,12.3500003815,0.0
1614964792124406099,,22369,,1614892765,238765912,"""0""",12.0,0.375,12.3500003815,0.0
1614964792174422979,,22370,,1614892765,288977110,"""0""",12.0,0.375,12.3500003815,0.0
1614964792231669902,,22371,,1614892765,338769870,"""0""",12.0,0.375,12.3500003815,0.0
1614964792272634983,,22372,,1614892765,390209922,"""0""",12.0,0.375,12.3500003815,0.0
1614964792321628093,,22373,,1614892765,438923256,"""0""",12.0,0.625,12.3500003815,0.0
1614964792372607946,,22374,,1614892765,488893308,"""0""",12.0,0.625,12.3000001907,0.0
1614964792427202939,,22375,,1614892765,538837110,"""0""",12.0,0.375,12.3000001907,0.0
1614964792531400918,,22376,,1614892765,589129558,"""0""",12.0,0.375,12.3000001907,0.0
1614964792531512975,,22377,,1614892765,638830391,"""0""",12.0,1.0,12.25,0.0
1614964792600171089,,22378,,1614892765,688764297,"""0""",12.0,2.375,12.25,0.0
1614964792651034116,,22379,,1614892765,738791380,"""0""",12.0,1.75,12.25,0.0
1614964792705167055,,22380,,1614892765,788783412,"""0""",12.0,1.0,12.25,0.0
1614964792733725070,,22381,,1614892765,838799297,"""0""",12.0,1.75,12.25,0.0
1614964792786245107,,22382,,1614892765,888786953,"""0""",12.0,2.375,12.25,0.0
1614964792821368932,,22383,,1614892765,938790755,"""0""",12.0,1.75,12.25,0.0
1614964792876180887,,22384,,1614892765,988769401,"""0""",12.0,2.375,12.1999998093,0.0
1614964792925817966,,22385,,1614892766,38886745,"""0""",12.0,2.75,12.1999998093,0.0
1614964792978257894,,22386,,1614892766,88872162,"""0""",12.0,2.0,12.1999998093,0.0
1614964793040079116,,22387,,1614892766,138797422,"""0""",12.0,2.75,12.1999998093,0.0
1614964793085621118,,22388,,1614892766,188854141,"""0""",12.0,2.0,12.1999998093,0.0
1614964793122531890,,22389,,1614892766,238797943,"""0""",12.0,1.375,12.1999998093,0.0
1614964793167032003,,22390,,1614892766,288804401,"""0""",12.0,1.75,12.25,0.0
1614964793229223012,,22391,,1614892766,338787734,"""0""",12.0,1.375,12.25,0.0
1614964793273235082,,22392,,1614892766,388789453,"""0""",12.0,1.0,12.25,0.0
1614964793325113058,,22393,,1614892766,438873047,"""0""",12.0,1.75,12.1999998093,0.0
1614964793378827095,,22394,,1614892766,488861016,"""0""",12.0,2.75,12.1999998093,0.0
1614964793436031103,,22395,,1614892766,538875391,"""0""",12.0,1.75,12.1999998093,0.0
1614964793474273920,,22396,,1614892766,588782995,"""0""",12.0,1.375,12.1999998093,0.0
1614964793528037071,,22397,,1614892766,638817786,"""0""",12.0,2.75,12.25,0.0
1614964793581466913,,22398,,1614892766,688802995,"""0""",12.0,3.375,12.25,0.0
1614964793625313997,,22399,,1614892766,738892682,"""0""",12.0,3.0,12.25,0.0
1614964793727356910,,22400,,1614892766,788812890,"""0""",12.0,2.375,12.25,0.0
1614964793766329050,,22401,,1614892766,838808672,"""0""",12.0,2.0,12.25,0.0
1614964793796292066,,22402,,1614892766,888824036,"""0""",12.0,2.375,12.25,0.0
1614964793837997913,,22403,,1614892766,938836380,"""0""",12.0,3.875,12.1499996185,0.0
1614964793881127119,,22404,,1614892766,988791588,"""0""",12.0,4.0,12.1499996185,0.0
1614964793930711984,,22405,,1614892767,38949870,"""0""",12.0,3.875,12.1499996185,0.0
1614964793991431951,,22406,,1614892767,88784974,"""0""",11.0,3.75,12.1499996185,0.0
1614964794044178962,,22407,,1614892767,138883828,"""0""",11.0,4.0,12.1499996185,0.0
1614964794075120925,,22408,,1614892767,188798672,"""0""",11.0,3.875,12.1499996185,0.0
1614964794127562999,,22409,,1614892767,238796119,"""0""",11.0,2.375,12.1999998093,0.0
1614964794171619892,,22410,,1614892767,288758099,"""0""",11.0,2.75,12.1999998093,0.0
1614964794222589969,,22411,,1614892767,338905338,"""0""",11.0,1.75,12.1999998093,0.0
1614964794279939889,,22412,,1614892767,388790911,"""0""",11.0,1.375,12.1999998093,0.0
1614964794340883970,,22413,,1614892767,438849661,"""0""",12.0,3.75,12.1999998093,0.0
1614964794381227970,,22414,,1614892767,488773151,"""0""",12.0,3.375,12.1999998093,0.0
1614964794433135032,,22415,,1614892767,538811432,"""0""",12.0,2.75,12.1999998093,0.0
1614964794487014055,,22416,,1614892767,588844244,"""0""",11.0,2.0,12.25,0.0
1614964794527167081,,22417,,1614892767,638875963,"""0""",11.0,3.0,12.25,0.0
1614964794579184055,,22418,,1614892767,688801744,"""0""",11.0,2.75,12.25,0.0
1614964794657339096,,22419,,1614892767,738793255,"""0""",12.0,2.0,12.1999998093,0.0
1614964794699564933,,22420,,1614892767,788827317,"""0""",12.0,2.0,12.1999998093,0.0
1614964794759682893,,22421,,1614892767,838790755,"""0""",12.0,3.375,12.1999998093,0.0
1614964794820399999,,22422,,1614892767,888755078,"""0""",12.0,4.0,12.1000003815,0.0
1614964794859363079,,22423,,1614892767,938855078,"""0""",12.0,3.0,12.1000003815,0.0
1614964794925916910,,22424,,1614892767,988785598,"""0""",12.0,1.75,12.1000003815,0.0
1614964794925945043,,22425,,1614892768,38746692,"""0""",12.0,2.0,12.25,0.0
1614964794985956907,,22426,,1614892768,88762525,"""0""",12.0,2.375,12.25,0.0
1614964795034338951,,22427,,1614892768,138822994,"""0""",12.0,3.0,12.25,0.0
1614964795079849958,,22428,,1614892768,188764088,"""0""",12.0,3.75,12.25,0.0
1614964795138709068,,22429,,1614892768,238778098,"""0""",11.0,2.75,12.1999998093,0.0
1614964795205697059,,22430,,1614892768,288829244,"""0""",11.0,1.75,12.1999998093,0.0
1614964795297666072,,22431,,1614892768,338829244,"""0""",11.0,3.75,12.1999998093,0.0
1614964795297899961,,22432,,1614892768,388936588,"""0""",11.0,3.875,12.1999998093,0.0
1614964795343005895,,22433,,1614892768,438905390,"""0""",11.0,3.75,12.1999998093,0.0
1614964795375535011,,22434,,1614892768,488796275,"""0""",11.0,3.0,12.1999998093,0.0
1614964795427736043,,22435,,1614892768,538839036,"""0""",11.0,3.0,12.1999998093,0.0
1614964795513506889,,22436,,1614892768,588811171,"""0""",11.0,3.375,12.1999998093,0.0
1614964795561834096,,22437,,1614892768,638858098,"""0""",11.0,2.375,12.1999998093,0.0
1614964795596549987,,22438,,1614892768,688776952,"""0""",11.0,2.375,12.1999998093,0.0
1614964795643172979,,22439,,1614892768,738789036,"""0""",11.0,2.75,12.1999998093,0.0
1614964795683083057,,22440,,1614892768,788761848,"""0""",11.0,3.0,12.1999998093,0.0
1614964795726790904,,22441,,1614892768,838976952,"""0""",11.0,3.75,12.1999998093,0.0
1614964795769946098,,22442,,1614892768,888852890,"""0""",12.0,3.0,12.1999998093,0.0
1614964795821794986,,22443,,1614892768,938807108,"""0""",12.0,2.375,12.1999998093,0.0
1614964795877437114,,22444,,1614892768,988821483,"""0""",12.0,3.875,12.1999998093,0.0
1614964795924530029,,22445,,1614892769,38972838,"""0""",11.0,4.125,12.1000003815,0.0
1614964795975759029,,22446,,1614892769,88913879,"""0""",11.0,4.125,12.1000003815,0.0
1614964796025130987,,22447,,1614892769,138836535,"""0""",11.0,3.875,12.1000003815,0.0
1614964796114842891,,22448,,1614892769,188806431,"""0""",11.0,4.0,12.1000003815,0.0
1614964796145751953,,22449,,1614892769,238825077,"""0""",11.0,4.0,12.1000003815,0.0
1614964796183500051,,22450,,1614892769,288773098,"""0""",11.0,3.875,12.1000003815,0.0
1614964796221849918,,22451,,1614892769,338918254,"""0""",11.0,3.75,12.1999998093,0.0
1614964796277504920,,22452,,1614892769,388757889,"""0""",11.0,3.0,12.1999998093,0.0
1614964796316391944,,22453,,1614892769,438787629,"""0""",11.0,3.0,12.1999998093,0.0
1614964796370362043,,22454,,1614892769,488773775,"""0""",11.0,3.375,12.1499996185,0.0
1614964796422281980,,22455,,1614892769,538784139,"""0""",11.0,3.875,12.1499996185,0.0
1614964796475624084,,22456,,1614892769,588745858,"""0""",11.0,3.375,12.1499996185,0.0
1614964796521379947,,22457,,1614892769,638768619,"""0""",11.0,2.375,12.1999998093,0.0
1614964796576606035,,22458,,1614892769,688832004,"""0""",11.0,2.0,12.1999998093,0.0
1614964796618525981,,22459,,1614892769,738780129,"""0""",11.0,2.0,12.1999998093,0.0
1614964796678024053,,22460,,1614892769,788764139,"""0""",11.0,1.75,12.1999998093,0.0
1614964796721584081,,22461,,1614892769,838781900,"""0""",11.0,1.75,12.1999998093,0.0
1614964796775130987,,22462,,1614892769,888815493,"""0""",11.0,2.0,12.1999998093,0.0
1614964796826703071,,22463,,1614892769,938836066,"""0""",11.0,1.75,12.1999998093,0.0
1614964796879014968,,22464,,1614892769,988818983,"""0""",11.0,1.75,12.1999998093,0.0
1614964796926620006,,22465,,1614892770,38819920,"""0""",11.0,2.375,12.1999998093,0.0
1614964797006339073,,22466,,1614892770,88825285,"""0""",11.0,2.375,12.1999998093,0.0
1614964797046343088,,22467,,1614892770,138780597,"""0""",11.0,1.0,12.25,0.0
1614964797096579074,,22468,,1614892770,188802108,"""0""",11.0,1.0,12.25,0.0
1614964797137296915,,22469,,1614892770,238778931,"""0""",11.0,1.375,12.25,0.0
1614964797197679996,,22470,,1614892770,288858722,"""0""",11.0,1.375,12.25,0.0
1614964797232090950,,22471,,1614892770,338812316,"""0""",11.0,0.625,12.25,0.0
1614964797305660963,,22472,,1614892770,388837420,"""0""",11.0,1.0,12.25,0.0
1614964797345334053,,22473,,1614892770,438748202,"""0""",11.0,1.75,12.25,0.0
1614964797382033109,,22474,,1614892770,488984608,"""0""",11.0,1.75,12.25,0.0
1614964797430622100,,22475,,1614892770,538780754,"""0""",11.0,1.375,12.25,0.0
1614964797484714984,,22476,,1614892770,588829295,"""0""",11.0,0.625,12.25,0.0
1614964797527997970,,22477,,1614892770,638767420,"""0""",11.0,1.375,12.25,0.0
1614964797572911977,,22478,,1614892770,688796535,"""0""",11.0,2.0,12.25,0.0
1614964797648473978,,22479,,1614892770,738786847,"""0""",11.0,3.0,12.25,0.0
1614964797696022033,,22480,,1614892770,788808149,"""0""",11.0,3.0,12.1999998093,0.0
1614964797742727994,,22481,,1614892770,838797681,"""0""",11.0,2.375,12.1999998093,0.0
1614964797804946899,,22482,,1614892770,888791222,"""0""",11.0,3.0,12.1999998093,0.0
1614964797850460052,,22483,,1614892770,938809451,"""0""",11.0,3.875,12.1499996185,0.0
1614964797915819883,,22484,,1614892770,988895441,"""0""",11.0,3.875,12.1499996185,0.0
1614964797965576887,,22485,,1614892771,38777628,"""0""",11.0,2.75,12.1499996185,0.0
1614964798015809059,,22486,,1614892771,88815493,"""0""",11.0,2.375,12.1999998093,0.0
1614964798067954063,,22487,,1614892771,138782160,"""0""",11.0,2.75,12.1999998093,0.0
1614964798105649948,,22488,,1614892771,188845597,"""0""",11.0,3.0,12.1999998093,0.0
1614964798149401903,,22489,,1614892771,238781847,"""0""",11.0,3.375,12.1999998093,0.0
1614964798207923889,,22490,,1614892771,288869712,"""0""",11.0,2.75,12.1999998093,0.0
1614964798244077920,,22491,,1614892771,338783826,"""0""",11.0,2.0,12.1999998093,0.0
1614964798285181999,,22492,,1614892771,388791170,"""0""",11.0,1.75,12.1999998093,0.0
1614964798342466115,,22493,,1614892771,438770337,"""0""",11.0,2.375,12.1999998093,0.0
1614964798380325078,,22494,,1614892771,488829034,"""0""",11.0,2.0,12.1999998093,0.0
1614964798439496040,,22495,,1614892771,538797107,"""0""",11.0,1.375,12.1999998093,0.0
1614964798618026971,,22496,,1614892771,588798097,"""0""",11.0,1.375,12.25,0.0
1614964798618978023,,22497,,1614892771,638792889,"""0""",11.0,2.0,12.25,0.0
1614964798619590997,,22498,,1614892771,688761951,"""0""",11.0,1.375,12.25,0.0
1614964798619616031,,22499,,1614892771,738828045,"""0""",11.0,1.75,12.1999998093,0.0
1614964798688143968,,22500,,1614892771,788911066,"""0""",11.0,1.75,12.1999998093,0.0
1614964798732901096,,22501,,1614892771,838768826,"""0""",11.0,2.375,12.1999998093,0.0
1614964798831403017,,22502,,1614892771,888788409,"""0""",11.0,2.375,12.1999998093,0.0
1614964798831774950,,22503,,1614892771,938782628,"""0""",11.0,3.0,12.1999998093,0.0
1614964798881932973,,22504,,1614892771,988784711,"""0""",11.0,4.25,12.1999998093,0.0
1614964798934623956,,22505,,1614892772,38782368,"""0""",11.0,4.375,12.1499996185,0.0
1614964798998769998,,22506,,1614892772,88835076,"""0""",11.0,4.375,12.1499996185,0.0
1614964799072808980,,22507,,1614892772,138867524,"""0""",11.0,4.375,12.1499996185,0.0
1614964799151230096,,22508,,1614892772,188823149,"""0""",11.0,4.375,12.1499996185,0.0
1614964799151338100,,22509,,1614892772,238790493,"""0""",11.0,4.75,12.0500001907,0.0
1614964799191986083,,22510,,1614892772,288769347,"""0""",11.0,4.875,12.0500001907,0.0
1614964799230454921,,22511,,1614892772,338788670,"""0""",11.0,5.5,12.0500001907,0.0
1614964799282298088,,22512,,1614892772,388862992,"""0""",11.0,5.25,12.0,0.0
1614964799332868099,,22513,,1614892772,438769138,"""0""",11.0,4.75,12.0,0.0
1614964799389405965,,22514,,1614892772,488848878,"""0""",11.0,4.875,12.0,0.0
1614964799463359117,,22515,,1614892772,538811899,"""0""",11.0,4.375,12.1000003815,0.0
1614964799504838943,,22516,,1614892772,588832628,"""0""",11.0,4.625,12.1000003815,0.0
1614964799558609008,,22517,,1614892772,638779659,"""0""",11.0,5.25,12.1000003815,0.0
1614964799610294103,,22518,,1614892772,688776222,"""0""",11.0,5.5,11.9499998093,0.0
1614964799658404111,,22519,,1614892772,738814451,"""0""",11.0,4.625,11.9499998093,0.0
1614964799717232942,,22520,,1614892772,788833149,"""0""",11.0,4.625,11.9499998093,0.0
1614964799785957098,,22521,,1614892772,838804971,"""0""",11.0,5.0,11.9499998093,0.0
1614964799786073923,,22522,,1614892772,888779607,"""0""",11.0,5.25,11.9499998093,0.0
1614964799835469961,,22523,,1614892772,938805961,"""0""",11.0,5.75,11.9499998093,0.0
1614964799890763044,,22524,,1614892772,989213409,"""0""",11.0,5.125,11.9499998093,0.0
1614964799948385953,,22525,,1614892773,38771273,"""0""",11.0,5.0,12.0,0.0
1614964800015074014,,22526,,1614892773,89321326,"""0""",11.0,5.25,12.0,0.0
1614964800059449911,,22527,,1614892773,138827315,"""0""",11.0,5.5,12.0,0.0
1614964800127396106,,22528,,1614892773,189697471,"""0""",11.0,5.5,11.8999996185,0.0
1614964800127501010,,22529,,1614892773,238769034,"""0""",11.0,5.375,11.8999996185,0.0
1614964800178527116,,22530,,1614892773,289544971,"""0""",11.0,5.5,11.8999996185,0.0
1614964800232053041,,22531,,1614892773,338798044,"""0""",11.0,5.0,12.0,0.0
1614964800303824901,,22532,,1614892773,388858305,"""0""",11.0,6.125,12.0,0.0
1614964800351262092,,22533,,1614892773,438849971,"""0""",11.0,5.625,12.0,0.0
1614964800400248050,,22534,,1614892773,489447627,"""0""",11.0,5.125,12.0,0.0
1614964800449803113,,22535,,1614892773,538764815,"""0""",11.0,5.5,12.0,0.0
1614964800488338947,,22536,,1614892773,588957367,"""0""",11.0,5.5,12.0,0.0
1614964800533025979,,22537,,1614892773,639204138,"""0""",11.0,5.625,12.0,0.0
1614964800579113960,,22538,,1614892773,688868669,"""0""",11.0,5.25,12.0,0.0
1614964800643421888,,22539,,1614892773,738842992,"""0""",11.0,5.875,12.0,0.0
1614964800685959100,,22540,,1614892773,789020961,"""0""",11.0,5.75,12.0,0.0
1614964800727430105,,22541,,1614892773,838776013,"""0""",11.0,5.25,12.0500001907,0.0
1614964800785407066,,22542,,1614892773,889032263,"""0""",11.0,5.5,12.0500001907,0.0
1614964800827332019,,22543,,1614892773,938869971,"""0""",11.0,5.125,12.0500001907,0.0
1614964800883374929,,22544,,1614892773,989164450,"""0""",11.0,5.5,11.9499998093,0.0
1614964800944567918,,22545,,1614892774,38774711,"""0""",11.0,5.625,11.9499998093,0.0
1614964801014729022,,22546,,1614892774,89972888,"""0""",11.0,5.75,11.9499998093,0.0
1614964801072607994,,22547,,1614892774,138775388,"""0""",11.0,5.5,12.0,0.0
1614964801112369060,,22548,,1614892774,188906377,"""0""",11.0,5.25,12.0,0.0
1614964801163805961,,22549,,1614892774,238874033,"""0""",11.0,5.75,12.0,0.0
1614964801217185974,,22550,,1614892774,288775075,"""0""",11.0,5.125,12.0500001907,0.0
1614964801259169101,,22551,,1614892774,338824710,"""0""",11.0,5.875,12.0500001907,0.0
1614964801314977884,,22552,,1614892774,388820231,"""0""",11.0,6.125,12.0500001907,0.0
1614964801346716880,,22553,,1614892774,438771638,"""0""",11.0,5.375,12.0,0.0
1614964801389961957,,22554,,1614892774,488850908,"""0""",11.0,5.625,12.0,0.0
1614964801444111108,,22555,,1614892774,538848617,"""0""",11.0,5.375,12.0,0.0
1614964801516243934,,22556,,1614892774,588777731,"""0""",11.0,5.625,12.0,0.0
1614964801561570882,,22557,,1614892774,638849867,"""0""",11.0,5.5,11.8999996185,0.0
1614964801628154993,,22558,,1614892774,688796898,"""0""",11.0,5.875,11.8999996185,0.0
1614964801628258943,,22559,,1614892774,738768721,"""0""",11.0,5.625,11.8999996185,0.0
1614964801688440084,,22560,,1614892774,788793617,"""0""",11.0,5.25,12.0,0.0
1614964801732862949,,22561,,1614892774,838835908,"""0""",11.0,6.125,12.0,0.0
1614964801784708023,,22562,,1614892774,888845596,"""0""",11.0,6.0,12.0,0.0
1614964801829233884,,22563,,1614892774,938760804,"""0""",11.0,6.125,11.9499998093,0.0
1614964801875422000,,22564,,1614892774,988775908,"""0""",11.0,5.875,11.9499998093,0.0
1614964801922861099,,22565,,1614892775,38808044,"""0""",11.0,5.25,11.9499998093,0.0
1614964801975578069,,22566,,1614892775,88836221,"""0""",11.0,5.5,12.0,0.0
1614964802027103900,,22567,,1614892775,138812679,"""0""",11.0,4.625,12.0,0.0
1614964802132077932,,22568,,1614892775,189302835,"""0""",11.0,4.5,12.0,0.0
1614964802132172107,,22569,,1614892775,238775127,"""0""",11.0,5.25,11.8999996185,0.0
1614964802178107023,,22570,,1614892775,288812887,"""0""",11.0,5.5,11.8999996185,0.0
1614964802249376058,,22571,,1614892775,338801012,"""0""",11.0,4.5,11.8999996185,0.0
1614964802294877052,,22572,,1614892775,388830804,"""0""",11.0,4.125,11.8999996185,0.0
1614964802340306043,,22573,,1614892775,438786793,"""0""",11.0,4.25,12.0500001907,0.0
1614964802439074039,,22574,,1614892775,488835908,"""0""",11.0,4.125,12.0500001907,0.0
1614964802439191102,,22575,,1614892775,538784137,"""0""",11.0,4.375,12.0500001907,0.0
1614964802477962017,,22576,,1614892775,588873356,"""0""",11.0,4.125,12.1000003815,0.0
1614964802536305904,,22577,,1614892775,638970804,"""0""",11.0,3.875,12.1000003815,0.0
1614964802573937892,,22578,,1614892775,688795752,"""0""",11.0,2.75,12.1000003815,0.0
1614964802635672092,,22579,,1614892775,738909189,"""0""",11.0,2.375,12.1999998093,0.0
1614964802694847106,,22580,,1614892775,788777054,"""0""",11.0,2.375,12.1999998093,0.0
1614964802729650020,,22581,,1614892775,838787783,"""0""",11.0,1.375,12.1999998093,0.0
1614964802785765886,,22582,,1614892775,888785960,"""0""",11.0,1.0,12.25,0.0
1614964802842483043,,22583,,1614892775,938862002,"""0""",11.0,0.625,12.25,0.0
1614964802882615089,,22584,,1614892775,988843460,"""0""",11.0,0.375,12.25,0.0
1614964802920995950,,22585,,1614892776,38818095,"""0""",11.0,0.375,12.25,0.0
1614964802987704038,,22586,,1614892776,88786012,"""0""",11.0,0.375,12.25,0.0
1614964803039613962,,22587,,1614892776,138869970,"""0""",11.0,0.375,12.25,0.0
1614964803074732065,,22588,,1614892776,188781429,"""0""",11.0,0.375,12.25,0.0
1614964803128021955,,22589,,1614892776,238817262,"""0""",11.0,0.375,12.25,0.0
1614964803187637090,,22590,,1614892776,288794085,"""0""",11.0,0.0,12.25,0.0
1614964803223380088,,22591,,1614892776,338835699,"""0""",11.0,0.0,12.25,0.0
1614964803282823085,,22592,,1614892776,388814033,"""0""",11.0,0.0,12.3500003815,0.0
1614964803336608886,,22593,,1614892776,438804866,"""0""",11.0,0.0,12.3500003815,0.0
1614964803383311986,,22594,,1614892776,488779033,"""0""",11.0,0.0,12.3500003815,0.0
1614964803433418989,,22595,,1614892776,538847158,"""0""",11.0,0.375,12.3000001907,0.0
1614964803496448040,,22596,,1614892776,588853355,"""0""",11.0,0.625,12.3000001907,0.0
1614964803568057060,,22597,,1614892776,638823043,"""0""",11.0,0.375,12.3000001907,0.0
1614964803653733968,,22598,,1614892776,688784397,"""0""",11.0,0.375,12.25,0.0
1614964803653853893,,22599,,1614892776,738883512,"""0""",11.0,0.375,12.25,0.0
1614964803697240114,,22600,,1614892776,788785960,"""0""",11.0,0.375,12.25,0.0
1614964803741494894,,22601,,1614892776,838773460,"""0""",11.0,0.375,12.3000001907,0.0
1614964803795962095,,22602,,1614892776,888790491,"""0""",11.0,0.375,12.3000001907,0.0
1614964803836247920,,22603,,1614892776,939293928,"""0""",11.0,0.375,12.3000001907,0.0
1614964803925292968,,22604,,1614892776,988786428,"""0""",11.0,0.375,12.3000001907,0.0
1614964803981292009,,22605,,1614892777,38797053,"""0""",11.0,1.375,12.25,0.0
1614964804032569885,,22606,,1614892777,88795439,"""0""",11.0,1.375,12.25,0.0
1614964804072488069,,22607,,1614892777,138788095,"""0""",11.0,0.625,12.25,0.0
1614964804122603893,,22608,,1614892777,188817574,"""0""",11.0,0.375,12.25,0.0
1614964804165721893,,22609,,1614892777,238843876,"""0""",11.0,0.375,12.25,0.0
1614964804231501102,,22610,,1614892777,288778407,"""0""",11.0,0.375,12.25,0.0
1614964804306408882,,22611,,1614892777,339358980,"""0""",11.0,0.625,12.25,0.0
1614964804306526899,,22612,,1614892777,388787938,"""0""",11.0,1.375,12.25,0.0
1614964804349278926,,22613,,1614892777,438833511,"""0""",11.0,1.75,12.25,0.0
1614964804398617029,,22614,,1614892777,488762313,"""0""",11.0,1.75,12.1999998093,0.0
1614964804457036972,,22615,,1614892777,538902313,"""0""",11.0,2.75,12.1999998093,0.0
1614964804508017063,,22616,,1614892777,588775959,"""0""",11.0,3.0,12.1999998093,0.0
1614964804591393947,,22617,,1614892777,638846636,"""0""",11.0,3.875,12.1499996185,0.0
1614964804591500043,,22618,,1614892777,688771168,"""0""",11.0,3.875,12.1499996185,0.0
1614964804641762018,,22619,,1614892777,738895647,"""0""",11.0,4.125,12.1499996185,0.0
1614964804688143014,,22620,,1614892777,788804292,"""0""",11.0,4.125,12.1499996185,0.0
1614964804731964111,,22621,,1614892777,838803147,"""0""",11.0,4.375,12.1499996185,0.0
1614964804809804916,,22622,,1614892777,888780803,"""0""",11.0,4.5,12.1499996185,0.0
1614964804851839065,,22623,,1614892777,938825542,"""0""",11.0,4.5,12.1499996185,0.0
1614964804911438941,,22624,,1614892777,988822886,"""0""",11.0,4.5,12.0,0.0
1614964804953564882,,22625,,1614892778,38871636,"""0""",11.0,4.375,12.0,0.0
1614964805010767936,,22626,,1614892778,88802782,"""0""",11.0,4.375,12.0,0.0
1614964805071991920,,22627,,1614892778,138800907,"""0""",11.0,4.5,12.0500001907,0.0
1614964805135205030,,22628,,1614892778,188834761,"""0""",11.0,4.5,12.0500001907,0.0
1614964805135333061,,22629,,1614892778,238885126,"""0""",11.0,4.375,12.0500001907,0.0
1614964805185411930,,22630,,1614892778,288886688,"""0""",11.0,4.375,12.0500001907,0.0
1614964805233514070,,22631,,1614892778,338791167,"""0""",11.0,4.25,12.0500001907,0.0
1614964805293620109,,22632,,1614892778,388816063,"""0""",11.0,4.375,12.0500001907,0.0
1614964805339651107,,22633,,1614892778,438976115,"""0""",11.0,4.375,12.1000003815,0.0
1614964805437318086,,22634,,1614892778,488757209,"""0""",11.0,4.375,12.1000003815,0.0
1614964805481386899,,22635,,1614892778,538909032,"""0""",11.0,4.25,12.1000003815,0.0
1614964805481507062,,22636,,1614892778,588776376,"""0""",11.0,4.375,12.1000003815,0.0
1614964805527976989,,22637,,1614892778,638797469,"""0""",11.0,4.25,12.0500001907,0.0
1614964805582400083,,22638,,1614892778,688792105,"""0""",11.0,4.375,12.0500001907,0.0
1614964805619451045,,22639,,1614892778,738781428,"""0""",11.0,4.375,12.0500001907,0.0
1614964805723551034,,22640,,1614892778,788844136,"""0""",11.0,4.375,12.0500001907,0.0
1614964805773015975,,22641,,1614892778,838858615,"""0""",11.0,4.25,12.0500001907,0.0
1614964805821619033,,22642,,1614892778,888872105,"""0""",11.0,4.25,12.0500001907,0.0
1614964805872602939,,22643,,1614892778,938801584,"""0""",11.0,4.25,12.0,0.0
1614964805918546915,,22644,,1614892778,988909500,"""0""",11.0,4.25,12.0,0.0
1614964805967354059,,22645,,1614892779,38799813,"""0""",11.0,4.25,12.0,0.0
1614964806030962944,,22646,,1614892779,88761323,"""0""",11.0,4.0,12.1000003815,0.0
1614964806031079053,,22647,,1614892779,138805021,"""0""",11.0,4.125,12.1000003815,0.0
1614964806073179006,,22648,,1614892779,188777417,"""0""",11.0,4.125,12.1000003815,0.0
1614964806146066904,,22649,,1614892779,239032261,"""0""",11.0,4.375,12.0500001907,0.0
1614964806186614036,,22650,,1614892779,288799761,"""0""",11.0,4.125,12.0500001907,0.0
1614964806242707014,,22651,,1614892779,338796375,"""0""",11.0,4.125,12.0500001907,0.0
1614964806298733949,,22652,,1614892779,388842052,"""0""",11.0,4.125,12.0500001907,0.0
1614964806346805095,,22653,,1614892779,438987886,"""0""",11.0,4.25,12.0500001907,0.0
1614964806391591072,,22654,,1614892779,488781375,"""0""",11.0,4.375,12.0500001907,0.0
1614964806436144113,,22655,,1614892779,538857208,"""0""",11.0,4.375,12.0500001907,0.0
1614964806474730014,,22656,,1614892779,588961427,"""0""",11.0,4.125,12.0500001907,0.0
1614964806532676935,,22657,,1614892779,638795073,"""0""",11.0,4.125,12.0500001907,0.0
1614964806637722015,,22658,,1614892779,688775386,"""0""",11.0,4.0,12.0500001907,0.0
1614964806638071060,,22659,,1614892779,738786688,"""0""",11.0,4.125,12.1000003815,0.0
1614964806678273916,,22660,,1614892779,788791167,"""0""",11.0,4.0,12.1000003815,0.0
1614964806740937948,,22661,,1614892779,838777885,"""0""",11.0,3.875,12.1000003815,0.0
1614964806802963018,,22662,,1614892779,888794604,"""0""",11.0,3.0,12.1499996185,0.0
1614964806847697973,,22663,,1614892779,938781375,"""0""",11.0,3.375,12.1499996185,0.0
1614964806915891885,,22664,,1614892779,988762573,"""0""",11.0,3.875,12.1499996185,0.0
1614964806975920915,,22665,,1614892780,38901010,"""0""",11.0,3.875,12.1000003815,0.0
1614964807030391931,,22666,,1614892780,88772677,"""0""",11.0,3.375,12.1000003815,0.0
1614964807100328922,,22667,,1614892780,138851479,"""0""",11.0,2.75,12.1000003815,0.0
1614964807100466012,,22668,,1614892780,188771687,"""0""",11.0,2.375,12.1000003815,0.0
1614964807139595985,,22669,,1614892780,238918250,"""0""",11.0,3.375,12.1999998093,0.0
1614964807213870048,,22670,,1614892780,288853250,"""0""",11.0,3.375,12.1999998093,0.0
1614964807259305953,,22671,,1614892780,338802677,"""0""",11.0,3.375,12.1999998093,0.0
1614964807299946069,,22672,,1614892780,388806896,"""0""",11.0,3.0,12.1499996185,0.0
1614964807359476089,,22673,,1614892780,438936323,"""0""",11.0,3.0,12.1499996185,0.0
1614964807406090974,,22674,,1614892780,488896844,"""0""",11.0,3.375,12.1499996185,0.0
1614964807480108976,,22675,,1614892780,538787416,"""0""",11.0,3.0,12.1499996185,0.0
1614964807561609029,,22676,,1614892780,588803979,"""0""",11.0,2.375,12.1499996185,0.0
1614964807561713933,,22677,,1614892780,638854239,"""0""",11.0,3.375,12.1499996185,0.0
1614964807616090059,,22678,,1614892780,688799708,"""0""",11.0,3.875,12.1000003815,0.0
1614964807673434972,,22679,,1614892780,738802468,"""0""",11.0,3.875,12.1000003815,0.0
1614964807750370025,,22680,,1614892780,789180854,"""0""",11.0,3.75,12.1000003815,0.0
1614964807750473022,,22681,,1614892780,838852625,"""0""",11.0,3.375,12.1000003815,0.0
1614964807807919979,,22682,,1614892780,888772833,"""0""",11.0,3.875,12.1499996185,0.0
1614964807840377092,,22683,,1614892780,938783823,"""0""",11.0,4.0,12.1499996185,0.0
1614964807906894922,,22684,,1614892780,988856375,"""0""",11.0,4.0,12.1499996185,0.0
1614964807964351892,,22685,,1614892781,38780698,"""0""",11.0,3.875,12.1499996185,0.0
1614964808087213039,,22686,,1614892781,88876947,"""0""",11.0,3.75,12.1499996185,0.0
1614964808087488889,,22687,,1614892781,138917625,"""0""",11.0,3.375,12.1499996185,0.0
1614964808148109912,,22688,,1614892781,188766843,"""0""",11.0,3.875,12.1000003815,0.0
1614964808148314952,,22689,,1614892781,238775020,"""0""",11.0,3.75,12.1000003815,0.0
1614964808218383073,,22690,,1614892781,288771270,"""0""",11.0,3.375,12.1000003815,0.0
1614964808249520063,,22691,,1614892781,339069031,"""0""",11.0,2.75,12.1499996185,0.0
1614964808302484989,,22692,,1614892781,388783874,"""0""",11.0,3.75,12.1499996185,0.0
1614964808399116992,,22693,,1614892781,438794031,"""0""",11.0,3.875,12.1499996185,0.0
1614964808399369001,,22694,,1614892781,488774083,"""0""",11.0,3.875,12.1000003815,0.0
1614964808505058050,,22695,,1614892781,538797937,"""0""",11.0,3.0,12.1000003815,0.0
1614964808505177021,,22696,,1614892781,588767729,"""0""",11.0,3.0,12.1000003815,0.0
1614964808557300090,,22697,,1614892781,638864551,"""0""",11.0,3.875,12.1000003815,0.0
1614964808607978105,,22698,,1614892781,688826270,"""0""",11.0,3.875,12.1000003815,0.0
1614964808671853065,,22699,,1614892781,738776583,"""0""",11.0,4.0,12.1000003815,0.0
1614964808782444000,,22700,,1614892781,788775281,"""0""",11.0,3.875,12.1000003815,0.0
1614964808782558917,,22701,,1614892781,838804708,"""0""",11.0,3.875,12.1499996185,0.0
1614964808875516891,,22702,,1614892781,888868874,"""0""",11.0,4.0,12.1499996185,0.0
1614964808875637054,,22703,,1614892781,938781270,"""0""",11.0,4.0,12.1499996185,0.0
1614964808924645900,,22704,,1614892781,988784187,"""0""",11.0,4.0,12.1000003815,0.0
1614964808995933055,,22705,,1614892782,38792937,"""0""",11.0,4.0,12.1000003815,0.0
1614964809056085109,,22706,,1614892782,88799708,"""0""",11.0,4.125,12.1000003815,0.0
1614964809056191921,,22707,,1614892782,138779291,"""0""",11.0,4.0,12.1000003815,0.0
1614964809106748104,,22708,,1614892782,188802155,"""0""",11.0,3.875,12.1000003815,0.0
1614964809160285949,,22709,,1614892782,238778405,"""0""",11.0,3.0,12.1000003815,0.0
1614964809205918073,,22710,,1614892782,288908666,"""0""",11.0,2.75,12.1499996185,0.0
1614964809271351099,,22711,,1614892782,338815020,"""0""",11.0,3.0,12.1499996185,0.0
1614964809330209970,,22712,,1614892782,388802780,"""0""",11.0,3.75,12.1499996185,0.0
1614964809396101951,,22713,,1614892782,438774499,"""0""",11.0,3.875,12.1000003815,0.0
1614964809396223068,,22714,,1614892782,488838041,"""0""",11.0,3.0,12.1000003815,0.0
1614964809436475038,,22715,,1614892782,538833145,"""0""",11.0,2.375,12.1000003815,0.0
1614964809478852987,,22716,,1614892782,588925124,"""0""",11.0,2.375,12.1000003815,0.0
1614964809531008958,,22717,,1614892782,638759968,"""0""",11.0,3.75,12.1000003815,0.0
1614964809632199048,,22718,,1614892782,688798249,"""0""",11.0,3.375,12.1000003815,0.0
1614964809632422924,,22719,,1614892782,738850124,"""0""",11.0,3.0,12.1000003815,0.0
1614964809675738096,,22720,,1614892782,788799239,"""0""",11.0,2.75,12.1499996185,0.0
1614964809725934982,,22721,,1614892782,838781270,"""0""",11.0,3.875,12.1499996185,0.0
1614964809794521093,,22722,,1614892782,888832520,"""0""",11.0,4.0,12.1499996185,0.0
1614964809870098114,,22723,,1614892782,938784030,"""0""",11.0,3.875,12.1000003815,0.0
1614964809922671079,,22724,,1614892782,988939291,"""0""",11.0,3.375,12.1000003815,0.0
1614964809971370935,,22725,,1614892783,38823145,"""0""",11.0,3.375,12.1000003815,0.0
1614964810046226978,,22726,,1614892783,88946686,"""0""",11.0,3.75,12.1000003815,0.0
1614964810144862890,,22727,,1614892783,138743405,"""0""",11.0,3.875,12.1000003815,0.0
1614964810144897937,,22728,,1614892783,188789968,"""0""",11.0,4.0,12.1000003815,0.0
1614964810144943952,,22729,,1614892783,238822363,"""0""",11.0,3.875,12.1000003815,0.0
1614964810235398054,,22730,,1614892783,288854134,"""0""",11.0,3.875,12.1000003815,0.0
1614964810266957044,,22731,,1614892783,338777467,"""0""",11.0,4.0,12.1000003815,0.0
1614964810318078994,,22732,,1614892783,388854395,"""0""",11.0,4.0,12.1000003815,0.0
1614964810364543914,,22733,,1614892783,438771686,"""0""",11.0,3.875,12.1000003815,0.0
1614964810412632942,,22734,,1614892783,488807676,"""0""",11.0,3.75,12.1000003815,0.0
1614964810467618942,,22735,,1614892783,538784134,"""0""",11.0,3.875,12.1000003815,0.0
1614964810533071041,,22736,,1614892783,588841113,"""0""",11.0,4.0,12.0500001907,0.0
1614964810602786064,,22737,,1614892783,638771426,"""0""",11.0,4.0,12.0500001907,0.0
1614964810602895021,,22738,,1614892783,688776894,"""0""",11.0,3.875,12.0500001907,0.0
1614964810659167051,,22739,,1614892783,738778249,"""0""",11.0,3.375,12.1499996185,0.0
1614964810731473922,,22740,,1614892783,788783926,"""0""",11.0,3.75,12.1499996185,0.0
1614964810823508024,,22741,,1614892783,838765488,"""0""",11.0,3.875,12.1499996185,0.0
1614964810823672056,,22742,,1614892783,888779342,"""0""",11.0,4.0,12.0500001907,0.0
1614964810855701923,,22743,,1614892783,938788092,"""0""",11.0,3.375,12.0500001907,0.0
1614964810893426895,,22744,,1614892783,988776426,"""0""",11.0,3.0,12.0500001907,0.0
1614964810960263967,,22745,,1614892784,38757415,"""0""",11.0,3.75,12.1000003815,0.0
1614964811005605936,,22746,,1614892784,88838040,"""0""",11.0,4.0,12.1000003815,0.0
1614964811052412033,,22747,,1614892784,138769446,"""0""",11.0,3.875,12.1000003815,0.0
1614964811108109951,,22748,,1614892784,188820748,"""0""",11.0,3.875,12.1000003815,0.0
1614964811193392038,,22749,,1614892784,238813925,"""0""",11.0,3.375,12.1499996185,0.0
1614964811193526029,,22750,,1614892784,288814915,"""0""",11.0,3.875,12.1499996185,0.0
1614964811249902009,,22751,,1614892784,338725905,"""0""",11.0,4.0,12.1499996185,0.0
1614964811301846981,,22752,,1614892784,388780540,"""0""",12.0,4.0,12.1000003815,0.0
1614964811353513956,,22753,,1614892784,438809655,"""0""",12.0,3.75,12.1000003815,0.0
1614964811422434091,,22754,,1614892784,488805280,"""0""",12.0,3.875,12.1000003815,0.0
1614964811467483997,,22755,,1614892784,538856634,"""0""",11.0,3.875,12.1000003815,0.0
1614964811514024019,,22756,,1614892784,588837779,"""0""",11.0,3.875,12.1000003815,0.0
1614964811563976049,,22757,,1614892784,638760540,"""0""",11.0,3.875,12.1000003815,0.0
1614964811615186929,,22758,,1614892784,689174029,"""0""",11.0,3.875,12.1000003815,0.0
1614964811714437007,,22759,,1614892784,738803977,"""0""",11.0,3.75,12.1000003815,0.0
1614964811714585065,,22760,,1614892784,789504863,"""0""",11.0,3.875,12.1000003815,0.0
1614964811767859935,,22761,,1614892784,838763717,"""0""",11.0,4.0,12.1000003815,0.0
1614964811818761110,,22762,,1614892784,888993717,"""0""",11.0,4.0,12.1000003815,0.0
1614964811874010086,,22763,,1614892784,938773040,"""0""",11.0,3.375,12.1000003815,0.0
1614964811912249088,,22764,,1614892784,988855800,"""0""",11.0,3.875,12.1000003815,0.0
1614964812007489919,,22765,,1614892785,38763040,"""0""",11.0,4.125,12.1000003815,0.0
1614964812007822990,,22766,,1614892785,88860019,"""0""",11.0,4.125,12.1000003815,0.0
1614964812059711933,,22767,,1614892785,138797831,"""0""",11.0,4.0,12.1000003815,0.0
1614964812103082895,,22768,,1614892785,189247415,"""0""",11.0,3.875,12.1000003815,0.0
1614964812147954940,,22769,,1614892785,238803144,"""0""",11.0,3.875,12.1000003815,0.0
1614964812202835083,,22770,,1614892785,289136529,"""0""",11.0,3.875,12.1000003815,0.0
1614964812244656085,,22771,,1614892785,338786738,"""0""",11.0,4.125,12.1000003815,0.0
1614964812329214096,,22772,,1614892785,388830227,"""0""",11.0,4.0,12.1000003815,0.0
1614964812329323053,,22773,,1614892785,438782883,"""0""",11.0,3.75,12.1000003815,0.0
1614964812378329038,,22774,,1614892785,489007779,"""0""",11.0,3.75,12.1499996185,0.0
1614964812436804056,,22775,,1614892785,538767206,"""0""",11.0,3.875,12.1499996185,0.0
1614964812486469030,,22776,,1614892785,588937415,"""0""",11.0,3.875,12.1499996185,0.0
1614964812542774915,,22777,,1614892785,638836269,"""0""",11.0,3.75,12.1000003815,0.0
1614964812628480911,,22778,,1614892785,689447623,"""0""",11.0,2.75,12.1000003815,0.0
1614964812693100929,,22779,,1614892785,738879654,"""0""",11.0,3.375,12.1000003815,0.0
1614964812693140983,,22780,,1614892785,788833092,"""0""",11.0,3.875,12.1000003815,0.0
1614964812751122951,,22781,,1614892785,838758508,"""0""",11.0,4.0,12.1000003815,0.0
1614964812800739049,,22782,,1614892785,889611425,"""0""",11.0,3.875,12.1000003815,0.0
1614964812849994897,,22783,,1614892785,938758873,"""0""",11.0,3.375,12.1000003815,0.0
1614964812910695075,,22784,,1614892785,988847102,"""0""",11.0,3.375,12.1499996185,0.0
1614964812959949970,,22785,,1614892786,38813091,"""0""",11.0,3.875,12.1499996185,0.0
1614964813012032032,,22786,,1614892786,88821789,"""0""",11.0,3.875,12.1499996185,0.0
1614964813095876932,,22787,,1614892786,138784862,"""0""",11.0,3.875,12.1000003815,0.0
1614964813095992088,,22788,,1614892786,188894185,"""0""",11.0,3.375,12.1000003815,0.0
1614964813199657917,,22789,,1614892786,238773039,"""0""",11.0,3.75,12.1000003815,0.0
1614964813199827909,,22790,,1614892786,288808404,"""0""",11.0,3.875,12.1000003815,0.0
1614964813262991905,,22791,,1614892786,338780487,"""0""",11.0,4.125,12.1000003815,0.0
1614964813296467065,,22792,,1614892786,388921008,"""0""",11.0,3.875,12.1000003815,0.0
1614964813334701061,,22793,,1614892786,438786477,"""0""",11.0,3.875,12.1000003815,0.0
1614964813383737087,,22794,,1614892786,488795956,"""0""",11.0,3.875,12.1000003815,0.0
1614964813426259040,,22795,,1614892786,538752362,"""0""",11.0,4.125,12.1000003815,0.0
1614964813485796928,,22796,,1614892786,588916372,"""0""",11.0,3.875,12.1000003815,0.0
1614964813526340007,,22797,,1614892786,638872935,"""0""",11.0,3.375,12.1000003815,0.0
1614964813585015058,,22798,,1614892786,688863247,"""0""",11.0,3.0,12.1000003815,0.0
1614964813626964092,,22799,,1614892786,738835695,"""0""",11.0,3.75,12.1000003815,0.0
1614964813681070089,,22800,,1614892786,788893768,"""0""",11.0,3.875,12.1000003815,0.0
1614964813727979898,,22801,,1614892786,838851008,"""0""",11.0,3.875,12.1000003815,0.0
1614964813808763027,,22802,,1614892786,888811320,"""0""",11.0,2.75,12.1000003815,0.0
1614964813852215051,,22803,,1614892786,938823716,"""0""",11.0,2.0,12.1499996185,0.0
1614964813914904117,,22804,,1614892786,988906529,"""0""",11.0,2.375,12.1499996185,0.0
1614964813981071949,,22805,,1614892787,38795539,"""0""",11.0,3.0,12.1499996185,0.0
1614964814034487009,,22806,,1614892787,88777310,"""0""",11.0,2.0,12.1999998093,0.0
1614964814100169897,,22807,,1614892787,138822831,"""0""",11.0,1.375,12.1999998093,0.0
1614964814100285053,,22808,,1614892787,188929185,"""0""",11.0,1.0,12.1999998093,0.0
1614964814137916088,,22809,,1614892787,238777414,"""0""",11.0,1.0,12.1999998093,0.0
1614964814198602914,,22810,,1614892787,289059497,"""0""",11.0,1.0,12.1999998093,0.0
1614964814256158113,,22811,,1614892787,338819706,"""0""",11.0,0.625,12.1999998093,0.0
1614964814311443090,,22812,,1614892787,388866633,"""0""",11.0,0.375,12.1999998093,0.0
1614964814354654073,,22813,,1614892787,438799966,"""0""",11.0,0.375,12.25,0.0
1614964814394006013,,22814,,1614892787,489034810,"""0""",11.0,0.375,12.25,0.0
1614964814437879085,,22815,,1614892787,538787883,"""0""",11.0,0.375,12.25,0.0
1614964814516067028,,22816,,1614892787,588961424,"""0""",11.0,0.375,12.3000001907,0.0
1614964814564362049,,22817,,1614892787,639015851,"""0""",11.0,0.375,12.3000001907,0.0
1614964814607295989,,22818,,1614892787,688835903,"""0""",11.0,0.375,12.3000001907,0.0
1614964814653218984,,22819,,1614892787,738856060,"""0""",11.0,0.375,12.25,0.0
1614964814707758903,,22820,,1614892787,788861580,"""0""",11.0,0.375,12.25,0.0
1614964814761722087,,22821,,1614892787,838770487,"""0""",11.0,1.375,12.25,0.0
1614964814797256946,,22822,,1614892787,888859497,"""0""",11.0,1.75,12.25,0.0
1614964814853540897,,22823,,1614892787,938784809,"""0""",11.0,0.625,12.25,0.0
1614964814915913105,,22824,,1614892787,988876476,"""0""",11.0,1.0,12.25,0.0
1614964814987334966,,22825,,1614892788,38750903,"""0""",11.0,3.875,12.1000003815,0.0
1614964814987519979,,22826,,1614892788,88807934,"""0""",11.0,4.0,12.1000003815,0.0
1614964815033615112,,22827,,1614892788,138775851,"""0""",11.0,3.875,12.1000003815,0.0
1614964815088725090,,22828,,1614892788,188816372,"""0""",11.0,3.875,12.1000003815,0.0
1614964815133431911,,22829,,1614892788,239043872,"""0""",11.0,3.875,12.1000003815,0.0
1614964815179249048,,22830,,1614892788,288785591,"""0""",11.0,3.875,12.1000003815,0.0
1614964815235251903,,22831,,1614892788,338792361,"""0""",11.0,3.375,12.1000003815,0.0
1614964815317260026,,22832,,1614892788,388822674,"""0""",11.0,2.0,12.1499996185,0.0
1614964815351353883,,22833,,1614892788,438811528,"""0""",11.0,1.0,12.1499996185,0.0
1614964815406465053,,22834,,1614892788,488786424,"""0""",11.0,2.0,12.1499996185,0.0
1614964815456996917,,22835,,1614892788,538930538,"""0""",11.0,3.875,12.1000003815,0.0
1614964815500883102,,22836,,1614892788,588784861,"""0""",11.0,3.0,12.1000003815,0.0
1614964815548362970,,22837,,1614892788,638889601,"""0""",11.0,2.375,12.1000003815,0.0
1614964815632679939,,22838,,1614892788,688876215,"""0""",11.0,1.75,12.1999998093,0.0
1614964815681474924,,22839,,1614892788,739211788,"""0""",11.0,2.375,12.1999998093,0.0
1614964815681626081,,22840,,1614892788,788901267,"""0""",11.0,3.0,12.1999998093,0.0
1614964815742475032,,22841,,1614892788,838864445,"""0""",11.0,3.875,12.1499996185,0.0
1614964815789336919,,22842,,1614892788,888894705,"""0""",11.0,3.875,12.1499996185,0.0
1614964815835711002,,22843,,1614892788,938804080,"""0""",11.0,4.0,12.1499996185,0.0
1614964815910269021,,22844,,1614892788,988835694,"""0""",11.0,4.125,12.1499996185,0.0
1614964815956034898,,22845,,1614892789,38741424,"""0""",11.0,3.875,12.1000003815,0.0
1614964815992068052,,22846,,1614892789,88858872,"""0""",11.0,4.0,12.1000003815,0.0
1614964816028649091,,22847,,1614892789,138790851,"""0""",11.0,3.375,12.1000003815,0.0
1614964816074368000,,22848,,1614892789,188789184,"""0""",11.0,2.375,12.1499996185,0.0
1614964816127059936,,22849,,1614892789,238782569,"""0""",11.0,2.75,12.1499996185,0.0
1614964816202716112,,22850,,1614892789,288777101,"""0""",11.0,3.875,12.1499996185,0.0
1614964816254672050,,22851,,1614892789,338831371,"""0""",11.0,2.0,12.1499996185,0.0
1614964816321763992,,22852,,1614892789,388788351,"""0""",11.0,1.75,12.1499996185,0.0
1614964816366987943,,22853,,1614892789,438794653,"""0""",11.0,2.75,12.1499996185,0.0
1614964816402981042,,22854,,1614892789,488780278,"""0""",11.0,3.75,12.1000003815,0.0
1614964816509651899,,22855,,1614892789,538787830,"""0""",11.0,3.375,12.1000003815,0.0
1614964816509864091,,22856,,1614892789,588808142,"""0""",11.0,3.75,12.1000003815,0.0
1614964816562953948,,22857,,1614892789,638827361,"""0""",11.0,2.75,12.1499996185,0.0
1614964816613419055,,22858,,1614892789,688794965,"""0""",11.0,2.0,12.1499996185,0.0
1614964816680388927,,22859,,1614892789,738909288,"""0""",11.0,3.875,12.1499996185,0.0
1614964816680586099,,22860,,1614892789,788761007,"""0""",11.0,3.875,12.1499996185,0.0
1614964816762263059,,22861,,1614892789,838825746,"""0""",11.0,2.0,12.1499996185,0.0
1614964816810903072,,22862,,1614892789,888820330,"""0""",11.0,1.75,12.1499996185,0.0
1614964816858031034,,22863,,1614892789,938850902,"""0""",11.0,2.375,12.1499996185,0.0
1614964816913625955,,22864,,1614892789,988827569,"""0""",11.0,2.375,12.1999998093,0.0
1614964817011720895,,22865,,1614892790,38903350,"""0""",11.0,3.0,12.1999998093,0.0
1614964817011784076,,22866,,1614892790,89079548,"""0""",11.0,2.375,12.1999998093,0.0
1614964817064565896,,22867,,1614892790,138803350,"""0""",11.0,2.0,12.1999998093,0.0
1614964817123008966,,22868,,1614892790,188788819,"""0""",11.0,1.375,12.1999998093,0.0
1614964817160897970,,22869,,1614892790,238789184,"""0""",11.0,2.0,12.1999998093,0.0
1614964817215286016,,22870,,1614892790,288780590,"""0""",11.0,2.0,12.1999998093,0.0
1614964817279880046,,22871,,1614892790,338894652,"""0""",11.0,2.75,12.1999998093,0.0
1614964817330539941,,22872,,1614892790,388818767,"""0""",11.0,3.875,12.1999998093,0.0
1614964817400608062,,22873,,1614892790,439676215,"""0""",11.0,4.0,12.1000003815,0.0
1614964817400713920,,22874,,1614892790,488774288,"""0""",11.0,3.875,12.1000003815,0.0
1614964817448257923,,22875,,1614892790,538798454,"""0""",11.0,3.0,12.1000003815,0.0
1614964817498333930,,22876,,1614892790,588787465,"""0""",11.0,2.375,12.1000003815,0.0
1614964817543828010,,22877,,1614892790,638857517,"""0""",11.0,3.375,12.1499996185,0.0
1614964817613676071,,22878,,1614892790,688813663,"""0""",11.0,3.0,12.1499996185,0.0
1614964817714112997,,22879,,1614892790,738915017,"""0""",11.0,3.0,12.1499996185,0.0
1614964817714382886,,22880,,1614892790,788774652,"""0""",11.0,2.75,12.1499996185,0.0
1614964817785767078,,22881,,1614892790,838925173,"""0""",11.0,2.0,12.1499996185,0.0
1614964817843455076,,22882,,1614892790,888949756,"""0""",11.0,2.0,12.1499996185,0.0
1614964817843611001,,22883,,1614892790,938801840,"""0""",11.0,3.0,12.1499996185,0.0
1614964817895068883,,22884,,1614892790,988817829,"""0""",11.0,3.375,12.1499996185,0.0
1614964817936367034,,22885,,1614892791,38795537,"""0""",11.0,2.375,12.1499996185,0.0
1614964818007843971,,22886,,1614892791,88801683,"""0""",11.0,3.0,12.1000003815,0.0
1614964818061866998,,22887,,1614892791,138836787,"""0""",11.0,4.25,12.1000003815,0.0
1614964818120017051,,22888,,1614892791,188866214,"""0""",11.0,4.125,12.1000003815,0.0
1614964818173698902,,22889,,1614892791,238887204,"""0""",11.0,3.375,12.1999998093,0.0
1614964818232489109,,22890,,1614892791,288871892,"""0""",11.0,3.375,12.1999998093,0.0
1614964818318603992,,22891,,1614892791,338791319,"""0""",11.0,3.875,12.1999998093,0.0
1614964818319097995,,22892,,1614892791,388819339,"""0""",11.0,3.875,12.1999998093,0.0
1614964818400317907,,22893,,1614892791,438974808,"""0""",11.0,4.0,12.1000003815,0.0
1614964818400420904,,22894,,1614892791,488803714,"""0""",11.0,4.0,12.1000003815,0.0
1614964818437618970,,22895,,1614892791,538788350,"""0""",11.0,3.0,12.1000003815,0.0
1614964818476208925,,22896,,1614892791,588818766,"""0""",11.0,2.375,12.1499996185,0.0
1614964818534889936,,22897,,1614892791,638839235,"""0""",11.0,3.75,12.1499996185,0.0
1614964818614744901,,22898,,1614892791,688817464,"""0""",11.0,4.0,12.1499996185,0.0
1614964818660840988,,22899,,1614892791,738787881,"""0""",11.0,4.125,12.1000003815,0.0
1614964818694653987,,22900,,1614892791,788768714,"""0""",11.0,3.875,12.1000003815,0.0
1614964818746570110,,22901,,1614892791,838810902,"""0""",11.0,2.375,12.1000003815,0.0
1614964818788451910,,22902,,1614892791,888758089,"""0""",11.0,3.0,12.1000003815,0.0
1614964818831367015,,22903,,1614892791,938865537,"""0""",11.0,4.0,12.1000003815,0.0
1614964818890305995,,22904,,1614892791,988757256,"""0""",11.0,3.875,12.1000003815,0.0
1614964818983474969,,22905,,1614892792,38823141,"""0""",11.0,3.875,12.1000003815,0.0
1614964819029934883,,22906,,1614892792,88778245,"""0""",11.0,3.875,12.1000003815,0.0
1614964819071604013,,22907,,1614892792,138796527,"""0""",11.0,4.0,12.1000003815,0.0
1614964819111855030,,22908,,1614892792,188786891,"""0""",11.0,3.875,12.1000003815,0.0
1614964819188823938,,22909,,1614892792,238828454,"""0""",11.0,3.375,12.1000003815,0.0
1614964819231901884,,22910,,1614892792,288762672,"""0""",11.0,3.75,12.1000003815,0.0
1614964819269453048,,22911,,1614892792,338869756,"""0""",11.0,3.375,12.1000003815,0.0
1614964819306771039,,22912,,1614892792,388779391,"""0""",11.0,3.75,12.1000003815,0.0
