rosbagTimestamp,header,seq,stamp,secs,nsecs,frame_id,Temperature,OutputCurrent,BusVoltage,ClosedLoopError
1614971084732146024,,148212,,1614899057,388777678,"""0""",12.0,0.0,12.3999996185,0.0
1614971084777164936,,148213,,1614899057,438786376,"""0""",12.0,0.0,12.3999996185,0.0
1614971084829003095,,148214,,1614899057,488757782,"""0""",12.0,0.0,12.3999996185,0.0
1614971084879280090,,148215,,1614899057,538780699,"""0""",12.0,0.0,12.3999996185,0.0
1614971084930613040,,148216,,1614899057,588786845,"""0""",12.0,0.0,12.3999996185,0.0
1614971084989166975,,148217,,1614899057,638823980,"""0""",12.0,0.0,12.3999996185,0.0
1614971085032321929,,148218,,1614899057,689286480,"""0""",12.0,0.0,12.3999996185,0.0
1614971085116738080,,148219,,1614899057,738773928,"""0""",12.0,0.0,12.3999996185,0.0
1614971085142838954,,148220,,1614899057,788908459,"""0""",12.0,0.0,12.3999996185,0.0
1614971085186216115,,148221,,1614899057,838761584,"""0""",12.0,0.0,12.3999996185,0.0
1614971085237023115,,148222,,1614899057,888778303,"""0""",12.0,0.0,12.3999996185,0.0
1614971085277810096,,148223,,1614899057,938770126,"""0""",12.0,0.0,12.3999996185,0.0
1614971085338119983,,148224,,1614899057,988800543,"""0""",12.0,0.0,12.3999996185,0.0
1614971085386785030,,148225,,1614899058,38777886,"""0""",12.0,0.0,12.3999996185,0.0
1614971085442481994,,148226,,1614899058,88817991,"""0""",12.0,0.0,12.3999996185,0.0
1614971085484550952,,148227,,1614899058,138738615,"""0""",12.0,0.0,12.3999996185,0.0
1614971085538064956,,148228,,1614899058,188812209,"""0""",12.0,0.0,12.3999996185,0.0
1614971085586410999,,148229,,1614899058,238832782,"""0""",12.0,0.0,12.3999996185,0.0
1614971085643341064,,148230,,1614899058,288837157,"""0""",12.0,0.0,12.3999996185,0.0
1614971085692349910,,148231,,1614899058,338823667,"""0""",12.0,0.0,12.3999996185,0.0
1614971085742470979,,148232,,1614899058,388818563,"""0""",12.0,0.0,12.3999996185,0.0
1614971085793210029,,148233,,1614899058,438778824,"""0""",12.0,0.0,12.3999996185,0.0
1614971085846931934,,148234,,1614899058,488766376,"""0""",12.0,0.0,12.3999996185,0.0
1614971085903444051,,148235,,1614899058,538785282,"""0""",12.0,0.0,12.3999996185,0.0
1614971085983859062,,148236,,1614899058,588803772,"""0""",12.0,0.0,12.3999996185,0.0
1614971086031950950,,148237,,1614899058,638822574,"""0""",12.0,0.0,12.3999996185,0.0
1614971086057682037,,148238,,1614899058,688783355,"""0""",12.0,0.0,12.3999996185,0.0
1614971086107223033,,148239,,1614899058,738767157,"""0""",12.0,0.0,12.3999996185,0.0
1614971086139086961,,148240,,1614899058,788780959,"""0""",12.0,0.0,12.3999996185,0.0
1614971086203959941,,148241,,1614899058,838873771,"""0""",12.0,0.0,12.3999996185,0.0
1614971086243599891,,148242,,1614899058,888785126,"""0""",12.0,0.0,12.3999996185,0.0
1614971086316732883,,148243,,1614899058,938778459,"""0""",12.0,0.0,12.3999996185,0.0
1614971086339844942,,148244,,1614899058,988887678,"""0""",12.0,0.0,12.3999996185,0.0
1614971086392807006,,148245,,1614899059,38814865,"""0""",12.0,0.0,12.3999996185,0.0
1614971086437524080,,148246,,1614899059,88830230,"""0""",12.0,0.0,12.3999996185,0.0
1614971086500427007,,148247,,1614899059,138805751,"""0""",12.0,0.0,12.3999996185,0.0
1614971086541975021,,148248,,1614899059,188757261,"""0""",12.0,0.0,12.3999996185,0.0
1614971086596081972,,148249,,1614899059,238798459,"""0""",12.0,0.0,12.3999996185,0.0
1614971086642807960,,148250,,1614899059,288794500,"""0""",12.0,0.0,12.3999996185,0.0
1614971086691031932,,148251,,1614899059,338862469,"""0""",12.0,0.0,12.3999996185,0.0
1614971086755942106,,148252,,1614899059,388848250,"""0""",12.0,0.0,12.3999996185,0.0
1614971086804889917,,148253,,1614899059,438798302,"""0""",12.0,0.0,12.3999996185,0.0
1614971086844861984,,148254,,1614899059,488819969,"""0""",12.0,0.0,12.3999996185,0.0
1614971086924793004,,148255,,1614899059,538771688,"""0""",12.0,0.0,12.3999996185,0.0
1614971086949573040,,148256,,1614899059,588839969,"""0""",12.0,0.0,12.3999996185,0.0
1614971086996151924,,148257,,1614899059,638772417,"""0""",12.0,0.0,12.3999996185,0.0
1614971087043765068,,148258,,1614899059,688803667,"""0""",12.0,0.0,12.3999996185,0.0
1614971087098565101,,148259,,1614899059,738811323,"""0""",12.0,0.0,12.3999996185,0.0
1614971087143317937,,148260,,1614899059,788846115,"""0""",12.0,0.0,12.3999996185,0.0
1614971087234457015,,148261,,1614899059,838772104,"""0""",12.0,0.0,12.3999996185,0.0
1614971087261969089,,148262,,1614899059,888801115,"""0""",12.0,0.0,12.3999996185,0.0
1614971087314421892,,148263,,1614899059,938790177,"""0""",12.0,0.0,12.3999996185,0.0
1614971087351708889,,148264,,1614899059,988846636,"""0""",12.0,0.0,12.3999996185,0.0
1614971087393692016,,148265,,1614899060,38768146,"""0""",12.0,0.0,12.3999996185,0.0
1614971087443006992,,148266,,1614899060,88775594,"""0""",12.0,0.0,12.3999996185,0.0
1614971087528897047,,148267,,1614899060,138830229,"""0""",12.0,0.0,12.3999996185,0.0
1614971087563707113,,148268,,1614899060,188821115,"""0""",12.0,0.0,12.3999996185,0.0
1614971087603497028,,148269,,1614899060,238777886,"""0""",12.0,0.0,12.3999996185,0.0
1614971087644789934,,148270,,1614899060,288854188,"""0""",12.0,0.0,12.3999996185,0.0
1614971087696723937,,148271,,1614899060,338851531,"""0""",12.0,0.0,12.3999996185,0.0
1614971087749716043,,148272,,1614899060,388778302,"""0""",12.0,0.0,12.3999996185,0.0
1614971087811495065,,148273,,1614899060,438775802,"""0""",12.0,0.0,12.3999996185,0.0
1614971087839454889,,148274,,1614899060,488828875,"""0""",12.0,0.0,12.3999996185,0.0
1614971087885900974,,148275,,1614899060,538784031,"""0""",12.0,0.0,12.3999996185,0.0
1614971087947093963,,148276,,1614899060,588791896,"""0""",12.0,0.0,12.3999996185,0.0
1614971087997802019,,148277,,1614899060,638758406,"""0""",12.0,0.0,12.3999996185,0.0
1614971088050040006,,148278,,1614899060,688784135,"""0""",12.0,0.0,12.3999996185,0.0
1614971088097878932,,148279,,1614899060,738758771,"""0""",12.0,0.0,12.3999996185,0.0
1614971088142760038,,148280,,1614899060,788777625,"""0""",12.0,0.0,12.3999996185,0.0
1614971088200293064,,148281,,1614899060,838785125,"""0""",12.0,0.0,12.3999996185,0.0
1614971088248187065,,148282,,1614899060,888826635,"""0""",12.0,0.0,12.3999996185,0.0
1614971088290049076,,148283,,1614899060,938813146,"""0""",12.0,0.0,12.3999996185,0.0
1614971088359397888,,148284,,1614899060,988880021,"""0""",12.0,0.0,12.3999996185,0.0
1614971088423670053,,148285,,1614899061,38786062,"""0""",12.0,0.0,12.3999996185,0.0
1614971088442776918,,148286,,1614899061,88784760,"""0""",12.0,0.0,12.3999996185,0.0
1614971088495966911,,148287,,1614899061,138785541,"""0""",12.0,0.0,12.3999996185,0.0
1614971088547197103,,148288,,1614899061,188780698,"""0""",12.0,0.0,12.3999996185,0.0
1614971088596554994,,148289,,1614899061,238869343,"""0""",12.0,0.0,12.3999996185,0.0
1614971088650070905,,148290,,1614899061,288769812,"""0""",12.0,0.0,12.3999996185,0.0
1614971088708801031,,148291,,1614899061,338845593,"""0""",12.0,0.0,12.3999996185,0.0
1614971088754343032,,148292,,1614899061,388805593,"""0""",12.0,0.0,12.3999996185,0.0
1614971088795005083,,148293,,1614899061,438821218,"""0""",12.0,0.0,12.3999996185,0.0
1614971088858501911,,148294,,1614899061,488878510,"""0""",12.0,0.0,12.3999996185,0.0
1614971088899610996,,148295,,1614899061,538813198,"""0""",12.0,0.0,12.3999996185,0.0
1614971088948307037,,148296,,1614899061,588863562,"""0""",12.0,0.0,12.3999996185,0.0
1614971089011620044,,148297,,1614899061,638787781,"""0""",12.0,0.0,12.3999996185,0.0
1614971089062450885,,148298,,1614899061,688794291,"""0""",12.0,0.0,12.3999996185,0.0
1614971089095472097,,148299,,1614899061,738857468,"""0""",12.0,0.0,12.3999996185,0.0
1614971089150852918,,148300,,1614899061,788785177,"""0""",12.0,0.0,12.3999996185,0.0
1614971089195473909,,148301,,1614899061,838801270,"""0""",12.0,0.0,12.3999996185,0.0
1614971089266161918,,148302,,1614899061,888878770,"""0""",12.0,0.0,12.3999996185,0.0
1614971089311338901,,148303,,1614899061,938789760,"""0""",12.0,0.0,12.3999996185,0.0
1614971089371016979,,148304,,1614899061,988845541,"""0""",12.0,0.0,12.3999996185,0.0
1614971089410309076,,148305,,1614899062,38843406,"""0""",12.0,0.0,12.3999996185,0.0
1614971089447267055,,148306,,1614899062,88865437,"""0""",12.0,0.0,12.3999996185,0.0
1614971089496184110,,148307,,1614899062,138855854,"""0""",12.0,0.0,12.3999996185,0.0
1614971089556849956,,148308,,1614899062,188892416,"""0""",12.0,0.0,12.3999996185,0.0
1614971089599750995,,148309,,1614899062,238769291,"""0""",12.0,0.0,12.3999996185,0.0
1614971089646975040,,148310,,1614899062,288796114,"""0""",12.0,13.75,12.3999996185,0.0
1614971089701728105,,148311,,1614899062,338761739,"""0""",12.0,9.375,11.75,0.0
1614971089752194881,,148312,,1614899062,388790645,"""0""",12.0,9.375,11.75,0.0
1614971089798593997,,148313,,1614899062,438783978,"""0""",12.0,9.875,11.75,0.0
1614971089855465888,,148314,,1614899062,488825176,"""0""",12.0,11.0,11.5,0.0
1614971089918220996,,148315,,1614899062,538820905,"""0""",12.0,12.875,11.5,0.0
1614971089967322111,,148316,,1614899062,588780958,"""0""",12.0,12.25,11.5,0.0
1614971090030314922,,148317,,1614899062,638791843,"""0""",12.0,10.375,11.5,0.0
1614971090065560102,,148318,,1614899062,688776322,"""0""",12.0,7.625,11.8500003815,0.0
1614971090096723079,,148319,,1614899062,738808145,"""0""",12.0,7.125,11.8500003815,0.0
1614971090148243904,,148320,,1614899062,788854707,"""0""",12.0,3.75,11.8500003815,0.0
1614971090248151063,,148321,,1614899062,838886426,"""0""",12.0,1.75,12.1999998093,0.0
1614971090271222114,,148322,,1614899062,888783457,"""0""",12.0,2.0,12.1999998093,0.0
1614971090302252054,,148323,,1614899062,938784968,"""0""",12.0,2.0,12.1999998093,0.0
1614971090350933074,,148324,,1614899062,988779343,"""0""",12.0,1.75,12.1999998093,0.0
1614971090403800010,,148325,,1614899063,38873249,"""0""",12.0,1.375,12.1999998093,0.0
1614971090453718900,,148326,,1614899063,89003457,"""0""",12.0,1.75,12.1999998093,0.0
1614971090516383886,,148327,,1614899063,139007103,"""0""",12.0,1.75,12.1999998093,0.0
1614971090580833911,,148328,,1614899063,188782364,"""0""",12.0,1.375,12.1999998093,0.0
1614971090630671977,,148329,,1614899063,238893353,"""0""",12.0,1.75,12.1999998093,0.0
1614971090655564069,,148330,,1614899063,288765124,"""0""",12.0,1.375,12.25,0.0
1614971090698884010,,148331,,1614899063,338903509,"""0""",12.0,1.375,12.25,0.0
1614971090745174884,,148332,,1614899063,388938145,"""0""",12.0,1.375,12.25,0.0
1614971090809206962,,148333,,1614899063,438776791,"""0""",12.0,1.0,12.25,0.0
1614971090847007989,,148334,,1614899063,488787624,"""0""",12.0,0.625,12.25,0.0
1614971090899447917,,148335,,1614899063,538772416,"""0""",12.0,0.625,12.25,0.0
1614971090947715044,,148336,,1614899063,588784759,"""0""",12.0,1.0,12.25,0.0
1614971090995754003,,148337,,1614899063,638859499,"""0""",12.0,1.0,12.25,0.0
1614971091044087886,,148338,,1614899063,688785697,"""0""",12.0,1.0,12.25,0.0
1614971091125792980,,148339,,1614899063,738773561,"""0""",12.0,0.625,12.25,0.0
1614971091173760890,,148340,,1614899063,788834811,"""0""",12.0,0.625,12.3000001907,0.0
1614971091206669092,,148341,,1614899063,838790176,"""0""",12.0,0.625,12.3000001907,0.0
1614971091258680105,,148342,,1614899063,888829551,"""0""",12.0,1.0,12.3000001907,0.0
1614971091297087907,,148343,,1614899063,938789551,"""0""",12.0,1.0,12.25,0.0
1614971091349807024,,148344,,1614899063,988857832,"""0""",12.0,1.0,12.25,0.0
1614971091452286005,,148345,,1614899064,38907207,"""0""",12.0,1.375,12.25,0.0
1614971091501574039,,148346,,1614899064,88817207,"""0""",12.0,3.375,12.1000003815,0.0
1614971091502034902,,148347,,1614899064,138756842,"""0""",12.0,3.75,12.1000003815,0.0
1614971091546274900,,148348,,1614899064,188784655,"""0""",12.0,5.5,12.1000003815,0.0
1614971091598726034,,148349,,1614899064,238764186,"""0""",12.0,3.0,12.1000003815,0.0
1614971091649982929,,148350,,1614899064,288785957,"""0""",12.0,5.75,12.1000003815,0.0
1614971091711663007,,148351,,1614899064,338783092,"""0""",12.0,7.0,12.1000003815,0.0
1614971091746356964,,148352,,1614899064,388791999,"""0""",12.0,6.625,12.1000003815,0.0
1614971091800656080,,148353,,1614899064,438805644,"""0""",12.0,5.125,12.0500001907,0.0
1614971091875161886,,148354,,1614899064,488780071,"""0""",12.0,6.75,12.0500001907,0.0
1614971091911997079,,148355,,1614899064,538792832,"""0""",12.0,4.75,12.0500001907,0.0
1614971091949306964,,148356,,1614899064,588837623,"""0""",12.0,3.375,12.1000003815,0.0
1614971091996268033,,148357,,1614899064,638810540,"""0""",12.0,5.5,12.1000003815,0.0
1614971092102555036,,148358,,1614899064,688892363,"""0""",12.0,5.5,12.1000003815,0.0
1614971092125515937,,148359,,1614899064,738780540,"""0""",12.0,3.0,12.1499996185,0.0
1614971092190351963,,148360,,1614899064,788786582,"""0""",12.0,1.375,12.1499996185,0.0
1614971092229073047,,148361,,1614899064,838813300,"""0""",12.0,2.0,12.1499996185,0.0
1614971092354573965,,148362,,1614899064,888788352,"""0""",12.0,4.75,12.0500001907,0.0
1614971092354717969,,148363,,1614899064,938776217,"""0""",12.0,6.875,12.0500001907,0.0
1614971092354756116,,148364,,1614899064,988825436,"""0""",12.0,5.75,12.0500001907,0.0
1614971092400280952,,148365,,1614899065,38824290,"""0""",12.0,4.75,12.0500001907,0.0
1614971092453195095,,148366,,1614899065,88802988,"""0""",12.0,4.75,12.1499996185,0.0
1614971092499895095,,148367,,1614899065,138808300,"""0""",12.0,6.125,12.1499996185,0.0
1614971092549889087,,148368,,1614899065,188863404,"""0""",12.0,6.125,12.1499996185,0.0
1614971092609599113,,148369,,1614899065,238781842,"""0""",12.0,4.125,12.0500001907,0.0
1614971092645158052,,148370,,1614899065,288784811,"""0""",12.0,2.75,12.0500001907,0.0
1614971092695614099,,148371,,1614899065,338792206,"""0""",12.0,2.75,12.0500001907,0.0
1614971092744853973,,148372,,1614899065,388786790,"""0""",12.0,2.0,12.1499996185,0.0
1614971092796632051,,148373,,1614899065,438783248,"""0""",12.0,2.0,12.1499996185,0.0
1614971092848011970,,148374,,1614899065,488804602,"""0""",12.0,1.375,12.1499996185,0.0
1614971092934434890,,148375,,1614899065,538776477,"""0""",12.0,1.0,12.1999998093,0.0
1614971092965796947,,148376,,1614899065,588922675,"""0""",12.0,1.0,12.1999998093,0.0
1614971093014772891,,148377,,1614899065,638770748,"""0""",12.0,1.75,12.1999998093,0.0
1614971093048337936,,148378,,1614899065,688777571,"""0""",12.0,1.75,12.1999998093,0.0
1614971093107181072,,148379,,1614899065,738773248,"""0""",12.0,1.75,12.1999998093,0.0
1614971093157915115,,148380,,1614899065,788779915,"""0""",12.0,1.75,12.1999998093,0.0
1614971093245157003,,148381,,1614899065,838816373,"""0""",12.0,2.0,12.1999998093,0.0
1614971093287095069,,148382,,1614899065,888842310,"""0""",12.0,2.75,12.1499996185,0.0
1614971093350878953,,148383,,1614899065,938815227,"""0""",12.0,2.375,12.1499996185,0.0
1614971093389600992,,148384,,1614899065,988846998,"""0""",12.0,3.0,12.1499996185,0.0
1614971093430958986,,148385,,1614899066,38774550,"""0""",12.0,2.75,12.1499996185,0.0
1614971093496952056,,148386,,1614899066,88823300,"""0""",12.0,7.375,12.1499996185,0.0
1614971093533821105,,148387,,1614899066,138831425,"""0""",12.0,9.375,12.1499996185,0.0
1614971093562422037,,148388,,1614899066,188798717,"""0""",12.0,7.125,11.8999996185,0.0
1614971093595556974,,148389,,1614899066,238770123,"""0""",12.0,5.125,11.8999996185,0.0
1614971093648647069,,148390,,1614899066,288794446,"""0""",12.0,8.0,11.8999996185,0.0
1614971093696783065,,148391,,1614899066,339005123,"""0""",12.0,7.875,11.9499998093,0.0
1614971093744834899,,148392,,1614899066,388825644,"""0""",12.0,7.75,11.9499998093,0.0
1614971093799586057,,148393,,1614899066,438789602,"""0""",12.0,9.125,11.9499998093,0.0
1614971093854525089,,148394,,1614899066,488778508,"""0""",12.0,8.125,11.8500003815,0.0
1614971093896970987,,148395,,1614899066,538851060,"""0""",12.0,9.625,11.8500003815,0.0
1614971093951500892,,148396,,1614899066,588804289,"""0""",12.0,10.625,11.8500003815,0.0
1614971093997052907,,148397,,1614899066,638774393,"""0""",12.0,10.125,11.8500003815,0.0
1614971094052010059,,148398,,1614899066,688800383,"""0""",12.0,11.125,11.6999998093,0.0
1614971094109683036,,148399,,1614899066,738814706,"""0""",12.0,10.625,11.6999998093,0.0
1614971094161890983,,148400,,1614899066,788837466,"""0""",12.0,10.125,11.6999998093,0.0
1614971094200458049,,148401,,1614899066,838768248,"""0""",12.0,10.25,11.6999998093,0.0
1614971094247647047,,148402,,1614899066,888784654,"""0""",12.0,10.75,11.6999998093,0.0
1614971094297182083,,148403,,1614899066,938773664,"""0""",12.0,10.25,11.6999998093,0.0
1614971094348618030,,148404,,1614899066,988787258,"""0""",11.0,9.625,11.75,0.0
1614971094409178972,,148405,,1614899067,38745904,"""0""",11.0,9.125,11.75,0.0
1614971094514461994,,148406,,1614899067,88859289,"""0""",11.0,9.125,11.75,0.0
1614971094514682054,,148407,,1614899067,138963404,"""0""",12.0,9.0,11.6999998093,0.0
1614971094556166887,,148408,,1614899067,188773612,"""0""",12.0,8.875,11.6999998093,0.0
1614971094604645967,,148409,,1614899067,238988768,"""0""",12.0,8.125,11.6999998093,0.0
1614971094691402912,,148410,,1614899067,289201477,"""0""",12.0,7.875,11.8500003815,0.0
1614971094731359958,,148411,,1614899067,338784393,"""0""",12.0,7.5,11.8500003815,0.0
1614971094776345014,,148412,,1614899067,388847102,"""0""",12.0,7.25,11.8500003815,0.0
1614971094808757066,,148413,,1614899067,439033716,"""0""",12.0,7.5,11.8500003815,0.0
1614971094854216098,,148414,,1614899067,488789706,"""0""",12.0,7.125,11.8500003815,0.0
1614971094900547027,,148415,,1614899067,538842466,"""0""",12.0,6.125,11.8500003815,0.0
1614971094969192981,,148416,,1614899067,588784237,"""0""",12.0,3.375,11.8500003815,0.0
1614971095025238990,,148417,,1614899067,638763404,"""0""",12.0,2.75,12.1000003815,0.0
1614971095058118104,,148418,,1614899067,688855487,"""0""",12.0,2.0,12.1000003815,0.0
1614971095098872900,,148419,,1614899067,738849237,"""0""",12.0,1.375,12.1000003815,0.0
1614971095152688026,,148420,,1614899067,788758716,"""0""",12.0,0.625,12.1999998093,0.0
1614971095197133064,,148421,,1614899067,838834393,"""0""",12.0,0.625,12.1999998093,0.0
1614971095249692916,,148422,,1614899067,888781841,"""0""",12.0,0.375,12.1999998093,0.0
1614971095296911954,,148423,,1614899067,938936060,"""0""",12.0,0.375,12.25,0.0
1614971095346843004,,148424,,1614899067,988786945,"""0""",12.0,0.375,12.25,0.0
1614971095399297952,,148425,,1614899068,38882205,"""0""",12.0,0.375,12.25,0.0
1614971095453860044,,148426,,1614899068,88775226,"""0""",12.0,0.375,12.25,0.0
1614971095505620002,,148427,,1614899068,138943299,"""0""",12.0,0.375,12.25,0.0
1614971095549304008,,148428,,1614899068,188770903,"""0""",12.0,0.375,12.25,0.0
1614971095601571083,,148429,,1614899068,238801632,"""0""",12.0,0.375,12.25,0.0
1614971095653621912,,148430,,1614899068,288789132,"""0""",12.0,1.75,12.1999998093,0.0
1614971095716732025,,148431,,1614899068,338930487,"""0""",12.0,5.125,12.1999998093,0.0
1614971095747080087,,148432,,1614899068,388784757,"""0""",12.0,7.125,12.1999998093,0.0
1614971095798429965,,148433,,1614899068,438801112,"""0""",12.0,4.375,12.1000003815,0.0
1614971095870244979,,148434,,1614899068,488804862,"""0""",12.0,7.375,12.1000003815,0.0
1614971095926059961,,148435,,1614899068,538827362,"""0""",12.0,7.5,12.1000003815,0.0
1614971095963818073,,148436,,1614899068,588784497,"""0""",11.0,7.75,11.8000001907,0.0
1614971095999351024,,148437,,1614899068,638805122,"""0""",11.0,8.375,11.8000001907,0.0
1614971096052714109,,148438,,1614899068,688767205,"""0""",11.0,7.75,11.8000001907,0.0
1614971096099256992,,148439,,1614899068,738792205,"""0""",11.0,7.75,11.8500003815,0.0
1614971096151705026,,148440,,1614899068,788773976,"""0""",11.0,7.5,11.8500003815,0.0
1614971096219157934,,148441,,1614899068,838926736,"""0""",11.0,7.25,11.8500003815,0.0
1614971096254789113,,148442,,1614899068,888776632,"""0""",12.0,7.375,11.8999996185,0.0
1614971096311079025,,148443,,1614899068,938889080,"""0""",12.0,7.0,11.8999996185,0.0
1614971096356048107,,148444,,1614899068,988805851,"""0""",12.0,7.0,11.8999996185,0.0
1614971096397759914,,148445,,1614899069,38811059,"""0""",12.0,6.875,11.8999996185,0.0
1614971096450577974,,148446,,1614899069,88759861,"""0""",12.0,6.75,12.0,0.0
1614971096503770112,,148447,,1614899069,138792778,"""0""",12.0,6.75,12.0,0.0
1614971096551148891,,148448,,1614899069,188824340,"""0""",12.0,6.125,12.0,0.0
1614971096598212003,,148449,,1614899069,238788872,"""0""",11.0,6.125,12.0,0.0
1614971096648111104,,148450,,1614899069,288818403,"""0""",11.0,4.75,12.0,0.0
1614971096700306892,,148451,,1614899069,338842778,"""0""",11.0,3.75,12.0,0.0
1614971096754609107,,148452,,1614899069,388817517,"""0""",12.0,3.75,12.0500001907,0.0
1614971096803356885,,148453,,1614899069,438811163,"""0""",12.0,3.75,12.0500001907,0.0
1614971096846875905,,148454,,1614899069,488761997,"""0""",12.0,3.75,12.0500001907,0.0
1614971096905890941,,148455,,1614899069,538930851,"""0""",12.0,4.75,12.0,0.0
1614971096960659980,,148456,,1614899069,588784913,"""0""",12.0,4.375,12.0,0.0
1614971097012720108,,148457,,1614899069,638916372,"""0""",12.0,4.75,12.0,0.0
1614971097055727958,,148458,,1614899069,688759288,"""0""",12.0,5.75,12.0500001907,0.0
1614971097131370067,,148459,,1614899069,738901371,"""0""",12.0,5.75,12.0500001907,0.0
1614971097162266969,,148460,,1614899069,788766580,"""0""",12.0,6.125,12.0500001907,0.0
1614971097201081991,,148461,,1614899069,838787465,"""0""",12.0,5.5,12.0500001907,0.0
1614971097253288030,,148462,,1614899069,888787101,"""0""",12.0,6.125,12.0,0.0
1614971097300694942,,148463,,1614899069,938790017,"""0""",12.0,5.5,12.0,0.0
1614971097434130907,,148464,,1614899069,988859340,"""0""",12.0,5.5,12.0,0.0
1614971097434282064,,148465,,1614899070,38943923,"""0""",12.0,4.75,12.0500001907,0.0
1614971097480381011,,148466,,1614899070,88766371,"""0""",12.0,4.125,12.0500001907,0.0
1614971097524250984,,148467,,1614899070,138839444,"""0""",12.0,3.75,12.0500001907,0.0
1614971097561496019,,148468,,1614899070,188737205,"""0""",12.0,4.375,12.0500001907,0.0
1614971097605717897,,148469,,1614899070,238772882,"""0""",12.0,4.375,12.0500001907,0.0
1614971097657521009,,148470,,1614899070,288785955,"""0""",12.0,5.75,12.0500001907,0.0
1614971097709450960,,148471,,1614899070,338743819,"""0""",11.0,6.125,11.9499998093,0.0
1614971097759090900,,148472,,1614899070,388766423,"""0""",11.0,5.75,11.9499998093,0.0
1614971097828093051,,148473,,1614899070,438839184,"""0""",11.0,6.125,11.9499998093,0.0
1614971097867577075,,148474,,1614899070,488820850,"""0""",12.0,6.5,12.0,0.0
1614971097915080070,,148475,,1614899070,538797152,"""0""",12.0,6.75,12.0,0.0
1614971097996279954,,148476,,1614899070,588773559,"""0""",12.0,5.5,12.0,0.0
1614971098049459934,,148477,,1614899070,638804444,"""0""",12.0,5.125,12.0,0.0
1614971098101053953,,148478,,1614899070,688805277,"""0""",12.0,4.375,12.0500001907,0.0
1614971098146522045,,148479,,1614899070,738816788,"""0""",12.0,5.125,12.0500001907,0.0
1614971098197870016,,148480,,1614899070,788869600,"""0""",12.0,4.75,12.0500001907,0.0
1614971098253756046,,148481,,1614899070,839048767,"""0""",12.0,4.375,12.0500001907,0.0
1614971098288588047,,148482,,1614899070,888770121,"""0""",12.0,4.125,12.0500001907,0.0
1614971098327770948,,148483,,1614899070,938855590,"""0""",12.0,4.125,12.0500001907,0.0
1614971098371074914,,148484,,1614899070,988872204,"""0""",12.0,4.375,12.0500001907,0.0
1614971098416062116,,148485,,1614899071,38838871,"""0""",12.0,5.5,12.0500001907,0.0
1614971098470072984,,148486,,1614899071,88813767,"""0""",12.0,4.375,12.0500001907,0.0
1614971098519308090,,148487,,1614899071,139047881,"""0""",12.0,5.5,12.0500001907,0.0
1614971098587968111,,148488,,1614899071,188800017,"""0""",12.0,6.125,12.0500001907,0.0
1614971098641525030,,148489,,1614899071,238804079,"""0""",12.0,6.125,12.0500001907,0.0
1614971098696310997,,148490,,1614899071,288885850,"""0""",11.0,5.75,12.0,0.0
1614971098724826097,,148491,,1614899071,338882308,"""0""",11.0,5.5,12.0,0.0
1614971098762680053,,148492,,1614899071,388786267,"""0""",11.0,6.125,12.0,0.0
1614971098820610046,,148493,,1614899071,438836110,"""0""",11.0,5.75,12.0,0.0
1614971098850259065,,148494,,1614899071,488792673,"""0""",12.0,4.75,12.0500001907,0.0
1614971098909903049,,148495,,1614899071,538838298,"""0""",12.0,3.75,12.0500001907,0.0
1614971099010093927,,148496,,1614899071,588818715,"""0""",12.0,3.0,12.0500001907,0.0
1614971099010776042,,148497,,1614899071,638818923,"""0""",11.0,3.75,12.0500001907,0.0
1614971099067528963,,148498,,1614899071,688826892,"""0""",11.0,4.375,12.0500001907,0.0
1614971099106969118,,148499,,1614899071,738820850,"""0""",11.0,4.125,12.0500001907,0.0
1614971099184019088,,148500,,1614899071,788768298,"""0""",12.0,4.125,12.0500001907,0.0
1614971099213174104,,148501,,1614899071,838794704,"""0""",12.0,4.75,12.0500001907,0.0
1614971099249226093,,148502,,1614899071,888767725,"""0""",12.0,4.75,12.0500001907,0.0
1614971099324198007,,148503,,1614899071,939637412,"""0""",11.0,3.375,12.0500001907,0.0
1614971099377928972,,148504,,1614899071,988887412,"""0""",11.0,3.0,12.0500001907,0.0
1614971099420870065,,148505,,1614899072,38930069,"""0""",11.0,3.375,12.0500001907,0.0
1614971099453320026,,148506,,1614899072,88767516,"""0""",11.0,3.375,12.0500001907,0.0
1614971099520864009,,148507,,1614899072,138815329,"""0""",11.0,3.0,12.0500001907,0.0
1614971099561939001,,148508,,1614899072,188920381,"""0""",11.0,2.0,12.0500001907,0.0
1614971099595824003,,148509,,1614899072,238820537,"""0""",11.0,1.375,12.0500001907,0.0
1614971099654316902,,148510,,1614899072,288785225,"""0""",12.0,1.0,12.1499996185,0.0
1614971099698447942,,148511,,1614899072,338884495,"""0""",12.0,1.0,12.1499996185,0.0
1614971099754071950,,148512,,1614899072,388821266,"""0""",12.0,0.375,12.1499996185,0.0
1614971099821981906,,148513,,1614899072,438868662,"""0""",11.0,0.625,12.1999998093,0.0
1614971099866627931,,148514,,1614899072,488771162,"""0""",11.0,1.0,12.1999998093,0.0
1614971099912453889,,148515,,1614899072,538807568,"""0""",11.0,0.625,12.1999998093,0.0
1614971099948748111,,148516,,1614899072,588790537,"""0""",12.0,1.0,12.1999998093,0.0
1614971099999473094,,148517,,1614899072,638783662,"""0""",12.0,0.625,12.1999998093,0.0
1614971100055883884,,148518,,1614899072,688789547,"""0""",12.0,1.0,12.1999998093,0.0
1614971100147090911,,148519,,1614899072,738929339,"""0""",12.0,1.375,12.1999998093,0.0
1614971100213845014,,148520,,1614899072,788767724,"""0""",12.0,1.375,12.1999998093,0.0
1614971100213977098,,148521,,1614899072,838780693,"""0""",12.0,2.0,12.1999998093,0.0
1614971100259151935,,148522,,1614899072,888825485,"""0""",12.0,2.0,12.1000003815,0.0
1614971100299051046,,148523,,1614899072,938752933,"""0""",12.0,2.75,12.1000003815,0.0
1614971100356076002,,148524,,1614899072,988837776,"""0""",12.0,2.375,12.1000003815,0.0
1614971100402595043,,148525,,1614899073,38778454,"""0""",12.0,3.375,12.1000003815,0.0
1614971100476864099,,148526,,1614899073,88863610,"""0""",11.0,5.75,11.9499998093,0.0
1614971100553457975,,148527,,1614899073,138806266,"""0""",11.0,3.375,11.9499998093,0.0
1614971100553606033,,148528,,1614899073,188831110,"""0""",11.0,2.0,11.9499998093,0.0
1614971100612569093,,148529,,1614899073,238777412,"""0""",12.0,2.0,12.1000003815,0.0
1614971100676032066,,148530,,1614899073,288888506,"""0""",12.0,4.125,12.1000003815,0.0
1614971100733072042,,148531,,1614899073,338796474,"""0""",12.0,3.375,12.1000003815,0.0
1614971100771013021,,148532,,1614899073,388799495,"""0""",12.0,1.75,12.1499996185,0.0
1614971100821182966,,148533,,1614899073,438769183,"""0""",12.0,3.0,12.1499996185,0.0
1614971100874650955,,148534,,1614899073,488789130,"""0""",12.0,1.75,12.1499996185,0.0
1614971100904990911,,148535,,1614899073,538819026,"""0""",12.0,1.75,12.1000003815,0.0
1614971100959177970,,148536,,1614899073,588830953,"""0""",12.0,1.375,12.1000003815,0.0
1614971101023762941,,148537,,1614899073,638762307,"""0""",12.0,2.0,12.1000003815,0.0
1614971101102947950,,148538,,1614899073,688825380,"""0""",12.0,4.75,12.0500001907,0.0
1614971101103055953,,148539,,1614899073,738771110,"""0""",12.0,2.75,12.0500001907,0.0
1614971101155841112,,148540,,1614899073,788852099,"""0""",12.0,3.0,12.0500001907,0.0
1614971101212199926,,148541,,1614899073,838807255,"""0""",12.0,2.0,12.0500001907,0.0
1614971101267630100,,148542,,1614899073,888842359,"""0""",12.0,6.625,12.1000003815,0.0
1614971101333703041,,148543,,1614899073,938836787,"""0""",12.0,7.0,12.1000003815,0.0
1614971101372495889,,148544,,1614899073,988797724,"""0""",12.0,3.375,12.1000003815,0.0
1614971101414061069,,148545,,1614899074,38774339,"""0""",12.0,6.75,11.9499998093,0.0
1614971101453720092,,148546,,1614899074,88877255,"""0""",12.0,3.375,11.9499998093,0.0
1614971101514758110,,148547,,1614899074,138874130,"""0""",12.0,2.75,11.9499998093,0.0
1614971101554991006,,148548,,1614899074,188756474,"""0""",11.0,4.125,12.0500001907,0.0
1614971101637578010,,148549,,1614899074,238767099,"""0""",11.0,3.375,12.0500001907,0.0
1614971101704906940,,148550,,1614899074,288808609,"""0""",11.0,2.375,12.0500001907,0.0
1614971101741549968,,148551,,1614899074,338787359,"""0""",11.0,3.0,12.0500001907,0.0
1614971101778889894,,148552,,1614899074,388791370,"""0""",11.0,8.0,12.0500001907,0.0
1614971101819875955,,148553,,1614899074,438771266,"""0""",11.0,7.625,12.0500001907,0.0
1614971101900895118,,148554,,1614899074,488815380,"""0""",11.0,7.125,11.8500003815,0.0
1614971101940596103,,148555,,1614899074,538834651,"""0""",11.0,7.75,11.8500003815,0.0
1614971101985826969,,148556,,1614899074,588849286,"""0""",11.0,8.125,11.8500003815,0.0
1614971102032440900,,148557,,1614899074,638832568,"""0""",11.0,8.5,11.8500003815,0.0
1614971102068002939,,148558,,1614899074,689044443,"""0""",11.0,8.625,11.75,0.0
1614971102111993074,,148559,,1614899074,738861213,"""0""",11.0,9.875,11.75,0.0
1614971102156209945,,148560,,1614899074,788783192,"""0""",11.0,12.25,11.75,0.0
1614971102213710069,,148561,,1614899074,838773453,"""0""",11.0,12.5,11.5,0.0
1614971102261286020,,148562,,1614899074,888800015,"""0""",11.0,11.875,11.5,0.0
1614971102510555028,,148563,,1614899074,938772515,"""0""",11.0,11.875,11.5,0.0
1614971102510698080,,148564,,1614899074,988788817,"""0""",11.0,12.75,11.3999996185,0.0
1614971102511172056,,148565,,1614899075,38772828,"""0""",11.0,13.0,11.3999996185,0.0
1614971102511343955,,148566,,1614899075,88849651,"""0""",11.0,12.375,11.3999996185,0.0
1614971102511461973,,148567,,1614899075,138767932,"""0""",11.0,12.25,11.4499998093,0.0
1614971102549079895,,148568,,1614899075,188790224,"""0""",11.0,11.5,11.4499998093,0.0
1614971102614499092,,148569,,1614899075,238829546,"""0""",11.0,10.125,11.4499998093,0.0
1614971102656394004,,148570,,1614899075,288810640,"""0""",11.0,7.625,11.8000001907,0.0
1614971102714050054,,148571,,1614899075,338801578,"""0""",11.0,11.625,11.8000001907,0.0
1614971102771514892,,148572,,1614899075,388783869,"""0""",11.0,7.625,11.8000001907,0.0
1614971102854110002,,148573,,1614899075,438878713,"""0""",11.0,5.75,11.8000001907,0.0
1614971102896681070,,148574,,1614899075,488778817,"""0""",11.0,3.75,12.0,0.0
1614971102937833070,,148575,,1614899075,538829963,"""0""",11.0,2.75,12.0,0.0
1614971102975416898,,148576,,1614899075,588756213,"""0""",11.0,1.0,12.0,0.0
1614971103008044958,,148577,,1614899075,638787307,"""0""",12.0,0.0,12.25,0.0
1614971103126168012,,148578,,1614899075,688835744,"""0""",12.0,0.0,12.25,0.0
1614971103126272916,,148579,,1614899075,738828453,"""0""",12.0,0.0,12.25,0.0
1614971103166038990,,148580,,1614899075,788923036,"""0""",11.0,0.0,12.25,0.0
1614971103241193056,,148581,,1614899075,838878192,"""0""",11.0,0.0,12.25,0.0
1614971103292166948,,148582,,1614899075,889017046,"""0""",11.0,0.0,12.25,0.0
1614971103353498935,,148583,,1614899075,938784650,"""0""",11.0,0.0,12.3999996185,0.0
1614971103458082914,,148584,,1614899075,989385848,"""0""",11.0,0.0,12.3999996185,0.0
1614971103458112001,,148585,,1614899076,38760848,"""0""",11.0,0.0,12.3999996185,0.0
1614971103458136081,,148586,,1614899076,89031629,"""0""",11.0,0.0,12.3999996185,0.0
1614971103581835031,,148587,,1614899076,138862307,"""0""",12.0,0.0,12.3999996185,0.0
1614971103581942081,,148588,,1614899076,189276994,"""0""",12.0,0.625,12.3999996185,0.0
1614971103619517087,,148589,,1614899076,238773192,"""0""",12.0,1.0,12.3999996185,0.0
1614971103656235933,,148590,,1614899076,288998296,"""0""",11.0,3.0,12.1999998093,0.0
1614971103711435079,,148591,,1614899076,338796629,"""0""",11.0,3.375,12.1999998093,0.0
1614971103748766899,,148592,,1614899076,388782931,"""0""",11.0,1.375,12.1999998093,0.0
1614971103803092002,,148593,,1614899076,438830171,"""0""",11.0,1.375,12.1499996185,0.0
1614971103852132081,,148594,,1614899076,489910431,"""0""",11.0,4.75,12.1499996185,0.0
1614971103907175064,,148595,,1614899076,538755275,"""0""",11.0,6.75,12.1499996185,0.0
1614971103967061996,,148596,,1614899076,589130379,"""0""",11.0,7.0,11.8999996185,0.0
1614971104017735958,,148597,,1614899076,638781369,"""0""",11.0,7.5,11.8999996185,0.0
1614971104048649072,,148598,,1614899076,688838556,"""0""",11.0,7.0,11.8999996185,0.0
1614971104109060049,,148599,,1614899076,738771629,"""0""",11.0,7.125,11.8500003815,0.0
1614971104152009963,,148600,,1614899076,789427463,"""0""",11.0,7.125,11.8500003815,0.0
1614971104204555988,,148601,,1614899076,838810379,"""0""",11.0,6.875,11.8500003815,0.0
1614971104252733945,,148602,,1614899076,889359650,"""0""",12.0,6.75,11.8999996185,0.0
1614971104299366950,,148603,,1614899076,938771785,"""0""",12.0,6.75,11.8999996185,0.0
1614971104354769945,,148604,,1614899076,989037619,"""0""",12.0,6.75,11.8999996185,0.0
1614971104414782047,,148605,,1614899077,38826108,"""0""",12.0,7.125,11.8999996185,0.0
1614971104459666013,,148606,,1614899077,88946160,"""0""",11.0,7.25,11.8999996185,0.0
1614971104506568908,,148607,,1614899077,138786994,"""0""",11.0,7.125,11.8999996185,0.0
1614971104548687934,,148608,,1614899077,188907046,"""0""",11.0,7.25,11.8999996185,0.0
1614971104632628917,,148609,,1614899077,238796369,"""0""",11.0,7.0,11.8999996185,0.0
1614971104673557043,,148610,,1614899077,288871629,"""0""",11.0,6.875,11.8999996185,0.0
1614971104740036964,,148611,,1614899077,338802254,"""0""",11.0,6.75,11.8999996185,0.0
1614971104805494070,,148612,,1614899077,388779077,"""0""",11.0,6.75,11.9499998093,0.0
1614971104858102083,,148613,,1614899077,438797462,"""0""",11.0,6.625,11.9499998093,0.0
1614971104927475929,,148614,,1614899077,488764233,"""0""",11.0,6.5,11.9499998093,0.0
1614971104927745103,,148615,,1614899077,538777098,"""0""",11.0,5.75,12.0,0.0
1614971104960567951,,148616,,1614899077,588815952,"""0""",11.0,6.125,12.0,0.0
1614971105010741949,,148617,,1614899077,638774181,"""0""",11.0,5.75,12.0,0.0
1614971105061531066,,148618,,1614899077,688768243,"""0""",11.0,6.75,11.8999996185,0.0
1614971105112350940,,148619,,1614899077,738749858,"""0""",11.0,6.75,11.8999996185,0.0
1614971105233894109,,148620,,1614899077,788832306,"""0""",11.0,6.75,11.8999996185,0.0
1614971105234056949,,148621,,1614899077,838779285,"""0""",11.0,6.75,11.8999996185,0.0
1614971105300158977,,148622,,1614899077,888818035,"""0""",11.0,7.0,11.8500003815,0.0
1614971105353236913,,148623,,1614899077,938879754,"""0""",11.0,7.0,11.8500003815,0.0
1614971105395122051,,148624,,1614899077,988814910,"""0""",11.0,6.875,11.8500003815,0.0
1614971105456844091,,148625,,1614899078,38794545,"""0""",11.0,7.0,11.8500003815,0.0
1614971105511163949,,148626,,1614899078,88778972,"""0""",11.0,6.875,11.8500003815,0.0
1614971105511945009,,148627,,1614899078,138793556,"""0""",11.0,6.875,11.8500003815,0.0
1614971105550256967,,148628,,1614899078,188909754,"""0""",11.0,6.5,11.8999996185,0.0
1614971105613944053,,148629,,1614899078,238827358,"""0""",11.0,5.75,11.8999996185,0.0
1614971105685794115,,148630,,1614899078,288853087,"""0""",11.0,4.75,11.8999996185,0.0
1614971105750646114,,148631,,1614899078,338766785,"""0""",11.0,4.75,12.0,0.0
1614971105788386106,,148632,,1614899078,388840795,"""0""",11.0,4.75,12.0,0.0
1614971105839073896,,148633,,1614899078,438810483,"""0""",11.0,4.375,12.0,0.0
1614971105887640953,,148634,,1614899078,488867358,"""0""",11.0,3.75,12.0,0.0
1614971105948488950,,148635,,1614899078,538819701,"""0""",11.0,3.75,12.0,0.0
1614971106003320932,,148636,,1614899078,588908764,"""0""",11.0,5.125,12.0,0.0
1614971106055928945,,148637,,1614899078,638889493,"""0""",11.0,5.75,12.0,0.0
1614971106131541967,,148638,,1614899078,688774128,"""0""",11.0,4.75,12.0,0.0
1614971106131776094,,148639,,1614899078,738901837,"""0""",11.0,4.125,12.0,0.0
1614971106179364919,,148640,,1614899078,788867722,"""0""",11.0,3.0,12.0,0.0
1614971106228611946,,148641,,1614899078,838845014,"""0""",11.0,2.75,12.0500001907,0.0
1614971106304344892,,148642,,1614899078,888800170,"""0""",11.0,2.75,12.0500001907,0.0
1614971106365958929,,148643,,1614899078,938878451,"""0""",11.0,2.75,12.0500001907,0.0
1614971106366067886,,148644,,1614899078,988842358,"""0""",11.0,2.375,12.0500001907,0.0
1614971106415539026,,148645,,1614899079,38771212,"""0""",11.0,1.75,12.0500001907,0.0
1614971106478436946,,148646,,1614899079,88843035,"""0""",11.0,1.0,12.0500001907,0.0
1614971106519288063,,148647,,1614899079,138796368,"""0""",11.0,1.0,12.1000003815,0.0
1614971106574975013,,148648,,1614899079,188785795,"""0""",11.0,4.75,12.1000003815,0.0
1614971106613671064,,148649,,1614899079,238872253,"""0""",11.0,2.75,12.1000003815,0.0
1614971106660222053,,148650,,1614899079,288744076,"""0""",11.0,4.375,12.0,0.0
1614971106708604097,,148651,,1614899079,338818034,"""0""",11.0,2.75,12.0,0.0
1614971106758968114,,148652,,1614899079,388866472,"""0""",11.0,2.375,12.0,0.0
1614971106811753988,,148653,,1614899079,438810847,"""0""",11.0,2.75,12.0,0.0
1614971106868213891,,148654,,1614899079,488847878,"""0""",11.0,2.375,12.0500001907,0.0
1614971106910172939,,148655,,1614899079,538889701,"""0""",11.0,1.75,12.0500001907,0.0
1614971106980870008,,148656,,1614899079,588844753,"""0""",11.0,5.75,12.0500001907,0.0
1614971107040129899,,148657,,1614899079,638982357,"""0""",11.0,6.125,11.9499998093,0.0
1614971107111337900,,148658,,1614899079,688855222,"""0""",11.0,3.0,11.9499998093,0.0
1614971107111443042,,148659,,1614899079,738803763,"""0""",11.0,2.75,11.9499998093,0.0
1614971107162426948,,148660,,1614899079,788786628,"""0""",11.0,4.375,12.0,0.0
1614971107234445095,,148661,,1614899079,838762722,"""0""",11.0,2.75,12.0,0.0
1614971107299314022,,148662,,1614899079,888802253,"""0""",11.0,1.75,12.0,0.0
1614971107351428985,,148663,,1614899079,938780482,"""0""",11.0,1.75,12.1000003815,0.0
1614971107386492013,,148664,,1614899079,988858503,"""0""",11.0,1.75,12.1000003815,0.0
1614971107477760076,,148665,,1614899080,38780482,"""0""",11.0,1.0,12.1000003815,0.0
1614971107477869033,,148666,,1614899080,88773763,"""0""",11.0,1.0,12.1499996185,0.0
1614971107534619092,,148667,,1614899080,138788659,"""0""",11.0,1.0,12.1499996185,0.0
1614971107644279956,,148668,,1614899080,188800378,"""0""",11.0,0.625,12.1499996185,0.0
1614971107644416093,,148669,,1614899080,238823451,"""0""",11.0,0.375,12.1499996185,0.0
1614971107687365055,,148670,,1614899080,288756211,"""0""",11.0,0.0,12.1999998093,0.0
1614971107722958087,,148671,,1614899080,338806263,"""0""",11.0,0.0,12.1999998093,0.0
1614971107769897937,,148672,,1614899080,388778659,"""0""",11.0,0.0,12.1999998093,0.0
1614971107816493034,,148673,,1614899080,438798138,"""0""",12.0,0.0,12.3000001907,0.0
1614971107906246900,,148674,,1614899080,488777826,"""0""",12.0,0.0,12.3000001907,0.0
1614971107949558973,,148675,,1614899080,538788659,"""0""",12.0,0.0,12.3000001907,0.0
1614971107985652923,,148676,,1614899080,588748711,"""0""",12.0,0.0,12.3000001907,0.0
1614971108024796962,,148677,,1614899080,638785742,"""0""",12.0,0.0,12.3000001907,0.0
1614971108056197881,,148678,,1614899080,688771159,"""0""",12.0,0.0,12.3000001907,0.0
1614971108091211080,,148679,,1614899080,738754076,"""0""",12.0,0.0,12.3000001907,0.0
1614971108157042026,,148680,,1614899080,788790065,"""0""",12.0,0.0,12.3000001907,0.0
1614971108207439899,,148681,,1614899080,838844128,"""0""",12.0,0.0,12.3000001907,0.0
1614971108246371984,,148682,,1614899080,888785430,"""0""",12.0,0.0,12.3000001907,0.0
1614971108294630050,,148683,,1614899080,938804857,"""0""",12.0,0.0,12.3000001907,0.0
1614971108359260082,,148684,,1614899080,988808607,"""0""",12.0,0.0,12.3000001907,0.0
1614971108404629945,,148685,,1614899081,38891055,"""0""",12.0,0.0,12.3000001907,0.0
1614971108446199893,,148686,,1614899081,88882305,"""0""",12.0,0.0,12.3000001907,0.0
1614971108502480983,,148687,,1614899081,138856003,"""0""",12.0,0.0,12.3000001907,0.0
1614971108565943002,,148688,,1614899081,188920013,"""0""",12.0,0.0,12.3000001907,0.0
1614971108603634119,,148689,,1614899081,238856575,"""0""",12.0,0.0,12.3000001907,0.0
1614971108649243116,,148690,,1614899081,288829544,"""0""",12.0,0.0,12.3000001907,0.0
1614971108705862998,,148691,,1614899081,338753659,"""0""",12.0,0.0,12.3000001907,0.0
1614971108749295949,,148692,,1614899081,388778919,"""0""",12.0,0.0,12.3000001907,0.0
1614971108827004909,,148693,,1614899081,438801419,"""0""",12.0,0.0,12.3000001907,0.0
1614971108865250110,,148694,,1614899081,488757825,"""0""",12.0,0.0,12.3000001907,0.0
1614971108912839889,,148695,,1614899081,538921315,"""0""",12.0,0.0,12.3000001907,0.0
1614971108954205036,,148696,,1614899081,588847617,"""0""",12.0,0.0,12.3000001907,0.0
1614971109004971981,,148697,,1614899081,638880273,"""0""",12.0,0.0,12.3000001907,0.0
1614971109059041976,,148698,,1614899081,688751002,"""0""",12.0,0.0,12.3000001907,0.0
1614971109112425088,,148699,,1614899081,738878711,"""0""",12.0,0.0,12.3000001907,0.0
1614971109200131893,,148700,,1614899081,788775742,"""0""",12.0,0.0,12.3000001907,0.0
1614971109238497972,,148701,,1614899081,838800586,"""0""",12.0,0.0,12.3000001907,0.0
1614971109270071029,,148702,,1614899081,888828867,"""0""",12.0,0.0,12.3000001907,0.0
1614971109300812005,,148703,,1614899081,938810481,"""0""",12.0,0.0,12.3000001907,0.0
1614971109364768981,,148704,,1614899081,988849544,"""0""",12.0,0.0,12.3000001907,0.0
1614971109422132015,,148705,,1614899082,38816940,"""0""",12.0,0.0,12.3000001907,0.0
1614971109461298942,,148706,,1614899082,88825690,"""0""",12.0,0.0,12.3000001907,0.0
1614971109506983995,,148707,,1614899082,138815794,"""0""",12.0,0.0,12.3000001907,0.0
1614971109550575971,,148708,,1614899082,188823658,"""0""",12.0,0.0,12.3000001907,0.0
1614971109605325937,,148709,,1614899082,238986940,"""0""",12.0,0.0,12.3000001907,0.0
1614971109649715900,,148710,,1614899082,288785377,"""0""",12.0,0.0,12.3000001907,0.0
1614971109718717098,,148711,,1614899082,338821783,"""0""",12.0,0.0,12.3000001907,0.0
1614971109754664897,,148712,,1614899082,388849752,"""0""",12.0,0.0,12.3000001907,0.0
1614971109816032886,,148713,,1614899082,438836627,"""0""",12.0,0.0,12.3000001907,0.0
1614971109849045038,,148714,,1614899082,488773971,"""0""",12.0,0.0,12.3500003815,0.0
1614971109896929025,,148715,,1614899082,539077356,"""0""",12.0,0.0,12.3500003815,0.0
1614971109960072994,,148716,,1614899082,588818971,"""0""",12.0,0.0,12.3500003815,0.0
1614971110018748998,,148717,,1614899082,638786002,"""0""",12.0,0.0,12.3500003815,0.0
1614971110051872014,,148718,,1614899082,688773137,"""0""",12.0,0.0,12.3500003815,0.0
1614971110100256919,,148719,,1614899082,738878450,"""0""",12.0,0.0,12.3500003815,0.0
1614971110150532960,,148720,,1614899082,788831210,"""0""",12.0,0.0,12.3500003815,0.0
1614971110197437047,,148721,,1614899082,838820064,"""0""",12.0,0.0,12.3500003815,0.0
1614971110249450922,,148722,,1614899082,888765169,"""0""",12.0,0.0,12.3500003815,0.0
1614971110321046113,,148723,,1614899082,938945012,"""0""",12.0,0.0,12.3500003815,0.0
1614971110364445924,,148724,,1614899082,988810585,"""0""",12.0,0.0,12.3500003815,0.0
1614971110404098033,,148725,,1614899083,38932564,"""0""",12.0,0.0,12.3500003815,0.0
1614971110458699941,,148726,,1614899083,88810325,"""0""",12.0,0.0,12.3500003815,0.0
1614971110523785114,,148727,,1614899083,138798918,"""0""",12.0,0.0,12.3500003815,0.0
1614971110613338947,,148728,,1614899083,188777929,"""0""",12.0,0.0,12.3500003815,0.0
1614971110613524913,,148729,,1614899083,238879752,"""0""",12.0,0.0,12.3500003815,0.0
1614971110654903888,,148730,,1614899083,288921523,"""0""",12.0,0.0,12.3500003815,0.0
1614971110704376935,,148731,,1614899083,338786158,"""0""",12.0,0.0,12.3500003815,0.0
1614971110748688936,,148732,,1614899083,388817252,"""0""",12.0,0.0,12.3500003815,0.0
1614971110800586938,,148733,,1614899083,438757877,"""0""",12.0,0.0,12.3500003815,0.0
1614971110856093883,,148734,,1614899083,488949543,"""0""",12.0,0.0,12.3500003815,0.0
1614971110899419069,,148735,,1614899083,538792877,"""0""",12.0,0.0,12.3500003815,0.0
1614971110951332092,,148736,,1614899083,588761002,"""0""",12.0,0.0,12.3500003815,0.0
1614971110999038934,,148737,,1614899083,638784908,"""0""",12.0,0.0,12.3500003815,0.0
1614971111056513071,,148738,,1614899083,688822824,"""0""",12.0,0.0,12.3500003815,0.0
1614971111105632066,,148739,,1614899083,738796470,"""0""",12.0,0.0,12.3500003815,0.0
1614971111159780025,,148740,,1614899083,788781210,"""0""",12.0,0.0,12.3500003815,0.0
1614971111218161106,,148741,,1614899083,838786574,"""0""",12.0,0.0,12.3500003815,0.0
1614971111261231899,,148742,,1614899083,888893033,"""0""",12.0,0.0,12.3500003815,0.0
1614971111321089029,,148743,,1614899083,938829283,"""0""",12.0,0.0,12.3500003815,0.0
1614971111429224967,,148744,,1614899083,988774283,"""0""",12.0,0.0,12.3500003815,0.0
1614971111463697910,,148745,,1614899084,38818606,"""0""",12.0,0.0,12.3500003815,0.0
1614971111463804006,,148746,,1614899084,88814491,"""0""",12.0,0.0,12.3500003815,0.0
1614971111506488084,,148747,,1614899084,138782303,"""0""",12.0,0.0,12.3500003815,0.0
1614971111551075935,,148748,,1614899084,188740585,"""0""",12.0,0.0,12.3500003815,0.0
1614971111598243951,,148749,,1614899084,238771991,"""0""",12.0,0.0,12.3500003815,0.0
1614971111654932975,,148750,,1614899084,288787095,"""0""",12.0,0.0,12.3500003815,0.0
1614971111757589101,,148751,,1614899084,338806418,"""0""",12.0,0.0,12.3500003815,0.0
1614971111757692098,,148752,,1614899084,388830689,"""0""",12.0,0.0,12.3500003815,0.0
1614971111826617002,,148753,,1614899084,438789178,"""0""",12.0,0.0,12.3500003815,0.0
1614971111856930971,,148754,,1614899084,488773449,"""0""",12.0,0.0,12.3500003815,0.0
1614971111900218963,,148755,,1614899084,538911157,"""0""",12.0,0.0,12.3500003815,0.0
1614971111950819015,,148756,,1614899084,588773553,"""0""",12.0,0.0,12.3500003815,0.0
1614971112038300991,,148757,,1614899084,638899178,"""0""",12.0,0.0,12.3500003815,0.0
1614971112090415954,,148758,,1614899084,688810220,"""0""",12.0,0.0,12.3500003815,0.0
1614971112140368938,,148759,,1614899084,738842147,"""0""",12.0,0.0,12.3500003815,0.0
1614971112179408073,,148760,,1614899084,788815532,"""0""",12.0,0.0,12.3500003815,0.0
1614971112251805067,,148761,,1614899084,838840272,"""0""",12.0,0.0,12.3500003815,0.0
1614971112282588958,,148762,,1614899084,888771991,"""0""",12.0,0.0,12.3500003815,0.0
1614971112321140050,,148763,,1614899084,938765584,"""0""",12.0,0.0,12.3500003815,0.0
1614971112358479022,,148764,,1614899084,988792668,"""0""",12.0,0.0,12.3500003815,0.0
1614971112401293039,,148765,,1614899085,38815480,"""0""",12.0,0.0,12.3500003815,0.0
1614971112448713064,,148766,,1614899085,88793553,"""0""",12.0,0.0,12.3500003815,0.0
1614971112503302097,,148767,,1614899085,138903397,"""0""",12.0,0.0,12.3500003815,0.0
1614971112549268007,,148768,,1614899085,188796678,"""0""",12.0,0.0,12.3500003815,0.0
1614971112600163936,,148769,,1614899085,238882043,"""0""",12.0,0.0,12.3500003815,0.0
1614971112650911092,,148770,,1614899085,288894647,"""0""",12.0,0.0,12.3500003815,0.0
1614971112702461004,,148771,,1614899085,338781418,"""0""",12.0,0.0,12.3500003815,0.0
1614971112758327007,,148772,,1614899085,388792147,"""0""",12.0,0.0,12.3500003815,0.0
1614971112803087949,,148773,,1614899085,438906678,"""0""",12.0,0.0,12.3500003815,0.0
1614971112853626012,,148774,,1614899085,488789438,"""0""",12.0,0.0,12.3500003815,0.0
1614971112904952049,,148775,,1614899085,538950636,"""0""",12.0,0.0,12.3500003815,0.0
1614971112966897010,,148776,,1614899085,588775897,"""0""",12.0,0.0,12.3500003815,0.0
1614971113005280971,,148777,,1614899085,638792563,"""0""",12.0,0.0,12.3500003815,0.0
1614971113064145088,,148778,,1614899085,688975740,"""0""",12.0,0.0,12.3500003815,0.0
1614971113133526086,,148779,,1614899085,738795115,"""0""",12.0,0.0,12.3500003815,0.0
1614971113170332908,,148780,,1614899085,788885636,"""0""",12.0,0.0,12.3500003815,0.0
1614971113214566946,,148781,,1614899085,838817615,"""0""",12.0,0.0,12.3500003815,0.0
1614971113286803007,,148782,,1614899085,888896313,"""0""",12.0,0.0,12.3500003815,0.0
1614971113350485086,,148783,,1614899085,938831834,"""0""",12.0,0.0,12.3500003815,0.0
