rosbagTimestamp,header,seq,stamp,secs,nsecs,frame_id,Temperature,OutputCurrent,BusVoltage,ClosedLoopError
1614970537621917009,,137270,,1614898510,288866845,"""0""",13.0,0.0,12.3999996185,0.0
1614970537670531034,,137271,,1614898510,338772210,"""0""",12.0,0.0,12.3999996185,0.0
1614970537720169067,,137272,,1614898510,388776637,"""0""",12.0,0.0,12.3999996185,0.0
1614970537766789913,,137273,,1614898510,438883616,"""0""",12.0,0.0,12.3999996185,0.0
1614970537827833890,,137274,,1614898510,488797054,"""0""",12.0,0.0,12.3999996185,0.0
1614970537884685039,,137275,,1614898510,538827783,"""0""",12.0,0.0,12.3999996185,0.0
1614970537916542053,,137276,,1614898510,588767366,"""0""",12.0,0.0,12.3999996185,0.0
1614970537976795911,,137277,,1614898510,638848512,"""0""",12.0,0.0,12.3999996185,0.0
1614970538019654035,,137278,,1614898510,688839501,"""0""",13.0,0.0,12.3999996185,0.0
1614970538071954011,,137279,,1614898510,738748095,"""0""",13.0,0.0,12.3999996185,0.0
1614970538126018047,,137280,,1614898510,788794918,"""0""",13.0,0.0,12.3999996185,0.0
1614970538177862882,,137281,,1614898510,838779814,"""0""",13.0,0.0,12.3999996185,0.0
1614970538218662977,,137282,,1614898510,888791116,"""0""",13.0,0.0,12.3999996185,0.0
1614970538285249948,,137283,,1614898510,938798043,"""0""",13.0,0.0,12.3999996185,0.0
1614970538329698085,,137284,,1614898510,988854449,"""0""",12.0,0.0,12.3999996185,0.0
1614970538382236003,,137285,,1614898511,38771376,"""0""",12.0,0.0,12.3999996185,0.0
1614970538425496101,,137286,,1614898511,88846012,"""0""",12.0,0.0,12.3999996185,0.0
1614970538482635021,,137287,,1614898511,138766637,"""0""",13.0,0.0,12.3999996185,0.0
1614970538526556015,,137288,,1614898511,188820387,"""0""",13.0,0.0,12.3999996185,0.0
1614970538584054946,,137289,,1614898511,238825803,"""0""",13.0,0.0,12.3999996185,0.0
1614970538628441095,,137290,,1614898511,288855335,"""0""",13.0,0.0,12.3999996185,0.0
1614970538687864065,,137291,,1614898511,338756480,"""0""",13.0,0.0,12.3999996185,0.0
1614970538722820997,,137292,,1614898511,388845543,"""0""",13.0,0.0,12.3999996185,0.0
1614970538779625892,,137293,,1614898511,438759762,"""0""",13.0,0.0,12.3999996185,0.0
1614970538832962989,,137294,,1614898511,488982105,"""0""",13.0,0.0,12.3999996185,0.0
1614970538883351087,,137295,,1614898511,538809397,"""0""",13.0,0.0,12.3999996185,0.0
1614970538933057069,,137296,,1614898511,588880282,"""0""",13.0,0.0,12.3999996185,0.0
1614970538982563972,,137297,,1614898511,638752886,"""0""",13.0,0.0,12.3999996185,0.0
1614970539028563976,,137298,,1614898511,688786897,"""0""",13.0,0.0,12.3999996185,0.0
1614970539085925102,,137299,,1614898511,738784449,"""0""",13.0,0.0,12.3999996185,0.0
1614970539135620117,,137300,,1614898511,788793459,"""0""",13.0,0.0,12.3999996185,0.0
1614970539183592081,,137301,,1614898511,838906220,"""0""",13.0,0.0,12.3999996185,0.0
1614970539234484910,,137302,,1614898511,888828928,"""0""",13.0,0.0,12.3999996185,0.0
1614970539305044889,,137303,,1614898511,938761324,"""0""",13.0,0.0,12.3999996185,0.0
1614970539359456062,,137304,,1614898511,988820178,"""0""",13.0,0.0,12.3999996185,0.0
1614970539395284891,,137305,,1614898512,38764345,"""0""",13.0,0.0,12.3999996185,0.0
1614970539453917026,,137306,,1614898512,88893511,"""0""",13.0,0.0,12.3999996185,0.0
1614970539498351097,,137307,,1614898512,138801168,"""0""",13.0,0.0,12.3999996185,0.0
1614970539538630962,,137308,,1614898512,188809970,"""0""",13.0,0.0,12.3999996185,0.0
1614970539617300987,,137309,,1614898512,238764709,"""0""",13.0,0.0,12.3999996185,0.0
1614970539650295972,,137310,,1614898512,288803511,"""0""",13.0,0.0,12.3999996185,0.0
1614970539685287952,,137311,,1614898512,338764657,"""0""",13.0,0.0,12.3999996185,0.0
1614970539741472959,,137312,,1614898512,388906845,"""0""",13.0,0.0,12.3999996185,0.0
1614970539791285037,,137313,,1614898512,438810751,"""0""",12.0,0.0,12.3999996185,0.0
1614970539838433980,,137314,,1614898512,488840855,"""0""",12.0,0.0,12.3999996185,0.0
1614970539891859054,,137315,,1614898512,538752730,"""0""",12.0,0.0,12.3999996185,0.0
1614970539940686941,,137316,,1614898512,588959084,"""0""",12.0,0.0,12.3999996185,0.0
1614970539988831043,,137317,,1614898512,638864032,"""0""",12.0,0.0,12.3999996185,0.0
1614970540041687011,,137318,,1614898512,688787626,"""0""",12.0,0.0,12.3999996185,0.0
1614970540091137886,,137319,,1614898512,738767834,"""0""",13.0,0.0,12.3999996185,0.0
1614970540135977029,,137320,,1614898512,788787469,"""0""",13.0,0.0,12.3999996185,0.0
1614970540186758995,,137321,,1614898512,838733094,"""0""",13.0,0.0,12.3999996185,0.0
1614970540238308906,,137322,,1614898512,888793615,"""0""",13.0,0.0,12.3999996185,0.0
1614970540291446924,,137323,,1614898512,938784396,"""0""",13.0,0.0,12.3999996185,0.0
1614970540349735975,,137324,,1614898512,988846896,"""0""",13.0,0.0,12.3999996185,0.0
1614970540382333993,,137325,,1614898513,38764084,"""0""",13.0,0.0,12.3999996185,0.0
1614970540438252925,,137326,,1614898513,88800803,"""0""",13.0,0.0,12.3999996185,0.0
1614970540500560998,,137327,,1614898513,138763355,"""0""",13.0,0.0,12.3999996185,0.0
1614970540534749031,,137328,,1614898513,188837261,"""0""",13.0,0.0,12.3999996185,0.0
1614970540582284927,,137329,,1614898513,238806896,"""0""",13.0,0.0,12.3999996185,0.0
1614970540637005090,,137330,,1614898513,288846219,"""0""",13.0,0.0,12.3999996185,0.0
1614970540698555946,,137331,,1614898513,338809032,"""0""",13.0,0.0,12.3999996185,0.0
1614970540738032102,,137332,,1614898513,388812105,"""0""",12.0,0.0,12.3999996185,0.0
1614970540787571907,,137333,,1614898513,438802417,"""0""",12.0,0.0,12.3999996185,0.0
1614970540838592052,,137334,,1614898513,488835802,"""0""",12.0,0.0,12.3999996185,0.0
1614970540886154890,,137335,,1614898513,538773511,"""0""",12.0,0.0,12.3999996185,0.0
1614970540944099903,,137336,,1614898513,588882521,"""0""",12.0,0.0,12.3999996185,0.0
1614970540990967988,,137337,,1614898513,638898042,"""0""",12.0,0.0,12.3999996185,0.0
1614970541058145999,,137338,,1614898513,688814709,"""0""",12.0,0.0,12.3999996185,0.0
1614970541110275983,,137339,,1614898513,738839240,"""0""",12.0,0.0,12.3999996185,0.0
1614970541178446054,,137340,,1614898513,788789031,"""0""",12.0,0.0,12.3999996185,0.0
1614970541239048004,,137341,,1614898513,838767677,"""0""",12.0,0.0,12.3999996185,0.0
1614970541239337921,,137342,,1614898513,888780542,"""0""",13.0,0.0,12.3999996185,0.0
1614970541292006969,,137343,,1614898513,938799552,"""0""",13.0,0.0,12.3999996185,0.0
1614970541336663961,,137344,,1614898513,988766740,"""0""",13.0,0.0,12.3999996185,0.0
1614970541420500040,,137345,,1614898514,38772052,"""0""",12.0,0.0,12.3999996185,0.0
1614970541458425045,,137346,,1614898514,88826792,"""0""",12.0,0.0,12.3999996185,0.0
1614970541493227958,,137347,,1614898514,138846844,"""0""",12.0,0.0,12.3999996185,0.0
1614970541539196014,,137348,,1614898514,188800594,"""0""",12.0,0.0,12.3999996185,0.0
1614970541596956968,,137349,,1614898514,238851167,"""0""",12.0,0.0,12.3999996185,0.0
1614970541702429056,,137350,,1614898514,288798719,"""0""",12.0,0.0,12.3999996185,0.0
1614970541740437030,,137351,,1614898514,338871271,"""0""",12.0,0.0,12.3999996185,0.0
1614970541784637928,,137352,,1614898514,388786219,"""0""",12.0,0.0,12.3999996185,0.0
1614970541854018926,,137353,,1614898514,438771271,"""0""",12.0,0.0,12.3999996185,0.0
1614970541949774026,,137354,,1614898514,488792833,"""0""",12.0,0.0,12.3999996185,0.0
1614970541949881076,,137355,,1614898514,538966219,"""0""",12.0,0.0,12.3999996185,0.0
1614970541949903011,,137356,,1614898514,588803406,"""0""",12.0,0.0,12.3999996185,0.0
1614970542032540082,,137357,,1614898514,638767417,"""0""",12.0,0.0,12.3999996185,0.0
1614970542032677888,,137358,,1614898514,690399500,"""0""",13.0,0.0,12.3999996185,0.0
1614970542091523885,,137359,,1614898514,738775802,"""0""",13.0,0.0,12.3999996185,0.0
1614970542132904052,,137360,,1614898514,788793406,"""0""",13.0,0.0,12.3999996185,0.0
1614970542186180114,,137361,,1614898514,838818041,"""0""",12.0,0.0,12.3999996185,0.0
1614970542229904890,,137362,,1614898514,888806010,"""0""",12.0,0.0,12.3999996185,0.0
1614970542285080909,,137363,,1614898514,938791219,"""0""",12.0,0.0,12.3999996185,0.0
1614970542333128929,,137364,,1614898514,988779552,"""0""",13.0,0.0,12.3999996185,0.0
1614970542384521961,,137365,,1614898515,38765229,"""0""",13.0,0.0,12.3999996185,0.0
1614970542436904907,,137366,,1614898515,88823875,"""0""",13.0,0.0,12.3999996185,0.0
1614970542486361026,,137367,,1614898515,138885802,"""0""",13.0,0.0,12.3999996185,0.0
1614970542536240100,,137368,,1614898515,188870437,"""0""",13.0,0.0,12.3999996185,0.0
1614970542598066091,,137369,,1614898515,238801739,"""0""",13.0,0.0,12.3999996185,0.0
1614970542630997896,,137370,,1614898515,288905437,"""0""",13.0,0.0,12.3999996185,0.0
1614970542681771039,,137371,,1614898515,338765281,"""0""",12.0,0.0,12.3999996185,0.0
1614970542733444929,,137372,,1614898515,388928406,"""0""",12.0,0.0,12.3999996185,0.0
1614970542791888952,,137373,,1614898515,438782885,"""0""",12.0,0.0,12.3999996185,0.0
1614970542835156917,,137374,,1614898515,488793666,"""0""",12.0,0.0,12.3999996185,0.0
1614970542916596889,,137375,,1614898515,538746583,"""0""",12.0,0.0,12.3999996185,0.0
1614970542949897050,,137376,,1614898515,588875020,"""0""",12.0,0.0,12.3999996185,0.0
1614970542986321926,,137377,,1614898515,638770177,"""0""",12.0,0.0,12.3999996185,0.0
1614970543033077001,,137378,,1614898515,688795124,"""0""",12.0,0.0,12.3999996185,0.0
1614970543090230941,,137379,,1614898515,738795541,"""0""",12.0,0.0,12.3999996185,0.0
1614970543159723997,,137380,,1614898515,788801791,"""0""",12.0,0.0,12.3999996185,0.0
1614970543221430063,,137381,,1614898515,838769395,"""0""",12.0,0.0,12.3999996185,0.0
1614970543270483016,,137382,,1614898515,888816166,"""0""",12.0,0.0,12.3999996185,0.0
1614970543301317930,,137383,,1614898515,938776218,"""0""",12.0,0.0,12.3999996185,0.0
1614970543331819057,,137384,,1614898515,988808874,"""0""",12.0,0.0,12.3999996185,0.0
1614970543386495113,,137385,,1614898516,38766218,"""0""",12.0,0.0,12.3999996185,0.0
1614970543438458919,,137386,,1614898516,88843354,"""0""",12.0,0.0,12.3999996185,0.0
1614970543495486021,,137387,,1614898516,138787468,"""0""",13.0,0.0,12.3999996185,0.0
1614970543538192033,,137388,,1614898516,188826166,"""0""",13.0,0.0,12.3999996185,0.0
1614970543587749958,,137389,,1614898516,238806687,"""0""",13.0,0.0,12.3999996185,0.0
1614970543666987895,,137390,,1614898516,288798093,"""0""",12.0,5.125,12.0500001907,0.0
1614970543695725917,,137391,,1614898516,338863562,"""0""",12.0,4.25,12.0500001907,0.0
1614970543769867897,,137392,,1614898516,388777728,"""0""",12.0,4.25,12.0500001907,0.0
1614970543817342042,,137393,,1614898516,438754291,"""0""",12.0,4.25,12.1499996185,0.0
1614970543851447105,,137394,,1614898516,488834239,"""0""",12.0,4.375,12.1499996185,0.0
1614970543921511888,,137395,,1614898516,538858822,"""0""",12.0,4.125,12.1499996185,0.0
1614970543956928014,,137396,,1614898516,588885124,"""0""",12.0,3.375,12.1999998093,0.0
1614970543994816064,,137397,,1614898516,638748093,"""0""",12.0,1.375,12.1999998093,0.0
1614970544035788059,,137398,,1614898516,688870749,"""0""",12.0,0.625,12.1999998093,0.0
1614970544119072914,,137399,,1614898516,738774707,"""0""",12.0,0.375,12.3500003815,0.0
1614970544170053005,,137400,,1614898516,788784707,"""0""",12.0,0.375,12.3500003815,0.0
1614970544201884031,,137401,,1614898516,838770228,"""0""",12.0,0.375,12.3500003815,0.0
1614970544239778041,,137402,,1614898516,888787155,"""0""",12.0,0.375,12.3500003815,0.0
1614970544293267965,,137403,,1614898516,938770957,"""0""",13.0,0.375,12.3500003815,0.0
1614970544334721088,,137404,,1614898516,988759603,"""0""",13.0,0.375,12.3500003815,0.0
1614970544388984918,,137405,,1614898517,38793041,"""0""",13.0,0.375,12.3500003815,0.0
1614970544435386896,,137406,,1614898517,90097207,"""0""",12.0,0.625,12.3500003815,0.0
1614970544487514972,,137407,,1614898517,138838145,"""0""",12.0,1.375,12.3500003815,0.0
1614970544531482934,,137408,,1614898517,188789291,"""0""",12.0,3.75,12.3500003815,0.0
1614970544585294008,,137409,,1614898517,238792416,"""0""",12.0,3.75,12.1999998093,0.0
1614970544633641958,,137410,,1614898517,288868978,"""0""",12.0,2.75,12.1999998093,0.0
1614970544713701009,,137411,,1614898517,338830176,"""0""",12.0,2.375,12.1999998093,0.0
1614970544770994901,,137412,,1614898517,388964291,"""0""",12.0,2.0,12.25,0.0
1614970544825071096,,137413,,1614898517,438790905,"""0""",12.0,1.0,12.25,0.0
1614970544862483024,,137414,,1614898517,488772363,"""0""",12.0,1.0,12.25,0.0
1614970544900886058,,137415,,1614898517,538796947,"""0""",12.0,1.75,12.25,0.0
1614970544936005115,,137416,,1614898517,588799238,"""0""",12.0,1.0,12.25,0.0
1614970545013277053,,137417,,1614898517,638788405,"""0""",12.0,1.375,12.25,0.0
1614970545048309087,,137418,,1614898517,688857467,"""0""",12.0,3.0,12.25,0.0
1614970545100650072,,137419,,1614898517,738769915,"""0""",12.0,1.75,12.1999998093,0.0
1614970545151917934,,137420,,1614898517,788781374,"""0""",12.0,0.625,12.1999998093,0.0
1614970545193619966,,137421,,1614898517,838765228,"""0""",12.0,1.75,12.1999998093,0.0
1614970545236423969,,137422,,1614898517,888790592,"""0""",12.0,3.0,12.1999998093,0.0
1614970545290391921,,137423,,1614898517,938814551,"""0""",12.0,2.0,12.1999998093,0.0
1614970545356352090,,137424,,1614898517,988881790,"""0""",12.0,1.0,12.1999998093,0.0
1614970545395929098,,137425,,1614898518,38764551,"""0""",12.0,1.375,12.25,0.0
1614970545440802097,,137426,,1614898518,88790019,"""0""",12.0,1.375,12.25,0.0
1614970545492702007,,137427,,1614898518,138864863,"""0""",12.0,0.625,12.25,0.0
1614970545530718088,,137428,,1614898518,188778144,"""0""",12.0,0.375,12.3500003815,0.0
1614970545608897924,,137429,,1614898518,238754186,"""0""",12.0,0.375,12.3500003815,0.0
1614970545641047954,,137430,,1614898518,288825071,"""0""",12.0,0.375,12.3500003815,0.0
1614970545695183038,,137431,,1614898518,338778040,"""0""",12.0,0.375,12.3500003815,0.0
1614970545743104934,,137432,,1614898518,388837728,"""0""",12.0,0.375,12.3500003815,0.0
1614970545812266111,,137433,,1614898518,438878665,"""0""",12.0,0.0,12.3500003815,0.0
1614970545853641033,,137434,,1614898518,488793196,"""0""",12.0,0.375,12.3500003815,0.0
1614970545903312921,,137435,,1614898518,538793561,"""0""",12.0,0.0,12.3500003815,0.0
1614970545955316066,,137436,,1614898518,588788405,"""0""",12.0,0.0,12.3500003815,0.0
1614970546039753913,,137437,,1614898518,638758196,"""0""",12.0,0.375,12.3500003815,0.0
1614970546094278097,,137438,,1614898518,688791530,"""0""",12.0,0.375,12.3500003815,0.0
1614970546094383955,,137439,,1614898518,738786738,"""0""",12.0,0.375,12.3500003815,0.0
1614970546150448083,,137440,,1614898518,788827467,"""0""",12.0,0.0,12.3500003815,0.0
1614970546219198942,,137441,,1614898518,838773196,"""0""",12.0,0.375,12.3500003815,0.0
1614970546265604972,,137442,,1614898518,888766894,"""0""",12.0,0.625,12.3500003815,0.0
1614970546303683042,,137443,,1614898518,938893717,"""0""",12.0,1.0,12.3500003815,0.0
1614970546343082904,,137444,,1614898518,988791425,"""0""",12.0,0.625,12.3500003815,0.0
1614970546411624908,,137445,,1614898519,38810279,"""0""",12.0,0.625,12.3500003815,0.0
1614970546534403085,,137446,,1614898519,88832779,"""0""",12.0,1.375,12.3500003815,0.0
1614970546534512042,,137447,,1614898519,138865540,"""0""",12.0,1.375,12.25,0.0
1614970546534534931,,137448,,1614898519,188968456,"""0""",12.0,1.0,12.25,0.0
1614970546595182895,,137449,,1614898519,238870384,"""0""",12.0,1.0,12.25,0.0
1614970546637963056,,137450,,1614898519,288771321,"""0""",12.0,0.625,12.25,0.0
1614970546689224958,,137451,,1614898519,338784863,"""0""",12.0,0.625,12.3000001907,0.0
1614970546729666948,,137452,,1614898519,388837988,"""0""",12.0,0.625,12.3000001907,0.0
1614970546791091918,,137453,,1614898519,438770331,"""0""",12.0,1.0,12.3000001907,0.0
1614970546836399078,,137454,,1614898519,488781738,"""0""",12.0,1.0,12.3000001907,0.0
1614970546892538070,,137455,,1614898519,538801790,"""0""",12.0,1.0,12.3000001907,0.0
1614970546937060117,,137456,,1614898519,588783144,"""0""",12.0,1.0,12.3000001907,0.0
1614970546990092039,,137457,,1614898519,638771113,"""0""",12.0,1.0,12.3000001907,0.0
1614970547042679071,,137458,,1614898519,688807779,"""0""",12.0,2.0,12.3000001907,0.0
1614970547096976041,,137459,,1614898519,738863821,"""0""",12.0,3.875,12.3000001907,0.0
1614970547139066934,,137460,,1614898519,788764029,"""0""",12.0,3.0,12.1999998093,0.0
1614970547189589023,,137461,,1614898519,838792935,"""0""",12.0,2.375,12.1999998093,0.0
1614970547246330022,,137462,,1614898519,888826633,"""0""",12.0,3.75,12.1999998093,0.0
1614970547291740894,,137463,,1614898519,938767362,"""0""",12.0,3.0,12.1999998093,0.0
1614970547344933986,,137464,,1614898519,988836217,"""0""",12.0,2.0,12.1999998093,0.0
1614970547404349088,,137465,,1614898520,38789967,"""0""",12.0,1.0,12.1999998093,0.0
1614970547449310064,,137466,,1614898520,88786269,"""0""",12.0,1.0,12.1999998093,0.0
1614970547494067907,,137467,,1614898520,138874133,"""0""",12.0,2.0,12.25,0.0
1614970547545486927,,137468,,1614898520,188748300,"""0""",12.0,2.0,12.25,0.0
1614970547598140954,,137469,,1614898520,238803300,"""0""",12.0,1.0,12.25,0.0
1614970547648366928,,137470,,1614898520,288759394,"""0""",12.0,1.0,12.25,0.0
1614970547700979948,,137471,,1614898520,338825904,"""0""",12.0,1.0,12.25,0.0
1614970547762465000,,137472,,1614898520,388798091,"""0""",12.0,1.0,12.25,0.0
1614970547796684980,,137473,,1614898520,438806685,"""0""",12.0,1.375,12.25,0.0
1614970547851357936,,137474,,1614898520,488813873,"""0""",12.0,2.0,12.25,0.0
1614970547894207954,,137475,,1614898520,538848560,"""0""",12.0,1.375,12.25,0.0
1614970547947396039,,137476,,1614898520,588797518,"""0""",12.0,1.0,12.25,0.0
1614970548036453008,,137477,,1614898520,638884706,"""0""",12.0,1.0,12.25,0.0
1614970548072752952,,137478,,1614898520,688786373,"""0""",12.0,1.375,12.25,0.0
1614970548122246026,,137479,,1614898520,738908664,"""0""",12.0,2.0,12.1999998093,0.0
1614970548170715093,,137480,,1614898520,788786164,"""0""",12.0,2.375,12.1999998093,0.0
1614970548227979898,,137481,,1614898520,838903977,"""0""",12.0,1.375,12.1999998093,0.0
1614970548281996011,,137482,,1614898520,888781685,"""0""",12.0,1.0,12.1999998093,0.0
1614970548392790079,,137483,,1614898520,938834029,"""0""",12.0,2.0,12.1999998093,0.0
1614970548392896890,,137484,,1614898520,988767935,"""0""",12.0,1.375,12.1999998093,0.0
1614970548392919063,,137485,,1614898521,38826633,"""0""",12.0,1.0,12.1999998093,0.0
1614970548452863931,,137486,,1614898521,88782518,"""0""",12.0,1.75,12.25,0.0
1614970548515889883,,137487,,1614898521,138796529,"""0""",12.0,1.75,12.25,0.0
1614970548558954000,,137488,,1614898521,188765279,"""0""",12.0,1.0,12.25,0.0
1614970548633493900,,137489,,1614898521,238780331,"""0""",12.0,2.75,12.1999998093,0.0
1614970548687544107,,137490,,1614898521,288822674,"""0""",12.0,3.875,12.1999998093,0.0
1614970548730376958,,137491,,1614898521,338782570,"""0""",12.0,2.0,12.1999998093,0.0
1614970548769294977,,137492,,1614898521,388818612,"""0""",12.0,2.0,12.1999998093,0.0
1614970548811224937,,137493,,1614898521,438904758,"""0""",12.0,3.0,12.1999998093,0.0
1614970548857533931,,137494,,1614898521,488810799,"""0""",12.0,2.0,12.1999998093,0.0
1614970548905006885,,137495,,1614898521,538777831,"""0""",12.0,2.375,12.1999998093,0.0
1614970548997147083,,137496,,1614898521,588794653,"""0""",12.0,2.75,12.1999998093,0.0
1614970548997462034,,137497,,1614898521,638858872,"""0""",12.0,2.0,12.1999998093,0.0
1614970549063462018,,137498,,1614898521,688797987,"""0""",12.0,1.75,12.1999998093,0.0
1614970549112164020,,137499,,1614898521,738904758,"""0""",12.0,1.0,12.1999998093,0.0
1614970549172667980,,137500,,1614898521,788764237,"""0""",12.0,0.625,12.1999998093,0.0
1614970549250053882,,137501,,1614898521,839014758,"""0""",12.0,1.0,12.1999998093,0.0
1614970549294794082,,137502,,1614898521,888848247,"""0""",12.0,0.625,12.25,0.0
1614970549295438051,,137503,,1614898521,938976945,"""0""",12.0,0.375,12.25,0.0
1614970549345122098,,137504,,1614898521,988928768,"""0""",12.0,0.625,12.25,0.0
1614970549389919996,,137505,,1614898522,38845382,"""0""",12.0,0.625,12.3000001907,0.0
1614970549445624113,,137506,,1614898522,88801632,"""0""",12.0,0.375,12.3000001907,0.0
1614970549520225048,,137507,,1614898522,138871893,"""0""",12.0,0.375,12.3000001907,0.0
1614970549574733018,,137508,,1614898522,188773195,"""0""",12.0,0.375,12.3000001907,0.0
1614970549620378017,,137509,,1614898522,238859341,"""0""",12.0,0.375,12.3000001907,0.0
1614970549660449981,,137510,,1614898522,288751476,"""0""",12.0,0.375,12.3000001907,0.0
1614970549701684951,,137511,,1614898522,338891216,"""0""",12.0,0.375,12.3000001907,0.0
1614970549759967088,,137512,,1614898522,388827153,"""0""",12.0,0.375,12.3000001907,0.0
1614970549807522058,,137513,,1614898522,438825955,"""0""",12.0,0.625,12.3000001907,0.0
1614970549848186969,,137514,,1614898522,488806997,"""0""",12.0,1.75,12.3000001907,0.0
1614970549893961906,,137515,,1614898522,538850434,"""0""",12.0,2.375,12.1999998093,0.0
1614970549948185920,,137516,,1614898522,588776997,"""0""",12.0,2.0,12.1999998093,0.0
1614970550025641918,,137517,,1614898522,638837622,"""0""",12.0,1.375,12.1999998093,0.0
1614970550064562082,,137518,,1614898522,688950018,"""0""",12.0,1.75,12.1999998093,0.0
1614970550122093915,,137519,,1614898522,738828976,"""0""",12.0,2.75,12.1999998093,0.0
1614970550163795948,,137520,,1614898522,788807570,"""0""",12.0,2.0,12.1999998093,0.0
1614970550208236932,,137521,,1614898522,838886841,"""0""",12.0,2.375,12.1999998093,0.0
1614970550252430915,,137522,,1614898522,888825538,"""0""",12.0,1.375,12.1999998093,0.0
1614970550305954933,,137523,,1614898522,938785018,"""0""",12.0,0.625,12.1999998093,0.0
1614970550365592956,,137524,,1614898522,988856320,"""0""",12.0,0.625,12.25,0.0
1614970550437150001,,137525,,1614898523,38855643,"""0""",12.0,1.375,12.25,0.0
1614970550486612081,,137526,,1614898523,88756007,"""0""",12.0,1.0,12.25,0.0
1614970550556771993,,137527,,1614898523,138774184,"""0""",12.0,0.375,12.3000001907,0.0
1614970550556881904,,137528,,1614898523,188789653,"""0""",12.0,0.375,12.3000001907,0.0
1614970550597353935,,137529,,1614898523,238777413,"""0""",12.0,0.375,12.3000001907,0.0
1614970550688532114,,137530,,1614898523,288787934,"""0""",12.0,0.625,12.3000001907,0.0
1614970550737873077,,137531,,1614898523,338895434,"""0""",12.0,1.0,12.25,0.0
1614970550778794050,,137532,,1614898523,388774288,"""0""",12.0,3.0,12.25,0.0
1614970550818861961,,137533,,1614898523,438805642,"""0""",12.0,3.75,12.25,0.0
1614970550854017019,,137534,,1614898523,488768924,"""0""",12.0,3.875,12.1499996185,0.0
1614970550891313076,,137535,,1614898523,538810434,"""0""",12.0,4.0,12.1499996185,0.0
1614970550943502902,,137536,,1614898523,588770121,"""0""",12.0,4.125,12.1499996185,0.0
1614970550988210916,,137537,,1614898523,638827465,"""0""",12.0,4.75,12.1000003815,0.0
1614970551048182010,,137538,,1614898523,688773976,"""0""",12.0,4.5,12.1000003815,0.0
1614970551116893053,,137539,,1614898523,738904965,"""0""",12.0,4.375,12.1000003815,0.0
1614970551178942918,,137540,,1614898523,788873663,"""0""",12.0,4.625,12.0500001907,0.0
1614970551227413892,,137541,,1614898523,838840382,"""0""",12.0,4.375,12.0500001907,0.0
1614970551286935091,,137542,,1614898523,888776111,"""0""",12.0,4.25,12.0500001907,0.0
1614970551327069044,,137543,,1614898523,938829392,"""0""",12.0,4.25,12.1000003815,0.0
1614970551388528108,,137544,,1614898523,988741528,"""0""",12.0,4.125,12.1000003815,0.0
1614970551432470083,,137545,,1614898524,38782309,"""0""",12.0,4.0,12.1000003815,0.0
1614970551480092048,,137546,,1614898524,88769340,"""0""",12.0,4.25,12.1000003815,0.0
1614970551536026954,,137547,,1614898524,138778038,"""0""",12.0,4.125,12.0500001907,0.0
1614970551581070899,,137548,,1614898524,188752778,"""0""",12.0,4.25,12.0500001907,0.0
1614970551637530088,,137549,,1614898524,238837257,"""0""",12.0,4.375,12.0500001907,0.0
1614970551671433925,,137550,,1614898524,288792934,"""0""",12.0,4.5,12.0500001907,0.0
1614970551738542079,,137551,,1614898524,338788819,"""0""",12.0,4.5,12.0500001907,0.0
1614970551827588081,,137552,,1614898524,388767569,"""0""",12.0,4.625,12.0500001907,0.0
1614970551827702045,,137553,,1614898524,438793507,"""0""",12.0,4.75,12.0500001907,0.0
1614970551867794990,,137554,,1614898524,488778923,"""0""",12.0,4.5,12.0500001907,0.0
1614970551941068887,,137555,,1614898524,538778767,"""0""",12.0,4.375,12.0500001907,0.0
1614970552018069028,,137556,,1614898524,588792413,"""0""",12.0,4.375,12.0500001907,0.0
1614970552062545061,,137557,,1614898524,638774079,"""0""",12.0,4.375,12.0500001907,0.0
1614970552062653064,,137558,,1614898524,688905694,"""0""",12.0,4.375,12.0500001907,0.0
1614970552107750892,,137559,,1614898524,738806423,"""0""",12.0,4.5,12.1000003815,0.0
1614970552146678924,,137560,,1614898524,788809444,"""0""",12.0,4.25,12.1000003815,0.0
1614970552195606946,,137561,,1614898524,838777361,"""0""",12.0,4.375,12.1000003815,0.0
1614970552251900911,,137562,,1614898524,888796788,"""0""",12.0,4.375,12.1000003815,0.0
1614970552286434888,,137563,,1614898524,938774756,"""0""",12.0,4.25,12.1000003815,0.0
1614970552348862886,,137564,,1614898524,988791944,"""0""",12.0,4.25,12.1000003815,0.0
1614970552401844024,,137565,,1614898525,38788298,"""0""",12.0,4.375,12.1000003815,0.0
1614970552457921981,,137566,,1614898525,88799808,"""0""",12.0,4.375,12.0500001907,0.0
1614970552539572000,,137567,,1614898525,138856163,"""0""",12.0,4.375,12.0500001907,0.0
1614970552627202033,,137568,,1614898525,188910433,"""0""",12.0,4.25,12.0500001907,0.0
1614970552627309083,,137569,,1614898525,238792777,"""0""",12.0,4.625,12.0,0.0
1614970552686543941,,137570,,1614898525,288892829,"""0""",12.0,5.125,12.0,0.0
1614970552752377033,,137571,,1614898525,338900381,"""0""",12.0,4.5,12.0,0.0
1614970552752495050,,137572,,1614898525,388796371,"""0""",12.0,4.375,12.0500001907,0.0
1614970552809288978,,137573,,1614898525,438764965,"""0""",12.0,4.5,12.0500001907,0.0
1614970552874865055,,137574,,1614898525,488818975,"""0""",12.0,4.5,12.0500001907,0.0
1614970552949820995,,137575,,1614898525,538811319,"""0""",12.0,4.25,12.0500001907,0.0
1614970553018461942,,137576,,1614898525,588787100,"""0""",12.0,4.25,12.0500001907,0.0
1614970553018615961,,137577,,1614898525,638833819,"""0""",12.0,4.0,12.0500001907,0.0
1614970553076205015,,137578,,1614898525,688841006,"""0""",12.0,2.75,12.0500001907,0.0
1614970553129231929,,137579,,1614898525,738784860,"""0""",12.0,3.0,12.1999998093,0.0
1614970553186392068,,137580,,1614898525,788988141,"""0""",12.0,3.375,12.1999998093,0.0
1614970553224237918,,137581,,1614898525,839065381,"""0""",12.0,2.375,12.1999998093,0.0
1614970553284606933,,137582,,1614898525,888804964,"""0""",12.0,2.0,12.1999998093,0.0
1614970553330470085,,137583,,1614898525,938785121,"""0""",12.0,1.375,12.1999998093,0.0
1614970553396260976,,137584,,1614898525,988869183,"""0""",12.0,1.0,12.1999998093,0.0
1614970553444534063,,137585,,1614898526,38762725,"""0""",12.0,0.625,12.25,0.0
1614970553508984088,,137586,,1614898526,88796943,"""0""",12.0,0.625,12.25,0.0
1614970553509227991,,137587,,1614898526,138752673,"""0""",12.0,1.0,12.25,0.0
1614970553538248062,,137588,,1614898526,188869235,"""0""",12.0,0.625,12.25,0.0
1614970553594619035,,137589,,1614898526,238802620,"""0""",12.0,0.375,12.25,0.0
1614970553648329019,,137590,,1614898526,288782985,"""0""",12.0,0.0,12.25,0.0
1614970553702688932,,137591,,1614898526,338774860,"""0""",12.0,0.0,12.3500003815,0.0
1614970553748517036,,137592,,1614898526,388892829,"""0""",12.0,0.375,12.3500003815,0.0
1614970553799182891,,137593,,1614898526,438783037,"""0""",12.0,0.0,12.3500003815,0.0
1614970553839296102,,137594,,1614898526,488790120,"""0""",12.0,0.0,12.3500003815,0.0
1614970553900943040,,137595,,1614898526,538836631,"""0""",12.0,0.0,12.3500003815,0.0
1614970553936705112,,137596,,1614898526,588810277,"""0""",12.0,0.0,12.3500003815,0.0
1614970554039393901,,137597,,1614898526,638780224,"""0""",12.0,0.0,12.3500003815,0.0
1614970554039509057,,137598,,1614898526,688923610,"""0""",12.0,0.0,12.3500003815,0.0
1614970554095763921,,137599,,1614898526,738867099,"""0""",12.0,0.375,12.3500003815,0.0
1614970554151112079,,137600,,1614898526,788822047,"""0""",12.0,0.375,12.3500003815,0.0
1614970554200005054,,137601,,1614898526,838869964,"""0""",12.0,0.375,12.3000001907,0.0
1614970554248013019,,137602,,1614898526,888865276,"""0""",12.0,0.375,12.3000001907,0.0
1614970554291568040,,137603,,1614898526,938784339,"""0""",12.0,0.375,12.3000001907,0.0
1614970554341870069,,137604,,1614898526,988781370,"""0""",12.0,0.625,12.25,0.0
1614970554422612905,,137605,,1614898527,38858974,"""0""",12.0,0.625,12.25,0.0
1614970554472048997,,137606,,1614898527,88788870,"""0""",12.0,0.375,12.25,0.0
1614970554526307106,,137607,,1614898527,138969131,"""0""",12.0,0.375,12.3000001907,0.0
1614970554611725091,,137608,,1614898527,188918037,"""0""",12.0,0.375,12.3000001907,0.0
1614970554656404972,,137609,,1614898527,238771318,"""0""",12.0,0.625,12.3000001907,0.0
1614970554656536102,,137610,,1614898527,288833193,"""0""",12.0,1.0,12.3000001907,0.0
1614970554705015897,,137611,,1614898527,338784808,"""0""",12.0,1.0,12.25,0.0
1614970554754487991,,137612,,1614898527,388747464,"""0""",12.0,0.625,12.25,0.0
1614970554800221920,,137613,,1614898527,438759651,"""0""",12.0,1.0,12.25,0.0
1614970554859504938,,137614,,1614898527,488825641,"""0""",12.0,2.75,12.1999998093,0.0
1614970554918359041,,137615,,1614898527,538795589,"""0""",12.0,3.75,12.1999998093,0.0
1614970554950311899,,137616,,1614898527,588812932,"""0""",12.0,3.375,12.1999998093,0.0
1614970555017544031,,137617,,1614898527,638752724,"""0""",12.0,3.875,12.1000003815,0.0
1614970555066696882,,137618,,1614898527,688792099,"""0""",12.0,4.125,12.1000003815,0.0
1614970555121622085,,137619,,1614898527,738743089,"""0""",12.0,4.125,12.1000003815,0.0
1614970555220858097,,137620,,1614898527,788846734,"""0""",12.0,4.0,12.1000003815,0.0
1614970555220967054,,137621,,1614898527,838774912,"""0""",12.0,3.75,12.1000003815,0.0
1614970555269752025,,137622,,1614898527,888791526,"""0""",12.0,3.875,12.1000003815,0.0
1614970555311131954,,137623,,1614898527,938755172,"""0""",12.0,4.0,12.1000003815,0.0
1614970555351382970,,137624,,1614898527,988973141,"""0""",12.0,4.0,12.1000003815,0.0
1614970555404958009,,137625,,1614898528,38765641,"""0""",12.0,3.875,12.1000003815,0.0
1614970555446528911,,137626,,1614898528,89327620,"""0""",12.0,3.875,12.1000003815,0.0
1614970555496891975,,137627,,1614898528,138783036,"""0""",12.0,3.875,12.1000003815,0.0
1614970555558418035,,137628,,1614898528,188829755,"""0""",12.0,3.875,12.1000003815,0.0
1614970555607418060,,137629,,1614898528,238793297,"""0""",12.0,3.875,12.1000003815,0.0
1614970555653646945,,137630,,1614898528,289242307,"""0""",12.0,3.75,12.1499996185,0.0
1614970555702140092,,137631,,1614898528,338852672,"""0""",12.0,3.0,12.1499996185,0.0
1614970555745959043,,137632,,1614898528,389263505,"""0""",12.0,3.0,12.1499996185,0.0
1614970555819458007,,137633,,1614898528,438767932,"""0""",12.0,3.0,12.1499996185,0.0
1614970555894887924,,137634,,1614898528,488875536,"""0""",12.0,3.0,12.1499996185,0.0
1614970555944470882,,137635,,1614898528,538813245,"""0""",12.0,2.375,12.1499996185,0.0
1614970555982429027,,137636,,1614898528,589269078,"""0""",12.0,2.375,12.1999998093,0.0
1614970556033329010,,137637,,1614898528,638792724,"""0""",12.0,2.375,12.1999998093,0.0
1614970556111896038,,137638,,1614898528,689463401,"""0""",12.0,2.375,12.1999998093,0.0
1614970556162451028,,137639,,1614898528,738761630,"""0""",12.0,2.0,12.1499996185,0.0
1614970556162600994,,137640,,1614898528,789044911,"""0""",12.0,2.0,12.1499996185,0.0
1614970556202215909,,137641,,1614898528,838769026,"""0""",12.0,1.75,12.1499996185,0.0
1614970556246646881,,137642,,1614898528,889181786,"""0""",12.0,1.375,12.1499996185,0.0
1614970556303687095,,137643,,1614898528,938762567,"""0""",12.0,1.75,12.1999998093,0.0
1614970556362670898,,137644,,1614898528,989193088,"""0""",12.0,1.75,12.1999998093,0.0
1614970556414123058,,137645,,1614898529,38801265,"""0""",12.0,2.0,12.1999998093,0.0
1614970556471896886,,137646,,1614898529,88955171,"""0""",12.0,2.0,12.1999998093,0.0
1614970556515420913,,137647,,1614898529,138758192,"""0""",12.0,2.375,12.1999998093,0.0
1614970556562041044,,137648,,1614898529,189154599,"""0""",12.0,2.375,12.1999998093,0.0
1614970556620291948,,137649,,1614898529,238776109,"""0""",12.0,2.0,12.1999998093,0.0
1614970556669192075,,137650,,1614898529,288783140,"""0""",12.0,2.0,12.1999998093,0.0
1614970556735925912,,137651,,1614898529,338777359,"""0""",12.0,2.375,12.1999998093,0.0
1614970556777646064,,137652,,1614898529,388800328,"""0""",12.0,2.375,12.1999998093,0.0
1614970556811011075,,137653,,1614898529,438790848,"""0""",12.0,2.0,12.1999998093,0.0
1614970556857263088,,137654,,1614898529,488781421,"""0""",12.0,2.0,12.1999998093,0.0
1614970556899682044,,137655,,1614898529,538754286,"""0""",12.0,2.0,12.1999998093,0.0
1614970556957546949,,137656,,1614898529,588813348,"""0""",12.0,1.75,12.1999998093,0.0
1614970557014374971,,137657,,1614898529,638746109,"""0""",12.0,2.0,12.1999998093,0.0
1614970557052284002,,137658,,1614898529,688789702,"""0""",12.0,2.0,12.1999998093,0.0
1614970557098221063,,137659,,1614898529,738778817,"""0""",12.0,1.75,12.1999998093,0.0
1614970557145021915,,137660,,1614898529,788802671,"""0""",12.0,2.0,12.1999998093,0.0
1614970557193167924,,137661,,1614898529,838799911,"""0""",12.0,2.0,12.1999998093,0.0
1614970557239592075,,137662,,1614898529,888880640,"""0""",12.0,2.0,12.1999998093,0.0
1614970557295747995,,137663,,1614898529,938824598,"""0""",12.0,2.0,12.1999998093,0.0
1614970557339917898,,137664,,1614898529,988788609,"""0""",12.0,2.0,12.1999998093,0.0
1614970557409651994,,137665,,1614898530,38788088,"""0""",12.0,1.75,12.1999998093,0.0
1614970557467751026,,137666,,1614898530,88834702,"""0""",12.0,1.75,12.1999998093,0.0
1614970557504024028,,137667,,1614898530,138822202,"""0""",12.0,2.0,12.1999998093,0.0
1614970557545089006,,137668,,1614898530,188784702,"""0""",12.0,1.75,12.1999998093,0.0
1614970557599407911,,137669,,1614898530,238805900,"""0""",12.0,2.0,12.1999998093,0.0
1614970557640171051,,137670,,1614898530,288793713,"""0""",12.0,1.75,12.1999998093,0.0
1614970557695024967,,137671,,1614898530,338768452,"""0""",12.0,2.0,12.1999998093,0.0
1614970557791431903,,137672,,1614898530,388766056,"""0""",12.0,2.375,12.1999998093,0.0
1614970557859045982,,137673,,1614898530,438834442,"""0""",12.0,2.0,12.1999998093,0.0
1614970557859152078,,137674,,1614898530,488785588,"""0""",12.0,2.0,12.1999998093,0.0
1614970557928750038,,137675,,1614898530,538758660,"""0""",12.0,2.375,12.1999998093,0.0
1614970557995450973,,137676,,1614898530,588831733,"""0""",12.0,2.375,12.1999998093,0.0
1614970558034554004,,137677,,1614898530,638769910,"""0""",12.0,2.0,12.1999998093,0.0
1614970558069334983,,137678,,1614898530,688904806,"""0""",12.0,2.375,12.1999998093,0.0
1614970558107189893,,137679,,1614898530,738784233,"""0""",12.0,2.375,12.1999998093,0.0
1614970558146528959,,137680,,1614898530,788836265,"""0""",12.0,2.75,12.1999998093,0.0
1614970558219156026,,137681,,1614898530,838759858,"""0""",12.0,3.0,12.1999998093,0.0
1614970558281583070,,137682,,1614898530,888792306,"""0""",12.0,2.75,12.1999998093,0.0
1614970558330894947,,137683,,1614898530,938798504,"""0""",12.0,2.0,12.1999998093,0.0
1614970558361166954,,137684,,1614898530,988785952,"""0""",12.0,2.0,12.1999998093,0.0
1614970558397334098,,137685,,1614898531,38766994,"""0""",12.0,3.0,12.1999998093,0.0
1614970558444197893,,137686,,1614898531,88972202,"""0""",12.0,2.375,12.1999998093,0.0
1614970558526285886,,137687,,1614898531,138831369,"""0""",12.0,1.75,12.1999998093,0.0
1614970558592448949,,137688,,1614898531,188782983,"""0""",12.0,2.0,12.1999998093,0.0
1614970558624674081,,137689,,1614898531,238852202,"""0""",12.0,2.0,12.1999998093,0.0
1614970558664547920,,137690,,1614898531,288941369,"""0""",12.0,1.75,12.1999998093,0.0
1614970558700112104,,137691,,1614898531,338770327,"""0""",12.0,1.75,12.1999998093,0.0
1614970558747636079,,137692,,1614898531,388891889,"""0""",12.0,2.0,12.1999998093,0.0
1614970558791192054,,137693,,1614898531,438773764,"""0""",12.0,2.0,12.1999998093,0.0
1614970558843384981,,137694,,1614898531,488788973,"""0""",12.0,1.75,12.1999998093,0.0
1614970558893178939,,137695,,1614898531,538859181,"""0""",12.0,1.75,12.1999998093,0.0
1614970558939213037,,137696,,1614898531,589059650,"""0""",12.0,1.375,12.1999998093,0.0
1614970558989973068,,137697,,1614898531,638939077,"""0""",12.0,1.375,12.1999998093,0.0
1614970559039422035,,137698,,1614898531,688840795,"""0""",12.0,1.375,12.1999998093,0.0
1614970559094419002,,137699,,1614898531,738870431,"""0""",12.0,1.75,12.1999998093,0.0
1614970559142714977,,137700,,1614898531,788868087,"""0""",12.0,2.0,12.1999998093,0.0
1614970559181348085,,137701,,1614898531,838819910,"""0""",12.0,2.0,12.1999998093,0.0
1614970559245579004,,137702,,1614898531,888886993,"""0""",12.0,2.375,12.1999998093,0.0
1614970559285939931,,137703,,1614898531,938780691,"""0""",12.0,2.375,12.1499996185,0.0
1614970559342209100,,137704,,1614898531,988847931,"""0""",12.0,2.0,12.1499996185,0.0
1614970559412795066,,137705,,1614898532,38807983,"""0""",12.0,2.75,12.1499996185,0.0
1614970559434952974,,137706,,1614898532,88798608,"""0""",12.0,3.0,12.1499996185,0.0
1614970559486824035,,137707,,1614898532,138874806,"""0""",12.0,2.75,12.1999998093,0.0
1614970559547622919,,137708,,1614898532,188775639,"""0""",12.0,2.75,12.1999998093,0.0
1614970559604851007,,137709,,1614898532,238868191,"""0""",12.0,3.0,12.1999998093,0.0
1614970559675834894,,137710,,1614898532,288761785,"""0""",12.0,2.75,12.1499996185,0.0
1614970559727660894,,137711,,1614898532,338791368,"""0""",12.0,2.375,12.1499996185,0.0
1614970559759810924,,137712,,1614898532,388787514,"""0""",12.0,2.0,12.1499996185,0.0
1614970559797651052,,137713,,1614898532,438787774,"""0""",12.0,2.0,12.1999998093,0.0
1614970559853714942,,137714,,1614898532,488900795,"""0""",12.0,1.75,12.1999998093,0.0
1614970559900006055,,137715,,1614898532,538852774,"""0""",12.0,2.0,12.1999998093,0.0
1614970559946774959,,137716,,1614898532,588757149,"""0""",12.0,2.0,12.1999998093,0.0
1614970560019154071,,137717,,1614898532,639051889,"""0""",12.0,2.0,12.1999998093,0.0
1614970560055697917,,137718,,1614898532,688805847,"""0""",12.0,2.0,12.1999998093,0.0
1614970560088866949,,137719,,1614898532,738720691,"""0""",12.0,1.75,12.1999998093,0.0
1614970560145814895,,137720,,1614898532,788764962,"""0""",12.0,1.75,12.1999998093,0.0
1614970560186748981,,137721,,1614898532,838912983,"""0""",12.0,1.75,12.1999998093,0.0
1614970560252063989,,137722,,1614898532,888818191,"""0""",12.0,2.0,12.1999998093,0.0
1614970560290721893,,137723,,1614898532,938782566,"""0""",12.0,1.75,12.1999998093,0.0
1614970560361701965,,137724,,1614898532,988816264,"""0""",12.0,1.75,12.1999998093,0.0
1614970560467588901,,137725,,1614898533,38831993,"""0""",12.0,2.0,12.1999998093,0.0
1614970560467700958,,137726,,1614898533,88888868,"""0""",12.0,2.0,12.1999998093,0.0
1614970560521007061,,137727,,1614898533,138782357,"""0""",12.0,2.0,12.1999998093,0.0
1614970560607530117,,137728,,1614898533,188841107,"""0""",12.0,1.75,12.1999998093,0.0
1614970560607656955,,137729,,1614898533,238782722,"""0""",12.0,1.75,12.1999998093,0.0
1614970560647862911,,137730,,1614898533,288786576,"""0""",12.0,2.0,12.1999998093,0.0
1614970560691867113,,137731,,1614898533,338782670,"""0""",12.0,2.0,12.1999998093,0.0
1614970560746134996,,137732,,1614898533,388807774,"""0""",12.0,2.0,12.1999998093,0.0
1614970560790800094,,137733,,1614898533,439445066,"""0""",12.0,2.75,12.1999998093,0.0
1614970560847620010,,137734,,1614898533,488769389,"""0""",12.0,2.75,12.1999998093,0.0
1614970560940954923,,137735,,1614898533,538862305,"""0""",12.0,2.75,12.1999998093,0.0
1614970560972009897,,137736,,1614898533,588873243,"""0""",12.0,2.75,12.1999998093,0.0
1614970561016735076,,137737,,1614898533,638902930,"""0""",12.0,2.375,12.1999998093,0.0
1614970561048883914,,137738,,1614898533,688737409,"""0""",12.0,2.375,12.1999998093,0.0
1614970561092555999,,137739,,1614898533,738782930,"""0""",12.0,2.375,12.1499996185,0.0
1614970561145220041,,137740,,1614898533,788805743,"""0""",12.0,2.75,12.1499996185,0.0
1614970561201731920,,137741,,1614898533,838777253,"""0""",12.0,2.375,12.1499996185,0.0
1614970561256738901,,137742,,1614898533,888787670,"""0""",12.0,2.0,12.1999998093,0.0
1614970561287775039,,137743,,1614898533,938801159,"""0""",12.0,1.375,12.1999998093,0.0
1614970561353946924,,137744,,1614898533,988939545,"""0""",12.0,1.375,12.1999998093,0.0
1614970561387815952,,137745,,1614898534,38776940,"""0""",12.0,1.0,12.1999998093,0.0
1614970561454236030,,137746,,1614898534,88901003,"""0""",12.0,1.0,12.1999998093,0.0
1614970561540432929,,137747,,1614898534,138821628,"""0""",12.0,1.0,12.1999998093,0.0
1614970561690937042,,137748,,1614898534,188804961,"""0""",12.0,1.0,12.25,0.0
1614970561691047906,,137749,,1614898534,238874180,"""0""",12.0,0.625,12.25,0.0
1614970561691070079,,137750,,1614898534,288860326,"""0""",12.0,0.625,12.25,0.0
1614970561735972881,,137751,,1614898534,338837774,"""0""",11.0,0.625,12.25,0.0
1614970561917548894,,137752,,1614898534,388835274,"""0""",11.0,0.625,12.25,0.0
1614970561917654991,,137753,,1614898534,438929024,"""0""",11.0,0.625,12.25,0.0
1614970561917676925,,137754,,1614898534,488801003,"""0""",11.0,0.625,12.25,0.0
1614970561917855978,,137755,,1614898534,538781628,"""0""",12.0,0.375,12.25,0.0
1614970561955090045,,137756,,1614898534,588793086,"""0""",12.0,0.375,12.25,0.0
1614970562007180929,,137757,,1614898534,638797253,"""0""",12.0,0.375,12.25,0.0
1614970562121818065,,137758,,1614898534,688718867,"""0""",12.0,0.375,12.25,0.0
1614970562121994018,,137759,,1614898534,738799128,"""0""",12.0,0.0,12.25,0.0
1614970562161818981,,137760,,1614898534,788811471,"""0""",12.0,0.0,12.25,0.0
1614970562210968971,,137761,,1614898534,838784805,"""0""",12.0,0.375,12.25,0.0
1614970562254966974,,137762,,1614898534,888760221,"""0""",12.0,0.375,12.25,0.0
1614970562302710056,,137763,,1614898534,938843242,"""0""",12.0,0.375,12.25,0.0
1614970562344353914,,137764,,1614898534,988783190,"""0""",12.0,0.0,12.3000001907,0.0
1614970562412162065,,137765,,1614898535,38795013,"""0""",12.0,0.375,12.3000001907,0.0
1614970562474415063,,137766,,1614898535,88787513,"""0""",12.0,0.375,12.3000001907,0.0
1614970562514919042,,137767,,1614898535,138770013,"""0""",12.0,0.625,12.25,0.0
1614970562572267055,,137768,,1614898535,188762617,"""0""",12.0,0.625,12.25,0.0
1614970562621150970,,137769,,1614898535,238780690,"""0""",12.0,0.375,12.25,0.0
1614970562664017915,,137770,,1614898535,288762721,"""0""",12.0,1.375,12.25,0.0
1614970562722836017,,137771,,1614898535,338787565,"""0""",12.0,3.375,12.1499996185,0.0
1614970562759994029,,137772,,1614898535,388747721,"""0""",12.0,1.75,12.1499996185,0.0
1614970562817785024,,137773,,1614898535,438785273,"""0""",12.0,1.375,12.1499996185,0.0
1614970562854451894,,137774,,1614898535,488781211,"""0""",12.0,2.0,12.1999998093,0.0
1614970562901010990,,137775,,1614898535,538917252,"""0""",12.0,1.0,12.1999998093,0.0
1614970562968853950,,137776,,1614898535,588782148,"""0""",12.0,0.625,12.1999998093,0.0
1614970563035921096,,137777,,1614898535,638829909,"""0""",12.0,1.375,12.1999998093,0.0
1614970563073976993,,137778,,1614898535,688788346,"""0""",12.0,1.0,12.1999998093,0.0
1614970563127521991,,137779,,1614898535,738792825,"""0""",12.0,0.625,12.1999998093,0.0
1614970563170802116,,137780,,1614898535,788812356,"""0""",12.0,0.625,12.25,0.0
1614970563224284887,,137781,,1614898535,838787461,"""0""",12.0,0.625,12.25,0.0
1614970563311599016,,137782,,1614898535,888791523,"""0""",12.0,0.625,12.25,0.0
1614970563364826917,,137783,,1614898535,938809440,"""0""",12.0,1.0,12.25,0.0
1614970563364932060,,137784,,1614898535,988808867,"""0""",12.0,1.0,12.25,0.0
1614970563397090911,,137785,,1614898536,38822669,"""0""",12.0,1.375,12.25,0.0
1614970563454404115,,137786,,1614898536,88827617,"""0""",12.0,1.75,12.25,0.0
1614970563501770973,,137787,,1614898536,138806940,"""0""",12.0,1.0,12.1999998093,0.0
1614970563549730062,,137788,,1614898536,189049908,"""0""",12.0,1.0,12.1999998093,0.0
1614970563642807006,,137789,,1614898536,238789387,"""0""",12.0,1.0,12.1999998093,0.0
1614970563699758052,,137790,,1614898536,288776054,"""0""",12.0,1.0,12.1999998093,0.0
1614970563742132902,,137791,,1614898536,338783867,"""0""",12.0,0.625,12.1999998093,0.0
1614970563790540933,,137792,,1614898536,388764908,"""0""",12.0,0.625,12.1999998093,0.0
1614970563841769933,,137793,,1614898536,438792356,"""0""",12.0,1.375,12.1999998093,0.0
1614970563925761938,,137794,,1614898536,488892044,"""0""",12.0,1.0,12.1999998093,0.0
1614970563925875902,,137795,,1614898536,538786002,"""0""",12.0,0.375,12.1999998093,0.0
1614970563974265098,,137796,,1614898536,588797096,"""0""",12.0,0.625,12.25,0.0
1614970564053227901,,137797,,1614898536,638777200,"""0""",12.0,1.75,12.25,0.0
1614970564094063997,,137798,,1614898536,688822981,"""0""",12.0,1.375,12.25,0.0
1614970564154685974,,137799,,1614898536,738846679,"""0""",12.0,0.625,12.25,0.0
1614970564228485107,,137800,,1614898536,788809491,"""0""",12.0,0.375,12.25,0.0
1614970564228689908,,137801,,1614898536,838803294,"""0""",12.0,0.625,12.25,0.0
1614970564290991067,,137802,,1614898536,888794283,"""0""",12.0,1.0,12.25,0.0
1614970564343826055,,137803,,1614898536,938791054,"""0""",12.0,0.625,12.25,0.0
1614970564399888038,,137804,,1614898536,988773502,"""0""",12.0,0.375,12.25,0.0
1614970564400242090,,137805,,1614898537,38786106,"""0""",12.0,0.625,12.25,0.0
1614970564460273027,,137806,,1614898537,88858970,"""0""",12.0,1.375,12.1999998093,0.0
1614970564510544061,,137807,,1614898537,138833918,"""0""",12.0,1.75,12.1999998093,0.0
1614970564558531999,,137808,,1614898537,188791523,"""0""",12.0,2.0,12.1999998093,0.0
1614970564610157012,,137809,,1614898537,238759960,"""0""",12.0,1.75,12.1999998093,0.0
1614970564650063037,,137810,,1614898537,288793450,"""0""",12.0,2.0,12.1999998093,0.0
1614970564698744058,,137811,,1614898537,338778293,"""0""",12.0,2.375,12.1999998093,0.0
1614970564775018930,,137812,,1614898537,388818814,"""0""",12.0,2.75,12.1000003815,0.0
1614970564809545040,,137813,,1614898537,438748137,"""0""",12.0,1.75,12.1000003815,0.0
1614970564848891973,,137814,,1614898537,488800481,"""0""",12.0,1.375,12.1000003815,0.0
1614970564889338016,,137815,,1614898537,538845481,"""0""",12.0,2.75,12.1499996185,0.0
1614970564944102048,,137816,,1614898537,588792043,"""0""",12.0,2.75,12.1499996185,0.0
1614970565000411033,,137817,,1614898537,638779335,"""0""",12.0,1.375,12.1499996185,0.0
1614970565053740978,,137818,,1614898537,688977877,"""0""",12.0,0.625,12.1499996185,0.0
1614970565091732025,,137819,,1614898537,738768658,"""0""",12.0,0.625,12.25,0.0
1614970565144165992,,137820,,1614898537,788897408,"""0""",12.0,1.375,12.25,0.0
1614970565195219039,,137821,,1614898537,838726522,"""0""",12.0,1.375,12.25,0.0
1614970565238506078,,137822,,1614898537,888869699,"""0""",12.0,1.0,12.25,0.0
1614970565292327880,,137823,,1614898537,938768085,"""0""",12.0,0.375,12.25,0.0
1614970565357426881,,137824,,1614898537,988800585,"""0""",12.0,1.0,12.25,0.0
1614970565405944108,,137825,,1614898538,38762408,"""0""",12.0,1.375,12.1999998093,0.0
1614970565443471908,,137826,,1614898538,88931783,"""0""",12.0,0.625,12.1999998093,0.0
1614970565507446050,,137827,,1614898538,138827564,"""0""",12.0,0.375,12.1999998093,0.0
1614970565550234079,,137828,,1614898538,188852147,"""0""",12.0,0.625,12.25,0.0
1614970565599625110,,137829,,1614898538,238771001,"""0""",12.0,0.625,12.25,0.0
1614970565694941997,,137830,,1614898538,288840428,"""0""",12.0,0.625,12.25,0.0
1614970565743622064,,137831,,1614898538,338756730,"""0""",12.0,3.75,12.1000003815,0.0
1614970565782394886,,137832,,1614898538,388784074,"""0""",12.0,4.25,12.1000003815,0.0
1614970565813735961,,137833,,1614898538,438768501,"""0""",12.0,4.25,12.1000003815,0.0
1614970565876101970,,137834,,1614898538,488790793,"""0""",12.0,4.125,12.1000003815,0.0
1614970565969835996,,137835,,1614898538,538774907,"""0""",12.0,4.375,12.0500001907,0.0
1614970565969950914,,137836,,1614898538,588838189,"""0""",12.0,4.375,12.0500001907,0.0
1614970566018452882,,137837,,1614898538,638785637,"""0""",12.0,4.375,12.0500001907,0.0
1614970566062951087,,137838,,1614898538,688867512,"""0""",11.0,5.25,12.0,0.0
1614970566096157073,,137839,,1614898538,738784334,"""0""",11.0,4.875,12.0,0.0
1614970566139920949,,137840,,1614898538,788952772,"""0""",11.0,4.5,12.0,0.0
1614970566193919897,,137841,,1614898538,838747980,"""0""",11.0,4.875,12.0,0.0
1614970566249979019,,137842,,1614898538,889031939,"""0""",11.0,4.625,12.0,0.0
1614970566300406932,,137843,,1614898538,938758241,"""0""",11.0,4.5,12.0,0.0
1614970566350106000,,137844,,1614898538,988786001,"""0""",11.0,4.5,12.0500001907,0.0
1614970566402164936,,137845,,1614898539,38814907,"""0""",11.0,4.625,12.0500001907,0.0
1614970566443160057,,137846,,1614898539,88795949,"""0""",11.0,4.625,12.0500001907,0.0
1614970566494599103,,137847,,1614898539,138778397,"""0""",12.0,4.625,12.0,0.0
1614970566613190889,,137848,,1614898539,188796730,"""0""",12.0,4.625,12.0,0.0
1614970566670391082,,137849,,1614898539,238767563,"""0""",12.0,5.0,12.0,0.0
1614970566670557975,,137850,,1614898539,288905376,"""0""",12.0,5.25,12.0,0.0
1614970566711239099,,137851,,1614898539,338790272,"""0""",12.0,5.0,12.0500001907,0.0
1614970566750319957,,137852,,1614898539,389390220,"""0""",12.0,5.125,12.0500001907,0.0
1614970566792462110,,137853,,1614898539,438777251,"""0""",12.0,5.125,12.0500001907,0.0
1614970566841695070,,137854,,1614898539,488826626,"""0""",11.0,5.25,12.0,0.0
1614970566903449058,,137855,,1614898539,538786886,"""0""",11.0,5.25,12.0,0.0
1614970566950850009,,137856,,1614898539,588776626,"""0""",11.0,5.25,12.0,0.0
1614970566994863033,,137857,,1614898539,639358032,"""0""",11.0,5.25,11.9499998093,0.0
1614970567050281047,,137858,,1614898539,689231470,"""0""",11.0,5.0,11.9499998093,0.0
1614970567093736886,,137859,,1614898539,738839647,"""0""",11.0,5.0,11.9499998093,0.0
1614970567140036106,,137860,,1614898539,789688240,"""0""",11.0,4.875,12.0,0.0
1614970567204987049,,137861,,1614898539,838817147,"""0""",11.0,4.75,12.0,0.0
1614970567237071037,,137862,,1614898539,889294178,"""0""",11.0,4.875,12.0,0.0
1614970567296355009,,137863,,1614898539,939016313,"""0""",12.0,4.625,12.0,0.0
1614970567360609054,,137864,,1614898539,988953969,"""0""",12.0,4.5,12.0,0.0
1614970567397919893,,137865,,1614898540,38893449,"""0""",12.0,4.125,12.0,0.0
1614970567436062097,,137866,,1614898540,88832251,"""0""",12.0,3.0,12.0,0.0
1614970567515278100,,137867,,1614898540,138770688,"""0""",12.0,4.875,12.1000003815,0.0
1614970567563777923,,137868,,1614898540,188825948,"""0""",12.0,5.25,12.1000003815,0.0
1614970567594613075,,137869,,1614898540,238764751,"""0""",12.0,3.875,12.1000003815,0.0
1614970567638582944,,137870,,1614898540,289239334,"""0""",12.0,1.75,12.1499996185,0.0
1614970567698770999,,137871,,1614898540,338865480,"""0""",12.0,1.75,12.1499996185,0.0
1614970567741868972,,137872,,1614898540,388836365,"""0""",12.0,2.75,12.1499996185,0.0
1614970567806441068,,137873,,1614898540,438777563,"""0""",12.0,1.375,12.1499996185,0.0
1614970567844815969,,137874,,1614898540,488816365,"""0""",12.0,0.625,12.1499996185,0.0
1614970567900927066,,137875,,1614898540,538885428,"""0""",12.0,0.0,12.1499996185,0.0
1614970567939224004,,137876,,1614898540,588816886,"""0""",12.0,0.0,12.3000001907,0.0
1614970567991668939,,137877,,1614898540,638819750,"""0""",12.0,0.0,12.3000001907,0.0
1614970568104157924,,137878,,1614898540,688821625,"""0""",12.0,0.0,12.3000001907,0.0
1614970568104266881,,137879,,1614898540,738778552,"""0""",12.0,0.0,12.3999996185,0.0
1614970568144237041,,137880,,1614898540,788815688,"""0""",12.0,0.0,12.3999996185,0.0
1614970568198947906,,137881,,1614898540,838779750,"""0""",12.0,0.0,12.3999996185,0.0
1614970568240999937,,137882,,1614898540,888862615,"""0""",12.0,0.0,12.3999996185,0.0
1614970568293034076,,137883,,1614898540,938893604,"""0""",12.0,0.0,12.3999996185,0.0
1614970568348498106,,137884,,1614898540,988896938,"""0""",12.0,0.0,12.3999996185,0.0
1614970568399238109,,137885,,1614898541,38794906,"""0""",12.0,0.0,12.3999996185,0.0
1614970568441011905,,137886,,1614898541,88800792,"""0""",12.0,0.0,12.3500003815,0.0
1614970568494036912,,137887,,1614898541,138815479,"""0""",12.0,0.0,12.3500003815,0.0
1614970568540673971,,137888,,1614898541,188885271,"""0""",12.0,0.0,12.3500003815,0.0
1614970568595160007,,137889,,1614898541,238886417,"""0""",12.0,0.0,12.3500003815,0.0
1614970568638365030,,137890,,1614898541,288812094,"""0""",12.0,0.0,12.3500003815,0.0
1614970568689524888,,137891,,1614898541,338865427,"""0""",12.0,0.0,12.3500003815,0.0
1614970568737862110,,137892,,1614898541,388909229,"""0""",12.0,0.0,12.3500003815,0.0
1614970568796372890,,137893,,1614898541,438780740,"""0""",12.0,0.0,12.3500003815,0.0
1614970568841227054,,137894,,1614898541,488793292,"""0""",12.0,0.0,12.3500003815,0.0
1614970568887975931,,137895,,1614898541,538804490,"""0""",12.0,0.375,12.25,0.0
1614970568940458059,,137896,,1614898541,588828813,"""0""",12.0,0.375,12.25,0.0
1614970569006925106,,137897,,1614898541,638757927,"""0""",12.0,1.0,12.25,0.0
1614970569046916961,,137898,,1614898541,688801677,"""0""",12.0,1.0,12.25,0.0
1614970569089957952,,137899,,1614898541,738829177,"""0""",12.0,0.625,12.25,0.0
1614970569146217107,,137900,,1614898541,788817927,"""0""",12.0,2.375,12.25,0.0
1614970569194068908,,137901,,1614898541,838793969,"""0""",12.0,3.875,12.25,0.0
1614970569246788024,,137902,,1614898541,888747562,"""0""",11.0,3.0,12.1999998093,0.0
1614970569334676980,,137903,,1614898541,938852458,"""0""",11.0,2.0,12.1999998093,0.0
1614970569369858026,,137904,,1614898541,988780844,"""0""",11.0,2.375,12.1999998093,0.0
1614970569415471076,,137905,,1614898542,38774489,"""0""",12.0,0.625,12.25,0.0
1614970569460702896,,137906,,1614898542,88781677,"""0""",12.0,0.625,12.25,0.0
1614970569499206066,,137907,,1614898542,138798656,"""0""",12.0,0.625,12.25,0.0
1614970569562846899,,137908,,1614898542,188808031,"""0""",12.0,0.625,12.25,0.0
1614970569611591100,,137909,,1614898542,238817094,"""0""",12.0,1.0,12.25,0.0
1614970569672183990,,137910,,1614898542,288784177,"""0""",12.0,1.0,12.25,0.0
1614970569708487033,,137911,,1614898542,338795114,"""0""",12.0,0.625,12.25,0.0
1614970569746475934,,137912,,1614898542,388821416,"""0""",12.0,1.375,12.25,0.0
1614970569790766954,,137913,,1614898542,438810218,"""0""",12.0,3.875,12.25,0.0
1614970569853615999,,137914,,1614898542,488961781,"""0""",12.0,3.875,12.25,0.0
1614970569903614997,,137915,,1614898542,538758291,"""0""",12.0,3.875,12.0500001907,0.0
1614970569959206104,,137916,,1614898542,588784437,"""0""",12.0,4.125,12.0500001907,0.0
1614970569995260953,,137917,,1614898542,638767823,"""0""",12.0,4.25,12.0500001907,0.0
1614970570044591903,,137918,,1614898542,688787823,"""0""",12.0,4.125,12.1000003815,0.0
1614970570095268964,,137919,,1614898542,738943604,"""0""",12.0,4.25,12.1000003815,0.0
1614970570141036987,,137920,,1614898542,788786833,"""0""",12.0,4.25,12.1000003815,0.0
1614970570194724082,,137921,,1614898542,838759697,"""0""",11.0,4.25,12.0500001907,0.0
1614970570256591081,,137922,,1614898542,888773656,"""0""",11.0,4.125,12.0500001907,0.0
1614970570300219058,,137923,,1614898542,938842197,"""0""",11.0,4.0,12.0500001907,0.0
1614970570340365886,,137924,,1614898542,988784229,"""0""",12.0,4.0,12.1000003815,0.0
1614970570390389919,,137925,,1614898543,38860947,"""0""",12.0,4.0,12.1000003815,0.0
1614970570488462924,,137926,,1614898543,88917041,"""0""",12.0,3.875,12.1000003815,0.0
1614970570570681095,,137927,,1614898543,138846104,"""0""",12.0,3.75,12.1000003815,0.0
1614970570570868015,,137928,,1614898543,188787093,"""0""",12.0,3.0,12.1000003815,0.0
1614970570630220890,,137929,,1614898543,238902979,"""0""",12.0,3.0,12.1000003815,0.0
1614970570679498910,,137930,,1614898543,288842510,"""0""",12.0,3.0,12.1000003815,0.0
1614970570717750072,,137931,,1614898543,338838499,"""0""",12.0,3.75,12.1499996185,0.0
1614970570841522932,,137932,,1614898543,388833708,"""0""",12.0,3.375,12.1499996185,0.0
1614970570841631889,,137933,,1614898543,438821260,"""0""",12.0,3.75,12.1499996185,0.0
1614970570893562078,,137934,,1614898543,488761103,"""0""",12.0,3.75,12.1000003815,0.0
1614970570969711065,,137935,,1614898543,538845010,"""0""",12.0,3.375,12.1000003815,0.0
1614970570969820976,,137936,,1614898543,588796728,"""0""",12.0,3.375,12.1000003815,0.0
1614970571019251108,,137937,,1614898543,638906728,"""0""",12.0,3.0,12.1000003815,0.0
1614970571104739904,,137938,,1614898543,688813291,"""0""",12.0,3.0,12.1000003815,0.0
1614970571104866981,,137939,,1614898543,738761260,"""0""",12.0,2.75,12.1000003815,0.0
1614970571156130075,,137940,,1614898543,788779749,"""0""",12.0,2.75,12.1499996185,0.0
1614970571201632022,,137941,,1614898543,838804801,"""0""",12.0,2.75,12.1499996185,0.0
1614970571249942064,,137942,,1614898543,888836312,"""0""",12.0,2.375,12.1499996185,0.0
1614970571309442043,,137943,,1614898543,938760322,"""0""",12.0,2.75,12.1499996185,0.0
1614970571353013038,,137944,,1614898543,988788395,"""0""",12.0,2.75,12.1499996185,0.0
1614970571395134925,,137945,,1614898544,38779697,"""0""",12.0,3.0,12.1499996185,0.0
1614970571460196971,,137946,,1614898544,88777562,"""0""",12.0,3.375,12.1499996185,0.0
1614970571503117084,,137947,,1614898544,138844176,"""0""",12.0,3.75,12.1000003815,0.0
1614970571583729982,,137948,,1614898544,188787666,"""0""",12.0,3.75,12.1000003815,0.0
1614970571637595891,,137949,,1614898544,238785374,"""0""",12.0,3.75,12.1000003815,0.0
1614970571689160108,,137950,,1614898544,288787301,"""0""",11.0,3.875,12.1000003815,0.0
1614970571769006967,,137951,,1614898544,338775686,"""0""",11.0,3.875,12.1000003815,0.0
1614970571769149065,,137952,,1614898544,388924749,"""0""",11.0,3.875,12.1000003815,0.0
1614970571808206081,,137953,,1614898544,438792457,"""0""",11.0,3.875,12.1000003815,0.0
1614970571869466066,,137954,,1614898544,488856832,"""0""",11.0,4.0,12.1000003815,0.0
1614970571940216064,,137955,,1614898544,538789332,"""0""",11.0,3.875,12.1000003815,0.0
1614970571998189926,,137956,,1614898544,588817822,"""0""",12.0,3.75,12.1000003815,0.0
1614970572040291070,,137957,,1614898544,638789280,"""0""",12.0,3.375,12.1000003815,0.0
1614970572086302042,,137958,,1614898544,688757041,"""0""",12.0,3.375,12.1000003815,0.0
1614970572129952907,,137959,,1614898544,738775999,"""0""",12.0,3.0,12.1000003815,0.0
1614970572186980962,,137960,,1614898544,788824853,"""0""",12.0,3.75,12.1000003815,0.0
1614970572228401899,,137961,,1614898544,838872040,"""0""",12.0,3.375,12.1000003815,0.0
1614970572328954935,,137962,,1614898544,888827145,"""0""",12.0,3.0,12.1000003815,0.0
1614970572329058885,,137963,,1614898544,938780582,"""0""",12.0,3.0,12.1499996185,0.0
1614970572365794897,,137964,,1614898544,988784592,"""0""",12.0,2.75,12.1499996185,0.0
1614970572418698072,,137965,,1614898545,38845790,"""0""",12.0,2.75,12.1499996185,0.0
1614970572487127065,,137966,,1614898545,88813551,"""0""",12.0,2.75,12.1499996185,0.0
1614970572523200988,,137967,,1614898545,138987561,"""0""",12.0,3.0,12.1499996185,0.0
1614970572580986022,,137968,,1614898545,188825269,"""0""",12.0,2.75,12.1499996185,0.0
1614970572618062973,,137969,,1614898545,238897092,"""0""",12.0,2.375,12.1000003815,0.0
1614970572664520025,,137970,,1614898545,288812249,"""0""",12.0,2.375,12.1000003815,0.0
1614970572711319923,,137971,,1614898545,339061624,"""0""",12.0,2.75,12.1000003815,0.0
