rosbagTimestamp,header,seq,stamp,secs,nsecs,frame_id,Temperature,OutputCurrent,BusVoltage,ClosedLoopError
1614968918102308034,,104887,,1614896891,138799546,"""0""",12.0,0.0,12.3999996185,0.0
1614968918139312982,,104888,,1614896891,188733557,"""0""",12.0,0.0,12.3999996185,0.0
1614968918182821989,,104889,,1614896891,238891057,"""0""",12.0,0.0,12.3999996185,0.0
1614968918237837076,,104890,,1614896891,288851369,"""0""",12.0,0.0,12.3999996185,0.0
1614968918284833908,,104891,,1614896891,338860796,"""0""",12.0,0.0,12.3999996185,0.0
1614968918335068941,,104892,,1614896891,388769234,"""0""",12.0,0.0,12.3999996185,0.0
1614968918382627964,,104893,,1614896891,438870275,"""0""",12.0,0.0,12.3999996185,0.0
1614968918448056936,,104894,,1614896891,488776317,"""0""",12.0,0.0,12.3999996185,0.0
1614968918485337972,,104895,,1614896891,538859129,"""0""",12.0,0.0,12.3999996185,0.0
1614968918548718929,,104896,,1614896891,588786890,"""0""",12.0,0.0,12.3999996185,0.0
1614968918591140031,,104897,,1614896891,638804234,"""0""",12.0,0.0,12.3999996185,0.0
1614968918644058942,,104898,,1614896891,688854025,"""0""",12.0,0.0,12.3999996185,0.0
1614968918689601898,,104899,,1614896891,738820067,"""0""",12.0,0.0,12.3999996185,0.0
1614968918746608972,,104900,,1614896891,788879390,"""0""",12.0,0.0,12.3999996185,0.0
1614968918792726039,,104901,,1614896891,838811265,"""0""",12.0,0.0,12.3999996185,0.0
1614968918848665952,,104902,,1614896891,888965379,"""0""",12.0,0.0,12.3999996185,0.0
1614968918898885011,,104903,,1614896891,938901161,"""0""",12.0,0.0,12.3999996185,0.0
1614968918946074008,,104904,,1614896891,988774806,"""0""",12.0,0.0,12.3999996185,0.0
1614968918994029045,,104905,,1614896892,38882098,"""0""",12.0,0.0,12.3999996185,0.0
1614968919049504041,,104906,,1614896892,88788400,"""0""",12.0,0.0,12.3999996185,0.0
1614968919095292091,,104907,,1614896892,138786265,"""0""",12.0,0.0,12.3999996185,0.0
1614968919153048992,,104908,,1614896892,188784077,"""0""",12.0,0.0,12.3999996185,0.0
1614968919197514057,,104909,,1614896892,238862410,"""0""",12.0,0.0,12.3999996185,0.0
1614968919249327898,,104910,,1614896892,288773817,"""0""",12.0,0.0,12.3999996185,0.0
1614968919294799089,,104911,,1614896892,338885640,"""0""",12.0,0.0,12.3999996185,0.0
1614968919346729993,,104912,,1614896892,388791265,"""0""",12.0,0.0,12.3999996185,0.0
1614968919402864933,,104913,,1614896892,438865171,"""0""",12.0,0.0,12.3999996185,0.0
1614968919454210042,,104914,,1614896892,488787879,"""0""",12.0,0.0,12.3999996185,0.0
1614968919499234914,,104915,,1614896892,538797983,"""0""",12.0,0.0,12.3999996185,0.0
1614968919546006917,,104916,,1614896892,588776317,"""0""",12.0,0.0,12.3999996185,0.0
1614968919603601932,,104917,,1614896892,638815483,"""0""",12.0,0.0,12.3999996185,0.0
1614968919653860092,,104918,,1614896892,688883712,"""0""",12.0,0.0,12.3999996185,0.0
1614968919707613945,,104919,,1614896892,738835848,"""0""",12.0,0.0,12.3999996185,0.0
1614968919755512952,,104920,,1614896892,788840223,"""0""",12.0,0.0,12.3999996185,0.0
1614968919800148963,,104921,,1614896892,838801577,"""0""",12.0,0.0,12.3999996185,0.0
1614968919874435901,,104922,,1614896892,888890431,"""0""",12.0,0.0,12.3999996185,0.0
1614968919905189990,,104923,,1614896892,938795691,"""0""",12.0,0.0,12.3999996185,0.0
1614968919958720922,,104924,,1614896892,988877098,"""0""",12.0,0.0,12.3999996185,0.0
1614968920025891065,,104925,,1614896893,38935379,"""0""",12.0,0.0,12.3999996185,0.0
1614968920109204053,,104926,,1614896893,88760743,"""0""",12.0,0.0,12.3999996185,0.0
1614968920109327077,,104927,,1614896893,138876681,"""0""",12.0,0.0,12.3999996185,0.0
1614968920164310932,,104928,,1614896893,188870327,"""0""",12.0,0.0,12.3999996185,0.0
1614968920210259914,,104929,,1614896893,238878764,"""0""",12.0,0.0,12.3999996185,0.0
1614968920250658035,,104930,,1614896893,288762514,"""0""",12.0,0.0,12.3999996185,0.0
1614968920306382894,,104931,,1614896893,338811889,"""0""",12.0,0.0,12.3999996185,0.0
1614968920352736949,,104932,,1614896893,388788348,"""0""",12.0,0.0,12.3999996185,0.0
1614968920398091077,,104933,,1614896893,438812254,"""0""",12.0,0.0,12.3999996185,0.0
1614968920454832077,,104934,,1614896893,488760847,"""0""",12.0,0.0,12.3999996185,0.0
1614968920502466917,,104935,,1614896893,538891368,"""0""",12.0,0.0,12.3999996185,0.0
1614968920558628082,,104936,,1614896893,588767983,"""0""",12.0,0.0,12.3999996185,0.0
1614968920617583036,,104937,,1614896893,638774702,"""0""",12.0,0.0,12.3999996185,0.0
1614968920664947032,,104938,,1614896893,688786837,"""0""",12.0,0.0,12.3999996185,0.0
1614968920699328899,,104939,,1614896893,738911733,"""0""",12.0,0.0,12.3999996185,0.0
1614968920762048959,,104940,,1614896893,788816212,"""0""",12.0,0.0,12.3999996185,0.0
1614968920795461893,,104941,,1614896893,839406056,"""0""",12.0,0.0,12.3999996185,0.0
1614968920856637001,,104942,,1614896893,888818608,"""0""",12.0,0.0,12.3999996185,0.0
1614968920896408081,,104943,,1614896893,938803608,"""0""",12.0,0.0,12.3999996185,0.0
1614968920953074932,,104944,,1614896893,988920535,"""0""",12.0,0.0,12.3999996185,0.0
1614968920999279975,,104945,,1614896894,38933399,"""0""",12.0,0.0,12.3999996185,0.0
1614968921074091911,,104946,,1614896894,88853816,"""0""",12.0,0.0,12.3999996185,0.0
1614968921102349996,,104947,,1614896894,138833920,"""0""",12.0,0.0,12.3999996185,0.0
1614968921151639938,,104948,,1614896894,188803295,"""0""",12.0,0.0,12.3999996185,0.0
1614968921201740026,,104949,,1614896894,238837201,"""0""",12.0,0.0,12.3999996185,0.0
1614968921248121023,,104950,,1614896894,288805483,"""0""",12.0,0.0,12.3999996185,0.0
1614968921296997070,,104951,,1614896894,338802878,"""0""",12.0,0.0,12.3999996185,0.0
1614968921372806072,,104952,,1614896894,388771420,"""0""",12.0,0.0,12.3999996185,0.0
1614968921417615890,,104953,,1614896894,438967514,"""0""",12.0,0.0,12.3999996185,0.0
1614968921453478097,,104954,,1614896894,488811628,"""0""",12.0,0.0,12.3999996185,0.0
1614968921500374078,,104955,,1614896894,538808660,"""0""",12.0,0.0,12.3999996185,0.0
1614968921568646907,,104956,,1614896894,588791420,"""0""",12.0,0.0,12.3999996185,0.0
1614968921622358083,,104957,,1614896894,638829805,"""0""",12.0,0.0,12.3999996185,0.0
1614968921668467998,,104958,,1614896894,688760899,"""0""",12.0,0.0,12.3999996185,0.0
1614968921713114023,,104959,,1614896894,738823451,"""0""",12.0,0.0,12.3999996185,0.0
1614968921758466005,,104960,,1614896894,788784753,"""0""",12.0,0.0,12.3999996185,0.0
1614968921804966926,,104961,,1614896894,838846993,"""0""",12.0,0.0,12.3999996185,0.0
1614968921860862970,,104962,,1614896894,888816784,"""0""",12.0,0.0,12.3999996185,0.0
1614968921899420022,,104963,,1614896894,938810222,"""0""",12.0,0.0,12.3999996185,0.0
1614968921970000028,,104964,,1614896894,988899597,"""0""",12.0,0.0,12.3999996185,0.0
1614968922009387016,,104965,,1614896895,38801889,"""0""",12.0,0.0,12.3999996185,0.0
1614968922057270050,,104966,,1614896895,88784961,"""0""",12.0,0.0,12.3999996185,0.0
1614968922100438117,,104967,,1614896895,138806680,"""0""",12.0,0.0,12.3999996185,0.0
1614968922156493902,,104968,,1614896895,188834649,"""0""",12.0,0.0,12.3999996185,0.0
1614968922206967115,,104969,,1614896895,238879909,"""0""",12.0,0.0,12.3999996185,0.0
1614968922288717031,,104970,,1614896895,288796576,"""0""",12.0,0.0,12.3999996185,0.0
1614968922321466922,,104971,,1614896895,338805482,"""0""",12.0,0.0,12.3999996185,0.0
1614968922357116937,,104972,,1614896895,388930066,"""0""",12.0,0.0,12.3999996185,0.0
1614968922400449991,,104973,,1614896895,438855013,"""0""",12.0,0.0,12.3999996185,0.0
1614968922467741966,,104974,,1614896895,488793555,"""0""",12.0,0.0,12.3999996185,0.0
1614968922500421047,,104975,,1614896895,538876211,"""0""",12.0,0.0,12.3999996185,0.0
1614968922552587032,,104976,,1614896895,588794180,"""0""",12.0,0.0,12.3999996185,0.0
1614968922610532045,,104977,,1614896895,638822670,"""0""",12.0,0.0,12.3999996185,0.0
1614968922660744905,,104978,,1614896895,688765690,"""0""",12.0,0.0,12.3999996185,0.0
1614968922703178882,,104979,,1614896895,738816680,"""0""",12.0,0.0,12.3999996185,0.0
1614968922752542018,,104980,,1614896895,788777617,"""0""",12.0,0.0,12.3999996185,0.0
1614968922805151939,,104981,,1614896895,838809388,"""0""",12.0,0.0,12.3999996185,0.0
1614968922880589008,,104982,,1614896895,888771419,"""0""",12.0,0.0,12.3999996185,0.0
1614968922930890083,,104983,,1614896895,938908503,"""0""",12.0,0.0,12.3999996185,0.0
1614968922966808080,,104984,,1614896895,988805847,"""0""",12.0,0.0,12.3999996185,0.0
1614968923005705118,,104985,,1614896896,38868607,"""0""",12.0,0.0,12.3999996185,0.0
1614968923057550907,,104986,,1614896896,88774440,"""0""",12.0,0.0,12.3999996185,0.0
1614968923108481884,,104987,,1614896896,138886836,"""0""",12.0,0.0,12.3999996185,0.0
1614968923157058954,,104988,,1614896896,188769284,"""0""",12.0,0.0,12.3999996185,0.0
1614968923228307008,,104989,,1614896896,238784284,"""0""",12.0,0.0,12.3999996185,0.0
1614968923257308959,,104990,,1614896896,288772305,"""0""",12.0,0.0,12.3999996185,0.0
1614968923304321050,,104991,,1614896896,338800951,"""0""",12.0,0.0,12.3999996185,0.0
1614968923361298084,,104992,,1614896896,388832305,"""0""",12.0,0.0,12.3999996185,0.0
1614968923408237934,,104993,,1614896896,438919648,"""0""",12.0,0.0,12.3999996185,0.0
1614968923473387956,,104994,,1614896896,488762617,"""0""",12.0,0.0,12.3999996185,0.0
1614968923550075054,,104995,,1614896896,538979700,"""0""",12.0,0.0,12.3999996185,0.0
1614968923550338029,,104996,,1614896896,588796315,"""0""",12.0,0.0,12.3999996185,0.0
1614968923603569984,,104997,,1614896896,638868086,"""0""",12.0,0.0,12.3999996185,0.0
1614968923660897970,,104998,,1614896896,688772409,"""0""",12.0,0.0,12.3999996185,0.0
1614968923721658945,,104999,,1614896896,738932877,"""0""",12.0,0.0,12.3999996185,0.0
1614968923779325008,,105000,,1614896896,788776315,"""0""",12.0,0.0,12.3999996185,0.0
1614968923830368995,,105001,,1614896896,838820273,"""0""",12.0,0.0,12.3999996185,0.0
1614968923875796079,,105002,,1614896896,888798763,"""0""",12.0,0.0,12.3999996185,0.0
1614968923921834945,,105003,,1614896896,938808867,"""0""",12.0,0.0,12.3999996185,0.0
1614968923968158006,,105004,,1614896896,988832200,"""0""",12.0,0.0,12.3999996185,0.0
1614968924014398097,,105005,,1614896897,38943034,"""0""",12.0,0.0,12.3999996185,0.0
1614968924079962015,,105006,,1614896897,88762357,"""0""",12.0,0.0,12.3999996185,0.0
1614968924149038076,,105007,,1614896897,138923971,"""0""",12.0,0.0,12.3999996185,0.0
1614968924181839942,,105008,,1614896897,188819961,"""0""",12.0,0.0,12.3999996185,0.0
1614968924220191955,,105009,,1614896897,238931992,"""0""",12.0,0.0,12.3999996185,0.0
1614968924261776924,,105010,,1614896897,288893815,"""0""",12.0,0.0,12.3999996185,0.0
1614968924321697950,,105011,,1614896897,338796002,"""0""",12.0,0.0,12.3999996185,0.0
1614968924381783962,,105012,,1614896897,388795273,"""0""",12.0,0.0,12.3999996185,0.0
1614968924425649881,,105013,,1614896897,438817096,"""0""",12.0,0.0,12.3999996185,0.0
1614968924456254959,,105014,,1614896897,488772877,"""0""",12.0,0.0,12.3999996185,0.0
1614968924510433912,,105015,,1614896897,538796471,"""0""",12.0,0.0,12.3999996185,0.0
1614968924562773942,,105016,,1614896897,588766783,"""0""",12.0,0.0,12.3999996185,0.0
1614968924613413095,,105017,,1614896897,638921575,"""0""",12.0,0.0,12.3999996185,0.0
1614968924666039943,,105018,,1614896897,688821731,"""0""",12.0,0.0,12.3999996185,0.0
1614968924712189912,,105019,,1614896897,738828763,"""0""",12.0,0.0,12.3999996185,0.0
1614968924758869886,,105020,,1614896897,788781523,"""0""",12.0,14.125,12.3999996185,0.0
1614968924826867103,,105021,,1614896897,838812981,"""0""",12.0,9.75,12.3999996185,0.0
1614968924884277105,,105022,,1614896897,888794700,"""0""",12.0,7.625,12.0,0.0
1614968924935851097,,105023,,1614896897,938878762,"""0""",12.0,7.125,12.0,0.0
1614968925016361951,,105024,,1614896897,988803554,"""0""",12.0,7.625,12.0,0.0
1614968925016771078,,105025,,1614896898,38816939,"""0""",12.0,7.875,12.0,0.0
1614968925065490007,,105026,,1614896898,88781106,"""0""",12.0,7.0,11.8999996185,0.0
1614968925150824069,,105027,,1614896898,138818085,"""0""",12.0,4.375,11.8999996185,0.0
1614968925185437917,,105028,,1614896898,188924700,"""0""",12.0,1.75,11.8999996185,0.0
1614968925227128982,,105029,,1614896898,238909335,"""0""",12.0,1.375,12.25,0.0
1614968925297959089,,105030,,1614896898,288813919,"""0""",12.0,0.625,12.25,0.0
1614968925339684963,,105031,,1614896898,338788450,"""0""",12.0,0.375,12.25,0.0
1614968925399761915,,105032,,1614896898,388729179,"""0""",12.0,0.625,12.3500003815,0.0
1614968925434400081,,105033,,1614896898,438803189,"""0""",12.0,0.625,12.3500003815,0.0
1614968925500758886,,105034,,1614896898,488779856,"""0""",12.0,1.0,12.3500003815,0.0
1614968925559469938,,105035,,1614896898,538858450,"""0""",12.0,2.75,12.1000003815,0.0
1614968925559722900,,105036,,1614896898,588760012,"""0""",12.0,4.75,12.1000003815,0.0
1614968925604007959,,105037,,1614896898,638836418,"""0""",12.0,3.375,12.1000003815,0.0
1614968925677360057,,105038,,1614896898,688835325,"""0""",12.0,3.375,12.1000003815,0.0
1614968925731192111,,105039,,1614896898,738821002,"""0""",12.0,6.125,12.1000003815,0.0
1614968925775465011,,105040,,1614896898,788797720,"""0""",12.0,3.375,12.1000003815,0.0
1614968926251859903,,105041,,1614896898,838828866,"""0""",12.0,2.375,12.1000003815,0.0
1614968926251966953,,105042,,1614896898,888784439,"""0""",12.0,2.0,12.1999998093,0.0
1614968926251988887,,105043,,1614896898,938886575,"""0""",12.0,1.375,12.1999998093,0.0
1614968926252007961,,105044,,1614896898,988808814,"""0""",12.0,1.0,12.1999998093,0.0
1614968926252027034,,105045,,1614896899,38903554,"""0""",12.0,0.625,12.3000001907,0.0
1614968926252046108,,105046,,1614896899,88782095,"""0""",12.0,0.375,12.3000001907,0.0
1614968926277715921,,105047,,1614896899,138822981,"""0""",12.0,0.375,12.3000001907,0.0
1614968926277738094,,105048,,1614896899,188823502,"""0""",12.0,0.0,12.3500003815,0.0
1614968926277757883,,105049,,1614896899,238829699,"""0""",12.0,0.0,12.3500003815,0.0
1614968926277777910,,105050,,1614896899,288771314,"""0""",12.0,0.625,12.3500003815,0.0
1614968926342371940,,105051,,1614896899,338901574,"""0""",12.0,0.375,12.3500003815,0.0
1614968926414345026,,105052,,1614896899,388776731,"""0""",12.0,0.625,12.3500003815,0.0
1614968926473589897,,105053,,1614896899,439119751,"""0""",12.0,1.0,12.3500003815,0.0
1614968926473613977,,105054,,1614896899,488769231,"""0""",12.0,1.75,12.25,0.0
1614968926554687976,,105055,,1614896899,538826522,"""0""",12.0,1.375,12.25,0.0
1614968926586085081,,105056,,1614896899,588831522,"""0""",12.0,1.375,12.25,0.0
1614968926619209051,,105057,,1614896899,638869022,"""0""",12.0,2.0,12.25,0.0
1614968926664432048,,105058,,1614896899,688772095,"""0""",12.0,2.0,12.1999998093,0.0
1614968926718246936,,105059,,1614896899,739061783,"""0""",12.0,1.75,12.1999998093,0.0
1614968926774956941,,105060,,1614896899,788868605,"""0""",12.0,1.375,12.1999998093,0.0
1614968926819648027,,105061,,1614896899,838793293,"""0""",12.0,1.75,12.25,0.0
1614968926861156940,,105062,,1614896899,888778605,"""0""",12.0,1.75,12.25,0.0
1614968926908237934,,105063,,1614896899,938829178,"""0""",12.0,2.0,12.25,0.0
1614968926971704006,,105064,,1614896899,988763345,"""0""",12.0,1.375,12.25,0.0
1614968927026056051,,105065,,1614896900,38842460,"""0""",12.0,1.75,12.25,0.0
1614968927088362932,,105066,,1614896900,88829803,"""0""",12.0,3.75,12.25,0.0
1614968927135931968,,105067,,1614896900,138950168,"""0""",12.0,2.75,12.1499996185,0.0
1614968927177361011,,105068,,1614896900,188762095,"""0""",12.0,3.0,12.1499996185,0.0
1614968927222759962,,105069,,1614896900,238997876,"""0""",12.0,2.75,12.1499996185,0.0
1614968927262501001,,105070,,1614896900,288820324,"""0""",12.0,1.75,12.1999998093,0.0
1614968927307091951,,105071,,1614896900,338916001,"""0""",12.0,2.375,12.1999998093,0.0
1614968927381140947,,105072,,1614896900,388772980,"""0""",12.0,3.0,12.1999998093,0.0
1614968927434639930,,105073,,1614896900,438891730,"""0""",12.0,2.375,12.1999998093,0.0
1614968927473848104,,105074,,1614896900,488775845,"""0""",12.0,2.0,12.1999998093,0.0
1614968927517828941,,105075,,1614896900,538802668,"""0""",12.0,1.75,12.1999998093,0.0
1614968927579370021,,105076,,1614896900,588800220,"""0""",12.0,2.375,12.1999998093,0.0
1614968927638062000,,105077,,1614896900,638840584,"""0""",12.0,2.75,12.1499996185,0.0
1614968927702052116,,105078,,1614896900,688829074,"""0""",12.0,2.0,12.1499996185,0.0
1614968927782449007,,105079,,1614896900,738772459,"""0""",12.0,1.75,12.1499996185,0.0
1614968927782666921,,105080,,1614896900,788780845,"""0""",12.0,3.375,12.1499996185,0.0
1614968927840603113,,105081,,1614896900,838802980,"""0""",12.0,3.375,12.1499996185,0.0
1614968927876466035,,105082,,1614896900,888841418,"""0""",12.0,1.75,12.1499996185,0.0
1614968927916819095,,105083,,1614896900,938801001,"""0""",12.0,1.375,12.1999998093,0.0
1614968927987514019,,105084,,1614896900,988767407,"""0""",12.0,1.75,12.1999998093,0.0
1614968928018456935,,105085,,1614896901,38989022,"""0""",12.0,1.75,12.1999998093,0.0
1614968928066402912,,105086,,1614896901,88781261,"""0""",12.0,1.75,12.1999998093,0.0
1614968928103688001,,105087,,1614896901,138805115,"""0""",12.0,2.375,12.1999998093,0.0
1614968928163749933,,105088,,1614896901,188775897,"""0""",12.0,3.75,12.1999998093,0.0
1614968928208448886,,105089,,1614896901,238913240,"""0""",12.0,3.0,12.1999998093,0.0
1614968928274002075,,105090,,1614896901,288766001,"""0""",12.0,2.375,12.1499996185,0.0
1614968928327733993,,105091,,1614896901,338871157,"""0""",12.0,2.0,12.1499996185,0.0
1614968928356718063,,105092,,1614896901,388775792,"""0""",12.0,2.75,12.1499996185,0.0
1614968928417069911,,105093,,1614896901,438789959,"""0""",12.0,3.0,12.1000003815,0.0
1614968928473627090,,105094,,1614896901,488778709,"""0""",12.0,2.75,12.1000003815,0.0
1614968928511243104,,105095,,1614896901,538804074,"""0""",12.0,2.0,12.1000003815,0.0
1614968928576428890,,105096,,1614896901,588768449,"""0""",12.0,1.75,12.1999998093,0.0
1614968928678453922,,105097,,1614896901,638911105,"""0""",12.0,1.375,12.1999998093,0.0
1614968928678591012,,105098,,1614896901,688775219,"""0""",12.0,1.0,12.1999998093,0.0
1614968928726227045,,105099,,1614896901,738998449,"""0""",12.0,1.0,12.25,0.0
1614968928760731935,,105100,,1614896901,788789855,"""0""",12.0,1.0,12.25,0.0
1614968928809853076,,105101,,1614896901,838802094,"""0""",12.0,1.0,12.25,0.0
1614968928873142004,,105102,,1614896901,888836365,"""0""",12.0,1.0,12.25,0.0
1614968928943171024,,105103,,1614896901,938906834,"""0""",12.0,0.625,12.25,0.0
1614968928996844053,,105104,,1614896901,988762094,"""0""",12.0,0.625,12.25,0.0
1614968929033467054,,105105,,1614896902,38850115,"""0""",12.0,1.0,12.25,0.0
1614968929065434932,,105106,,1614896902,88785948,"""0""",12.0,1.375,12.25,0.0
1614968929105997085,,105107,,1614896902,138968813,"""0""",12.0,1.75,12.25,0.0
1614968929159688949,,105108,,1614896902,188873657,"""0""",12.0,1.75,12.25,0.0
1614968929205403089,,105109,,1614896902,238939073,"""0""",12.0,2.75,12.1499996185,0.0
1614968929257819890,,105110,,1614896902,288829282,"""0""",12.0,3.75,12.1499996185,0.0
1614968929303564071,,105111,,1614896902,338865427,"""0""",12.0,2.75,12.1499996185,0.0
1614968929357242107,,105112,,1614896902,388767511,"""0""",12.0,1.75,12.1999998093,0.0
1614968929398493051,,105113,,1614896902,438927771,"""0""",12.0,2.375,12.1999998093,0.0
1614968929466111898,,105114,,1614896902,488832459,"""0""",12.0,1.375,12.1999998093,0.0
1614968929504373073,,105115,,1614896902,538820584,"""0""",12.0,1.0,12.25,0.0
1614968929570785045,,105116,,1614896902,588848865,"""0""",12.0,1.0,12.25,0.0
1614968929618093967,,105117,,1614896902,638797927,"""0""",12.0,1.0,12.25,0.0
1614968929660446882,,105118,,1614896902,688751261,"""0""",12.0,3.375,12.0500001907,0.0
1614968929709136009,,105119,,1614896902,738935792,"""0""",12.0,6.75,12.0500001907,0.0
1614968929761538982,,105120,,1614896902,788775740,"""0""",12.0,4.125,12.0500001907,0.0
1614968929804095983,,105121,,1614896902,838898708,"""0""",12.0,3.75,12.0500001907,0.0
1614968929855236053,,105122,,1614896902,888836261,"""0""",12.0,7.125,12.0,0.0
1614968929908893108,,105123,,1614896902,938949698,"""0""",12.0,6.75,12.0,0.0
1614968930051649093,,105124,,1614896902,988761886,"""0""",12.0,6.75,12.0,0.0
1614968930051764011,,105125,,1614896903,38803552,"""0""",12.0,7.125,11.8999996185,0.0
1614968930051785945,,105126,,1614896903,88808344,"""0""",12.0,6.75,11.8999996185,0.0
1614968930142872095,,105127,,1614896903,138832250,"""0""",12.0,7.25,11.8999996185,0.0
1614968930174366950,,105128,,1614896903,188775844,"""0""",12.0,6.875,12.0,0.0
1614968930236293077,,105129,,1614896903,238926208,"""0""",12.0,7.0,12.0,0.0
1614968930271328926,,105130,,1614896903,288811781,"""0""",12.0,7.125,12.0,0.0
1614968930310703992,,105131,,1614896903,338995531,"""0""",12.0,6.875,12.0,0.0
1614968930365142107,,105132,,1614896903,388781208,"""0""",12.0,7.625,12.0,0.0
1614968930404022932,,105133,,1614896903,438807406,"""0""",12.0,7.125,12.0,0.0
1614968930464253902,,105134,,1614896903,488772094,"""0""",12.0,7.125,11.9499998093,0.0
1614968930510020017,,105135,,1614896903,538782771,"""0""",12.0,7.25,11.9499998093,0.0
1614968930569098949,,105136,,1614896903,588778396,"""0""",12.0,7.125,11.9499998093,0.0
1614968930613955974,,105137,,1614896903,638790271,"""0""",12.0,7.25,11.9499998093,0.0
1614968930666013002,,105138,,1614896903,688819906,"""0""",12.0,7.125,11.8999996185,0.0
1614968930704135894,,105139,,1614896903,738776937,"""0""",12.0,7.125,11.8999996185,0.0
1614968930758558988,,105140,,1614896903,788746937,"""0""",12.0,7.0,11.8999996185,0.0
1614968930799484014,,105141,,1614896903,838793396,"""0""",12.0,6.75,12.0,0.0
1614968930861829042,,105142,,1614896903,888781573,"""0""",12.0,6.875,12.0,0.0
1614968930917458057,,105143,,1614896903,938816573,"""0""",12.0,6.875,12.0,0.0
1614968930976526975,,105144,,1614896903,988799021,"""0""",12.0,7.0,12.0,0.0
1614968931018552064,,105145,,1614896904,38872979,"""0""",12.0,7.125,12.0,0.0
1614968931063659906,,105146,,1614896904,88777927,"""0""",12.0,7.0,12.0,0.0
1614968931107609033,,105147,,1614896904,138758708,"""0""",12.0,6.875,12.0,0.0
1614968931154937982,,105148,,1614896904,188838395,"""0""",12.0,5.75,12.0,0.0
1614968931213951110,,105149,,1614896904,238788656,"""0""",12.0,3.375,12.0,0.0
1614968931269396066,,105150,,1614896904,288792406,"""0""",12.0,4.125,12.0500001907,0.0
1614968931319710969,,105151,,1614896904,338786781,"""0""",12.0,4.75,12.0500001907,0.0
1614968931358366012,,105152,,1614896904,388765791,"""0""",12.0,4.125,12.0500001907,0.0
1614968931401570081,,105153,,1614896904,438788343,"""0""",12.0,2.375,12.0500001907,0.0
1614968931456732988,,105154,,1614896904,488784958,"""0""",12.0,1.375,12.1999998093,0.0
1614968931506977081,,105155,,1614896904,538816104,"""0""",12.0,1.375,12.1999998093,0.0
1614968931581412076,,105156,,1614896904,588782718,"""0""",12.0,1.0,12.1999998093,0.0
1614968931649781942,,105157,,1614896904,638829697,"""0""",12.0,1.0,12.1999998093,0.0
1614968931701622962,,105158,,1614896904,688790114,"""0""",12.0,0.375,12.1999998093,0.0
1614968931752165079,,105159,,1614896904,738782927,"""0""",12.0,0.0,12.1999998093,0.0
1614968931800024032,,105160,,1614896904,788802666,"""0""",12.0,0.375,12.25,0.0
1614968931887300968,,105161,,1614896904,838932197,"""0""",12.0,0.375,12.25,0.0
1614968931887459993,,105162,,1614896904,888790947,"""0""",12.0,0.0,12.25,0.0
1614968931936866998,,105163,,1614896904,938845479,"""0""",12.0,0.375,12.3000001907,0.0
1614968931978882074,,105164,,1614896904,988898760,"""0""",12.0,0.375,12.3000001907,0.0
1614968932018527030,,105165,,1614896905,38781885,"""0""",12.0,0.375,12.3000001907,0.0
1614968932061511993,,105166,,1614896905,88841051,"""0""",12.0,0.625,12.25,0.0
1614968932163681983,,105167,,1614896905,138775843,"""0""",12.0,0.625,12.25,0.0
1614968932163815975,,105168,,1614896905,188789697,"""0""",12.0,2.0,12.25,0.0
1614968932243735074,,105169,,1614896905,238813499,"""0""",12.0,2.0,12.25,0.0
1614968932285478115,,105170,,1614896905,288810687,"""0""",12.0,1.0,12.1999998093,0.0
1614968932330739974,,105171,,1614896905,338867666,"""0""",12.0,0.375,12.1999998093,0.0
1614968932368108034,,105172,,1614896905,388768864,"""0""",12.0,1.0,12.1999998093,0.0
1614968932471566915,,105173,,1614896905,438832822,"""0""",12.0,2.375,12.1499996185,0.0
1614968932471724987,,105174,,1614896905,488815582,"""0""",12.0,3.0,12.1499996185,0.0
1614968932521114110,,105175,,1614896905,538887822,"""0""",12.0,2.375,12.1499996185,0.0
1614968932562407016,,105176,,1614896905,588918968,"""0""",12.0,3.75,12.1000003815,0.0
1614968932614368915,,105177,,1614896905,638902770,"""0""",12.0,4.375,12.1000003815,0.0
1614968932660789966,,105178,,1614896905,688839072,"""0""",12.0,4.375,12.1000003815,0.0
1614968932705354928,,105179,,1614896905,738787093,"""0""",11.0,5.75,12.0,0.0
1614968932784137010,,105180,,1614896905,788828343,"""0""",11.0,6.5,12.0,0.0
1614968932844647884,,105181,,1614896905,838807978,"""0""",11.0,6.125,12.0,0.0
1614968932881669044,,105182,,1614896905,888926520,"""0""",11.0,6.875,11.9499998093,0.0
1614968932932104110,,105183,,1614896905,938769384,"""0""",11.0,7.125,11.9499998093,0.0
1614968933007181882,,105184,,1614896905,988802301,"""0""",11.0,6.75,11.9499998093,0.0
1614968933074862003,,105185,,1614896906,38775478,"""0""",11.0,6.75,11.9499998093,0.0
1614968933074976921,,105186,,1614896906,88807770,"""0""",11.0,6.75,12.0,0.0
1614968933127805948,,105187,,1614896906,138818863,"""0""",11.0,6.875,12.0,0.0
1614968933169979095,,105188,,1614896906,188787561,"""0""",11.0,7.25,12.0,0.0
1614968933220112085,,105189,,1614896906,238773603,"""0""",11.0,7.25,11.8999996185,0.0
1614968933261483907,,105190,,1614896906,288779957,"""0""",11.0,7.25,11.8999996185,0.0
1614968933324023962,,105191,,1614896906,338773186,"""0""",11.0,7.375,11.8999996185,0.0
1614968933397545099,,105192,,1614896906,388798499,"""0""",11.0,7.25,11.9499998093,0.0
1614968933433173894,,105193,,1614896906,438849488,"""0""",11.0,7.25,11.9499998093,0.0
1614968933487922906,,105194,,1614896906,488895009,"""0""",11.0,7.25,11.9499998093,0.0
1614968933538731098,,105195,,1614896906,538812561,"""0""",11.0,7.125,11.9499998093,0.0
1614968933586087942,,105196,,1614896906,588843603,"""0""",11.0,7.125,11.9499998093,0.0
1614968933673975944,,105197,,1614896906,638765009,"""0""",11.0,7.125,11.9499998093,0.0
1614968933674078941,,105198,,1614896906,688798395,"""0""",11.0,7.25,11.8999996185,0.0
1614968933759852886,,105199,,1614896906,738806467,"""0""",11.0,7.125,11.8999996185,0.0
1614968933825557947,,105200,,1614896906,788908030,"""0""",11.0,7.0,11.8999996185,0.0
1614968933825678110,,105201,,1614896906,838833342,"""0""",11.0,7.0,11.8999996185,0.0
1614968933884120941,,105202,,1614896906,888786936,"""0""",11.0,6.875,12.0,0.0
1614968933925108909,,105203,,1614896906,938779436,"""0""",11.0,6.875,12.0,0.0
1614968933983365058,,105204,,1614896906,988777874,"""0""",11.0,7.0,12.0,0.0
1614968934049676895,,105205,,1614896907,38763811,"""0""",11.0,7.0,11.9499998093,0.0
1614968934085490942,,105206,,1614896907,88799488,"""0""",11.0,7.0,11.9499998093,0.0
1614968934117238998,,105207,,1614896907,138796884,"""0""",11.0,7.125,11.9499998093,0.0
1614968934192693948,,105208,,1614896907,188842196,"""0""",11.0,7.125,11.8999996185,0.0
1614968934267740964,,105209,,1614896907,238785842,"""0""",11.0,7.125,11.8999996185,0.0
1614968934267853975,,105210,,1614896907,288784019,"""0""",11.0,7.0,11.8999996185,0.0
1614968934332679986,,105211,,1614896907,338764644,"""0""",11.0,7.0,11.9499998093,0.0
1614968934370266914,,105212,,1614896907,388837457,"""0""",11.0,7.125,11.9499998093,0.0
1614968934434721946,,105213,,1614896907,438815061,"""0""",11.0,7.25,11.9499998093,0.0
1614968934487382888,,105214,,1614896907,488835269,"""0""",12.0,7.0,11.9499998093,0.0
1614968934543246030,,105215,,1614896907,538811988,"""0""",12.0,7.0,11.9499998093,0.0
1614968934589926004,,105216,,1614896907,589085373,"""0""",12.0,7.125,11.9499998093,0.0
1614968934647996902,,105217,,1614896907,638823811,"""0""",12.0,7.0,11.9499998093,0.0
1614968934692759037,,105218,,1614896907,688804280,"""0""",12.0,7.0,11.9499998093,0.0
1614968934727462053,,105219,,1614896907,738766884,"""0""",12.0,7.125,11.9499998093,0.0
1614968934816804885,,105220,,1614896907,789384436,"""0""",12.0,7.125,11.9499998093,0.0
1614968934816927909,,105221,,1614896907,838780634,"""0""",11.0,7.125,11.9499998093,0.0
1614968934874051094,,105222,,1614896907,889093759,"""0""",11.0,7.0,11.9499998093,0.0
1614968934911833047,,105223,,1614896907,939022769,"""0""",11.0,7.125,11.9499998093,0.0
1614968934971337080,,105224,,1614896907,988812196,"""0""",12.0,7.25,11.8999996185,0.0
1614968935014493942,,105225,,1614896908,38816363,"""0""",12.0,7.125,11.8999996185,0.0
1614968935060837030,,105226,,1614896908,88898915,"""0""",12.0,7.125,11.8999996185,0.0
1614968935110249042,,105227,,1614896908,138773238,"""0""",11.0,7.125,11.9499998093,0.0
1614968935185744047,,105228,,1614896908,188838550,"""0""",11.0,7.125,11.9499998093,0.0
1614968935218061923,,105229,,1614896908,238794071,"""0""",11.0,7.25,11.9499998093,0.0
1614968935254839897,,105230,,1614896908,288835529,"""0""",12.0,7.25,11.8999996185,0.0
1614968935308265924,,105231,,1614896908,338774852,"""0""",12.0,7.125,11.8999996185,0.0
1614968935357404947,,105232,,1614896908,388881936,"""0""",12.0,7.375,11.8999996185,0.0
1614968935406285047,,105233,,1614896908,438808863,"""0""",12.0,7.25,11.8999996185,0.0
1614968935465882062,,105234,,1614896908,489245321,"""0""",12.0,7.25,11.8500003815,0.0
1614968935510617017,,105235,,1614896908,538766935,"""0""",12.0,7.125,11.8500003815,0.0
1614968935552155971,,105236,,1614896908,589527717,"""0""",12.0,7.5,11.8500003815,0.0
1614968935608701944,,105237,,1614896908,638739592,"""0""",12.0,7.25,11.8999996185,0.0
1614968935650580883,,105238,,1614896908,688817040,"""0""",12.0,7.375,11.8999996185,0.0
1614968935710818052,,105239,,1614896908,738758654,"""0""",12.0,7.5,11.8999996185,0.0
1614968935796753883,,105240,,1614896908,788794019,"""0""",11.0,7.375,11.8999996185,0.0
1614968935832926988,,105241,,1614896908,838811519,"""0""",11.0,7.125,11.8999996185,0.0
1614968935886106014,,105242,,1614896908,888792717,"""0""",11.0,7.0,11.8999996185,0.0
1614968935923063039,,105243,,1614896908,938820633,"""0""",11.0,7.0,11.8999996185,0.0
1614968935984466075,,105244,,1614896908,988832821,"""0""",11.0,7.0,11.8999996185,0.0
1614968936057710886,,105245,,1614896909,38782925,"""0""",11.0,7.0,11.8999996185,0.0
1614968936094506978,,105246,,1614896909,88829019,"""0""",11.0,7.0,11.8999996185,0.0
1614968936132702112,,105247,,1614896909,138765685,"""0""",11.0,7.0,11.8999996185,0.0
1614968936179286003,,105248,,1614896909,188787091,"""0""",11.0,7.125,11.8999996185,0.0
1614968936212085008,,105249,,1614896909,238763810,"""0""",11.0,7.125,11.8999996185,0.0
1614968936254475116,,105250,,1614896909,288775841,"""0""",12.0,7.0,11.8999996185,0.0
1614968936352339029,,105251,,1614896909,338868446,"""0""",12.0,7.0,11.8999996185,0.0
1614968936375633955,,105252,,1614896909,388780789,"""0""",12.0,7.25,11.8999996185,0.0
1614968936435935020,,105253,,1614896909,438803654,"""0""",11.0,7.125,11.8999996185,0.0
1614968936478522062,,105254,,1614896909,488774904,"""0""",11.0,7.375,11.8999996185,0.0
1614968936541965961,,105255,,1614896909,538782300,"""0""",11.0,7.375,11.8999996185,0.0
1614968936597153902,,105256,,1614896909,588783289,"""0""",11.0,7.25,11.8999996185,0.0
1614968936681843042,,105257,,1614896909,638803185,"""0""",11.0,7.0,11.8999996185,0.0
1614968936681957960,,105258,,1614896909,688806154,"""0""",11.0,7.125,11.8999996185,0.0
1614968936752233982,,105259,,1614896909,738756206,"""0""",11.0,7.125,11.8999996185,0.0
1614968936867557048,,105260,,1614896909,788806414,"""0""",11.0,7.125,11.8999996185,0.0
1614968936867948055,,105261,,1614896909,838799331,"""0""",11.0,7.125,11.8999996185,0.0
1614968936868065118,,105262,,1614896909,888886570,"""0""",11.0,7.0,11.8999996185,0.0
1614968936928448915,,105263,,1614896909,938760477,"""0""",11.0,6.75,11.8999996185,0.0
1614968936979414939,,105264,,1614896909,988777716,"""0""",11.0,6.875,11.8999996185,0.0
1614968937049823045,,105265,,1614896910,38790685,"""0""",11.0,7.0,11.8999996185,0.0
1614968937110203027,,105266,,1614896910,89002404,"""0""",12.0,7.125,11.8999996185,0.0
1614968937153013944,,105267,,1614896910,138825789,"""0""",12.0,7.125,11.8999996185,0.0
1614968937222680091,,105268,,1614896910,188841466,"""0""",12.0,7.125,11.8999996185,0.0
1614968937222909927,,105269,,1614896910,238915737,"""0""",12.0,7.25,11.8500003815,0.0
1614968937284497976,,105270,,1614896910,288776310,"""0""",12.0,7.125,11.8500003815,0.0
1614968937318356990,,105271,,1614896910,338797091,"""0""",12.0,7.25,11.8500003815,0.0
1614968937363038063,,105272,,1614896910,388844695,"""0""",11.0,7.375,11.8500003815,0.0
1614968937410888910,,105273,,1614896910,438835112,"""0""",11.0,7.375,11.8500003815,0.0
1614968937463773965,,105274,,1614896910,488872299,"""0""",11.0,7.25,11.8500003815,0.0
1614968937510642051,,105275,,1614896910,538851258,"""0""",12.0,7.375,11.8999996185,0.0
1614968937576833009,,105276,,1614896910,588937924,"""0""",12.0,7.125,11.8999996185,0.0
1614968937619694948,,105277,,1614896910,638957456,"""0""",12.0,7.0,11.8999996185,0.0
1614968937670947074,,105278,,1614896910,688785945,"""0""",11.0,7.125,11.8999996185,0.0
1614968937725534915,,105279,,1614896910,738793289,"""0""",11.0,7.25,11.8999996185,0.0
1614968937763075113,,105280,,1614896910,788817924,"""0""",11.0,7.125,11.8999996185,0.0
1614968937815251111,,105281,,1614896910,838773966,"""0""",11.0,7.125,11.8999996185,0.0
1614968937896842956,,105282,,1614896910,889003653,"""0""",11.0,7.125,11.8999996185,0.0
1614968937963416099,,105283,,1614896910,938787560,"""0""",11.0,7.25,11.8999996185,0.0
1614968938005492925,,105284,,1614896910,988783862,"""0""",11.0,7.0,11.8999996185,0.0
1614968938051542043,,105285,,1614896911,38837612,"""0""",12.0,6.75,12.0,0.0
1614968938115088939,,105286,,1614896911,88790216,"""0""",12.0,6.875,12.0,0.0
1614968938116192102,,105287,,1614896911,138905268,"""0""",12.0,6.75,12.0,0.0
1614968938184884071,,105288,,1614896911,188829382,"""0""",12.0,4.375,12.0,0.0
1614968938238020896,,105289,,1614896911,238882976,"""0""",12.0,3.375,12.0,0.0
1614968938278794050,,105290,,1614896911,288848914,"""0""",12.0,2.375,12.0,0.0
1614968938318758010,,105291,,1614896911,338821414,"""0""",11.0,1.75,12.1499996185,0.0
1614968938360054016,,105292,,1614896911,388782403,"""0""",11.0,1.0,12.1499996185,0.0
1614968938429075002,,105293,,1614896911,439031674,"""0""",11.0,1.0,12.1499996185,0.0
1614968938491312026,,105294,,1614896911,488876257,"""0""",12.0,0.375,12.25,0.0
1614968938520512104,,105295,,1614896911,538768341,"""0""",12.0,0.375,12.25,0.0
1614968938571314096,,105296,,1614896911,588832038,"""0""",12.0,0.625,12.25,0.0
1614968938627142906,,105297,,1614896911,638845320,"""0""",12.0,0.625,12.25,0.0
1614968938670994997,,105298,,1614896911,688821049,"""0""",12.0,0.625,12.1999998093,0.0
1614968938707211017,,105299,,1614896911,738811466,"""0""",12.0,0.375,12.1999998093,0.0
1614968938799041032,,105300,,1614896911,788835736,"""0""",12.0,0.625,12.1999998093,0.0
1614968938834085941,,105301,,1614896911,838849799,"""0""",11.0,1.0,12.1999998093,0.0
1614968938879092931,,105302,,1614896911,888792872,"""0""",11.0,1.375,12.1999998093,0.0
1614968938948976993,,105303,,1614896911,938921882,"""0""",11.0,1.75,12.1999998093,0.0
1614968938983505010,,105304,,1614896911,988830945,"""0""",12.0,3.375,12.1000003815,0.0
1614968939031017065,,105305,,1614896912,38882403,"""0""",12.0,3.75,12.1000003815,0.0
1614968939074850082,,105306,,1614896912,88864747,"""0""",12.0,2.375,12.1000003815,0.0
1614968939107287883,,105307,,1614896912,138855007,"""0""",11.0,2.375,12.1000003815,0.0
1614968939166220903,,105308,,1614896912,188851674,"""0""",11.0,2.0,12.1000003815,0.0
1614968939212040901,,105309,,1614896912,238850632,"""0""",11.0,1.375,12.1000003815,0.0
1614968939263197898,,105310,,1614896912,288797611,"""0""",12.0,1.0,12.1999998093,0.0
1614968939308253049,,105311,,1614896912,338796153,"""0""",12.0,1.0,12.1999998093,0.0
1614968939375281095,,105312,,1614896912,388815059,"""0""",12.0,1.0,12.1999998093,0.0
1614968939404141902,,105313,,1614896912,440910424,"""0""",12.0,1.75,12.1999998093,0.0
1614968939471010923,,105314,,1614896912,488817090,"""0""",12.0,1.75,12.1000003815,0.0
1614968939515692949,,105315,,1614896912,538903288,"""0""",12.0,1.375,12.1000003815,0.0
1614968939563795089,,105316,,1614896912,588860580,"""0""",12.0,1.0,12.1000003815,0.0
1614968939614852905,,105317,,1614896912,639039955,"""0""",12.0,1.0,12.1999998093,0.0
1614968939660353899,,105318,,1614896912,688771934,"""0""",12.0,1.375,12.1999998093,0.0
1614968939711050987,,105319,,1614896912,738781569,"""0""",12.0,1.75,12.1999998093,0.0
1614968939768212080,,105320,,1614896912,788782819,"""0""",11.0,1.75,12.1499996185,0.0
1614968939816596984,,105321,,1614896912,838902923,"""0""",11.0,1.0,12.1499996185,0.0
1614968939868727922,,105322,,1614896912,888772298,"""0""",11.0,1.75,12.1499996185,0.0
1614968939911137104,,105323,,1614896912,938800371,"""0""",12.0,2.375,12.1000003815,0.0
1614968939969877004,,105324,,1614896912,988782975,"""0""",12.0,1.375,12.1000003815,0.0
1614968940013942003,,105325,,1614896913,38804434,"""0""",12.0,1.0,12.1000003815,0.0
1614968940099507093,,105326,,1614896913,88767715,"""0""",11.0,1.75,12.1000003815,0.0
1614968940147739887,,105327,,1614896913,138820580,"""0""",11.0,1.75,12.1000003815,0.0
1614968940183502912,,105328,,1614896913,188780371,"""0""",11.0,1.0,12.1000003815,0.0
1614968940282918930,,105329,,1614896913,238850007,"""0""",11.0,1.75,12.1000003815,0.0
1614968940283340930,,105330,,1614896913,288796048,"""0""",11.0,2.375,12.0500001907,0.0
1614968940333698034,,105331,,1614896913,338814225,"""0""",11.0,2.0,12.0500001907,0.0
1614968940371694087,,105332,,1614896913,388847298,"""0""",11.0,2.375,12.0500001907,0.0
1614968940409962892,,105333,,1614896913,438816048,"""0""",12.0,2.375,12.1000003815,0.0
1614968940460192918,,105334,,1614896913,488781621,"""0""",12.0,1.75,12.1000003815,0.0
1614968940580848932,,105335,,1614896913,538890215,"""0""",12.0,2.0,12.1000003815,0.0
1614968940581013917,,105336,,1614896913,588791152,"""0""",11.0,3.375,12.0500001907,0.0
1614968940626319885,,105337,,1614896913,638881517,"""0""",11.0,3.0,12.0500001907,0.0
1614968940684108972,,105338,,1614896913,688767923,"""0""",11.0,1.0,12.0500001907,0.0
1614968940722734928,,105339,,1614896913,738876725,"""0""",12.0,1.375,12.1499996185,0.0
1614968940868947982,,105340,,1614896913,788786361,"""0""",12.0,2.0,12.1499996185,0.0
1614968940925973892,,105341,,1614896913,838797871,"""0""",12.0,1.75,12.1499996185,0.0
1614968940926076889,,105342,,1614896913,888846777,"""0""",12.0,1.75,12.1499996185,0.0
1614968940926101922,,105343,,1614896913,938899173,"""0""",12.0,2.375,12.1499996185,0.0
1614968940992670059,,105344,,1614896913,988794173,"""0""",12.0,1.375,12.1499996185,0.0
1614968941036207914,,105345,,1614896914,38863392,"""0""",12.0,1.375,12.1499996185,0.0
1614968941101250886,,105346,,1614896914,88779590,"""0""",12.0,1.375,12.1499996185,0.0
1614968941153767108,,105347,,1614896914,138796204,"""0""",12.0,2.375,12.1499996185,0.0
1614968941218596935,,105348,,1614896914,188870319,"""0""",12.0,6.75,12.1499996185,0.0
1614968941267927885,,105349,,1614896914,238889225,"""0""",11.0,6.5,12.0,0.0
1614968941343276023,,105350,,1614896914,288825319,"""0""",11.0,5.75,12.0,0.0
1614968941343408107,,105351,,1614896914,338774642,"""0""",11.0,6.875,12.0,0.0
1614968941384864091,,105352,,1614896914,388790371,"""0""",11.0,7.0,11.8999996185,0.0
1614968941432339906,,105353,,1614896914,438837767,"""0""",11.0,6.875,11.8999996185,0.0
1614968941510543107,,105354,,1614896914,488773444,"""0""",11.0,7.5,11.8999996185,0.0
1614968941549556016,,105355,,1614896914,538791517,"""0""",11.0,7.75,11.8000001907,0.0
1614968941587208032,,105356,,1614896914,588810162,"""0""",11.0,7.5,11.8000001907,0.0
1614968941649969100,,105357,,1614896914,638852714,"""0""",11.0,7.375,11.8000001907,0.0
1614968941705527067,,105358,,1614896914,688762610,"""0""",11.0,7.25,11.8999996185,0.0
1614968941790899038,,105359,,1614896914,738781256,"""0""",11.0,7.5,11.8999996185,0.0
1614968941791012048,,105360,,1614896914,788779225,"""0""",11.0,7.5,11.8999996185,0.0
1614968941856625080,,105361,,1614896914,838799173,"""0""",11.0,7.25,11.8999996185,0.0
1614968941940303087,,105362,,1614896914,888790735,"""0""",11.0,7.375,11.8500003815,0.0
1614968941940411090,,105363,,1614896914,938915006,"""0""",11.0,7.625,11.8500003815,0.0
1614968941991050958,,105364,,1614896914,988774016,"""0""",11.0,7.75,11.8500003815,0.0
1614968942081597089,,105365,,1614896915,38801308,"""0""",12.0,7.5,11.8500003815,0.0
1614968942081707954,,105366,,1614896915,88753600,"""0""",12.0,7.5,11.8500003815,0.0
1614968942137676954,,105367,,1614896915,138811100,"""0""",12.0,7.625,11.8500003815,0.0
1614968942172141075,,105368,,1614896915,188772454,"""0""",12.0,7.25,11.8999996185,0.0
1614968942213658094,,105369,,1614896915,238796725,"""0""",12.0,6.75,11.8999996185,0.0
1614968942263056039,,105370,,1614896915,288794329,"""0""",12.0,2.0,11.8999996185,0.0
1614968942306509971,,105371,,1614896915,338796985,"""0""",12.0,5.75,11.9499998093,0.0
1614968942359524965,,105372,,1614896915,388800475,"""0""",12.0,16.625,11.9499998093,0.0
1614968942413569927,,105373,,1614896915,438835475,"""0""",12.0,11.25,11.9499998093,0.0
1614968942467690944,,105374,,1614896915,488782610,"""0""",11.0,2.375,12.1000003815,0.0
1614968942519608974,,105375,,1614896915,538795110,"""0""",11.0,1.375,12.1000003815,0.0
1614968942569267034,,105376,,1614896915,588776412,"""0""",11.0,0.375,12.1000003815,0.0
1614968942610960006,,105377,,1614896915,638843339,"""0""",11.0,0.0,12.1000003815,0.0
1614968942674206018,,105378,,1614896915,688804693,"""0""",11.0,0.375,12.25,0.0
1614968942710879087,,105379,,1614896915,738815214,"""0""",11.0,0.375,12.25,0.0
1614968942768826961,,105380,,1614896915,788779276,"""0""",11.0,0.0,12.25,0.0
1614968942847155094,,105381,,1614896915,838785579,"""0""",12.0,0.0,12.3000001907,0.0
1614968942885560989,,105382,,1614896915,888810370,"""0""",12.0,0.0,12.3000001907,0.0
1614968942971196889,,105383,,1614896915,938789849,"""0""",12.0,0.0,12.3000001907,0.0
1614968942971482992,,105384,,1614896915,988786203,"""0""",12.0,0.0,12.3500003815,0.0
1614968943028296947,,105385,,1614896916,38918912,"""0""",12.0,0.0,12.3500003815,0.0
1614968943087210893,,105386,,1614896916,88786620,"""0""",12.0,0.0,12.3500003815,0.0
1614968943161098957,,105387,,1614896916,138791464,"""0""",12.0,0.0,12.3000001907,0.0
1614968943206706047,,105388,,1614896916,188885370,"""0""",12.0,0.0,12.3000001907,0.0
1614968943259782075,,105389,,1614896916,238782297,"""0""",12.0,0.0,12.3000001907,0.0
1614968943314312934,,105390,,1614896916,288805839,"""0""",12.0,0.375,12.25,0.0
1614968943390772104,,105391,,1614896916,338882662,"""0""",12.0,0.375,12.25,0.0
1614968943390886068,,105392,,1614896916,388781307,"""0""",12.0,0.375,12.25,0.0
1614968943457940101,,105393,,1614896916,438777766,"""0""",12.0,0.0,12.25,0.0
1614968943507081985,,105394,,1614896916,488779276,"""0""",12.0,0.625,12.25,0.0
1614968943590425968,,105395,,1614896916,538793130,"""0""",12.0,0.625,12.25,0.0
1614968943590475082,,105396,,1614896916,588791255,"""0""",12.0,1.0,12.25,0.0
1614968943641601085,,105397,,1614896916,638768234,"""0""",11.0,1.375,12.1499996185,0.0
1614968943720961093,,105398,,1614896916,689027401,"""0""",11.0,3.0,12.1499996185,0.0
1614968943784296035,,105399,,1614896916,738782818,"""0""",11.0,2.75,12.1499996185,0.0
1614968943784454107,,105400,,1614896916,788945682,"""0""",12.0,1.75,12.1999998093,0.0
1614968943828700065,,105401,,1614896916,838908026,"""0""",12.0,2.0,12.1999998093,0.0
1614968943897432088,,105402,,1614896916,888798964,"""0""",12.0,2.375,12.1999998093,0.0
1614968943975131988,,105403,,1614896916,938786672,"""0""",11.0,2.375,12.1000003815,0.0
1614968943975272893,,105404,,1614896916,988847557,"""0""",11.0,3.0,12.1000003815,0.0
1614968944032258987,,105405,,1614896917,38775057,"""0""",11.0,2.375,12.1000003815,0.0
1614968944068510055,,105406,,1614896917,88793234,"""0""",11.0,3.375,12.0500001907,0.0
1614968944113843917,,105407,,1614896917,138790318,"""0""",11.0,4.75,12.0500001907,0.0
1614968944157656908,,105408,,1614896917,188806359,"""0""",11.0,4.75,12.0500001907,0.0
1614968944206434011,,105409,,1614896917,238777766,"""0""",11.0,6.125,12.0500001907,0.0
1614968944257822990,,105410,,1614896917,288848078,"""0""",11.0,7.0,11.9499998093,0.0
1614968944309170007,,105411,,1614896917,338789640,"""0""",11.0,7.125,11.9499998093,0.0
1614968944370975971,,105412,,1614896917,388812818,"""0""",11.0,7.375,11.9499998093,0.0
1614968944409866094,,105413,,1614896917,438795109,"""0""",12.0,7.5,11.8500003815,0.0
1614968944480802059,,105414,,1614896917,488804849,"""0""",12.0,7.625,11.8500003815,0.0
1614968944538702964,,105415,,1614896917,538746099,"""0""",12.0,7.625,11.8500003815,0.0
1614968944601632118,,105416,,1614896917,588813182,"""0""",11.0,7.75,11.8000001907,0.0
1614968944642570018,,105417,,1614896917,638923755,"""0""",11.0,7.875,11.8000001907,0.0
1614968944680134057,,105418,,1614896917,688781307,"""0""",11.0,8.0,11.8000001907,0.0
1614968944720175027,,105419,,1614896917,738785161,"""0""",11.0,8.0,11.75,0.0
1614968944791474103,,105420,,1614896917,788841776,"""0""",11.0,8.0,11.75,0.0
1614968944865051031,,105421,,1614896917,838782661,"""0""",11.0,8.0,11.75,0.0
1614968944916203975,,105422,,1614896917,888792713,"""0""",11.0,8.0,11.8000001907,0.0
1614968944968703985,,105423,,1614896917,938943390,"""0""",11.0,8.125,11.8000001907,0.0
1614968944968822956,,105424,,1614896917,988855682,"""0""",11.0,8.125,11.8000001907,0.0
1614968945015769004,,105425,,1614896918,38772088,"""0""",11.0,8.25,11.8000001907,0.0
1614968945077142000,,105426,,1614896918,88788390,"""0""",11.0,8.375,11.6999998093,0.0
1614968945115111112,,105427,,1614896918,138771411,"""0""",11.0,8.25,11.6999998093,0.0
1614968945179496049,,105428,,1614896918,188894171,"""0""",11.0,8.375,11.6999998093,0.0
1614968945220932006,,105429,,1614896918,238750317,"""0""",11.0,8.625,11.6999998093,0.0
1614968945260481119,,105430,,1614896918,288825473,"""0""",11.0,8.625,11.6999998093,0.0
1614968945315011024,,105431,,1614896918,338786151,"""0""",11.0,8.75,11.6999998093,0.0
1614968945367614030,,105432,,1614896918,388900005,"""0""",11.0,8.625,11.6999998093,0.0
1614968945415033102,,105433,,1614896918,438770630,"""0""",11.0,8.625,11.6999998093,0.0
1614968945464570999,,105434,,1614896918,488840630,"""0""",11.0,8.625,11.6999998093,0.0
1614968945516753911,,105435,,1614896918,538792036,"""0""",11.0,9.0,11.8000001907,0.0
1614968945558957099,,105436,,1614896918,588863598,"""0""",11.0,8.75,11.8000001907,0.0
1614968945632038116,,105437,,1614896918,638837661,"""0""",11.0,8.75,11.8000001907,0.0
1614968945666834115,,105438,,1614896918,688781671,"""0""",11.0,8.625,11.75,0.0
1614968945717485904,,105439,,1614896918,738810942,"""0""",11.0,8.5,11.75,0.0
1614968945770858049,,105440,,1614896918,788835369,"""0""",11.0,8.625,11.75,0.0
1614968945816498994,,105441,,1614896918,838901827,"""0""",11.0,8.625,11.75,0.0
1614968945855530023,,105442,,1614896918,888785942,"""0""",11.0,8.75,11.75,0.0
1614968945922023057,,105443,,1614896918,938790161,"""0""",11.0,8.625,11.75,0.0
1614968945968831062,,105444,,1614896918,988774327,"""0""",11.0,8.75,11.75,0.0
1614968946010569095,,105445,,1614896919,38782713,"""0""",11.0,8.75,11.6999998093,0.0
1614968946069957971,,105446,,1614896919,88883025,"""0""",11.0,9.125,11.6999998093,0.0
1614968946133727073,,105447,,1614896919,138878598,"""0""",11.0,9.125,11.6999998093,0.0
1614968946201713085,,105448,,1614896919,188845734,"""0""",12.0,9.0,11.6999998093,0.0
1614968946286048889,,105449,,1614896919,238816723,"""0""",12.0,9.0,11.6999998093,0.0
1614968946286346912,,105450,,1614896919,289150056,"""0""",12.0,9.0,11.6999998093,0.0
1614968946344141006,,105451,,1614896919,338864119,"""0""",11.0,9.0,11.75,0.0
1614968946386085033,,105452,,1614896919,389211723,"""0""",11.0,9.25,11.75,0.0
1614968946453684091,,105453,,1614896919,438771150,"""0""",11.0,9.0,11.75,0.0
1614968946510384082,,105454,,1614896919,488815473,"""0""",11.0,8.75,11.75,0.0
1614968946574337005,,105455,,1614896919,538811931,"""0""",11.0,8.75,11.75,0.0
1614968946574470996,,105456,,1614896919,589382452,"""0""",11.0,8.875,11.75,0.0
1614968946627481937,,105457,,1614896919,638798494,"""0""",11.0,8.75,11.75,0.0
1614968946680289983,,105458,,1614896919,689447140,"""0""",11.0,9.0,11.6999998093,0.0
1614968946725192070,,105459,,1614896919,738832087,"""0""",11.0,9.0,11.6999998093,0.0
1614968946764003038,,105460,,1614896919,788929587,"""0""",11.0,9.0,11.6999998093,0.0
1614968946817199945,,105461,,1614896919,838765577,"""0""",11.0,9.0,11.6499996185,0.0
1614968946876302957,,105462,,1614896919,889090733,"""0""",11.0,9.0,11.6499996185,0.0
1614968946956273078,,105463,,1614896919,938787192,"""0""",11.0,9.125,11.6499996185,0.0
1614968946991147994,,105464,,1614896919,988878389,"""0""",12.0,9.25,11.6499996185,0.0
1614968947076313018,,105465,,1614896920,38836098,"""0""",12.0,9.25,11.6499996185,0.0
1614968947076419115,,105466,,1614896920,88872869,"""0""",12.0,9.125,11.6499996185,0.0
1614968947136306047,,105467,,1614896920,138843650,"""0""",11.0,9.125,11.6999998093,0.0
1614968947180385112,,105468,,1614896920,188911514,"""0""",11.0,9.25,11.6999998093,0.0
1614968947247895956,,105469,,1614896920,238927556,"""0""",11.0,9.375,11.6999998093,0.0
1614968947299737930,,105470,,1614896920,288840941,"""0""",11.0,9.25,11.6499996185,0.0
1614968947338052988,,105471,,1614896920,338780941,"""0""",11.0,9.125,11.6499996185,0.0
1614968947397464036,,105472,,1614896920,388863285,"""0""",11.0,9.0,11.6499996185,0.0
1614968947451783895,,105473,,1614896920,438769275,"""0""",11.0,9.0,11.6499996185,0.0
1614968947562084913,,105474,,1614896920,488943337,"""0""",11.0,9.25,11.5500001907,0.0
1614968947562272071,,105475,,1614896920,538778493,"""0""",11.0,9.25,11.5500001907,0.0
1614968947596715927,,105476,,1614896920,588864066,"""0""",11.0,9.25,11.5500001907,0.0
1614968947648441076,,105477,,1614896920,638796879,"""0""",11.0,9.25,11.6499996185,0.0
1614968947677603006,,105478,,1614896920,688766202,"""0""",11.0,9.375,11.6499996185,0.0
1614968947782812118,,105479,,1614896920,738939431,"""0""",11.0,9.25,11.6499996185,0.0
1614968947782955884,,105480,,1614896920,788852347,"""0""",11.0,9.625,11.6000003815,0.0
1614968947828855037,,105481,,1614896920,838803493,"""0""",11.0,9.75,11.6000003815,0.0
1614968947871107101,,105482,,1614896920,888746514,"""0""",11.0,9.75,11.6000003815,0.0
1614968947907648086,,105483,,1614896920,938884535,"""0""",11.0,9.625,11.6000003815,0.0
1614968947964376926,,105484,,1614896920,988796306,"""0""",11.0,9.625,11.6000003815,0.0
1614968948012084960,,105485,,1614896921,38774431,"""0""",11.0,9.75,11.6000003815,0.0
1614968948072802066,,105486,,1614896921,88788337,"""0""",11.0,10.0,11.6000003815,0.0
1614968948121746063,,105487,,1614896921,138829743,"""0""",11.0,9.875,11.6000003815,0.0
1614968948164997100,,105488,,1614896921,188822451,"""0""",11.0,9.625,11.6000003815,0.0
1614968948227705955,,105489,,1614896921,238740472,"""0""",11.0,9.625,11.6000003815,0.0
1614968948269965887,,105490,,1614896921,288848181,"""0""",11.0,9.625,11.6499996185,0.0
1614968948347748041,,105491,,1614896921,338827295,"""0""",11.0,9.625,11.6499996185,0.0
1614968948395410060,,105492,,1614896921,388882087,"""0""",11.0,9.625,11.6499996185,0.0
1614968948433847904,,105493,,1614896921,438819274,"""0""",11.0,9.625,11.6000003815,0.0
1614968948472621917,,105494,,1614896921,488754847,"""0""",11.0,9.625,11.6000003815,0.0
1614968948519936084,,105495,,1614896921,538822972,"""0""",11.0,9.625,11.6000003815,0.0
1614968948562747955,,105496,,1614896921,588825003,"""0""",11.0,9.5,11.6000003815,0.0
1614968948614603042,,105497,,1614896921,638759014,"""0""",11.0,9.625,11.6000003815,0.0
1614968948680376052,,105498,,1614896921,688798389,"""0""",11.0,9.875,11.6000003815,0.0
1614968948778115034,,105499,,1614896921,738854743,"""0""",11.0,10.0,11.6000003815,0.0
1614968948778311967,,105500,,1614896921,788790785,"""0""",11.0,9.75,11.6000003815,0.0
1614968948819833993,,105501,,1614896921,838775628,"""0""",11.0,9.5,11.6000003815,0.0
1614968948877080917,,105502,,1614896921,888818232,"""0""",11.0,9.625,11.6499996185,0.0
1614968948913994073,,105503,,1614896921,938795680,"""0""",11.0,9.625,11.6499996185,0.0
1614968948967719078,,105504,,1614896921,988789639,"""0""",11.0,9.375,11.6499996185,0.0
1614968949005192041,,105505,,1614896922,38785732,"""0""",11.0,9.25,11.6499996185,0.0
1614968949057924985,,105506,,1614896922,88797451,"""0""",11.0,9.125,11.6000003815,0.0
1614968949112453937,,105507,,1614896922,138809274,"""0""",11.0,9.0,11.6000003815,0.0
1614968949156574964,,105508,,1614896922,188844430,"""0""",11.0,9.125,11.6000003815,0.0
1614968949213956117,,105509,,1614896922,238787399,"""0""",11.0,9.125,11.6499996185,0.0
1614968949275522947,,105510,,1614896922,288787086,"""0""",11.0,9.125,11.6499996185,0.0
1614968949325398921,,105511,,1614896922,338822139,"""0""",11.0,9.25,11.6499996185,0.0
1614968949367546081,,105512,,1614896922,388786722,"""0""",11.0,9.125,11.6000003815,0.0
1614968949416465997,,105513,,1614896922,438778441,"""0""",11.0,9.125,11.6000003815,0.0
1614968949471859931,,105514,,1614896922,488920003,"""0""",11.0,9.25,11.6000003815,0.0
1614968949514779090,,105515,,1614896922,538835732,"""0""",11.0,9.375,11.6999998093,0.0
1614968949584578990,,105516,,1614896922,588824638,"""0""",11.0,9.375,11.6999998093,0.0
1614968949694013118,,105517,,1614896922,638808857,"""0""",11.0,9.25,11.6999998093,0.0
1614968949694462060,,105518,,1614896922,688875055,"""0""",11.0,9.125,11.6000003815,0.0
1614968949731620073,,105519,,1614896922,738769013,"""0""",11.0,9.125,11.6000003815,0.0
1614968949768055915,,105520,,1614896922,788908545,"""0""",11.0,9.125,11.6000003815,0.0
1614968949865048885,,105521,,1614896922,838767399,"""0""",11.0,9.125,11.6000003815,0.0
1614968949865158081,,105522,,1614896922,888749013,"""0""",11.0,8.75,11.6499996185,0.0
1614968949910401105,,105523,,1614896922,938790940,"""0""",11.0,8.625,11.6499996185,0.0
1614968949959626913,,105524,,1614896922,988803232,"""0""",11.0,8.5,11.6499996185,0.0
1614968950010107994,,105525,,1614896923,38886982,"""0""",11.0,8.375,11.6499996185,0.0
1614968950178030014,,105526,,1614896923,88840992,"""0""",11.0,8.375,11.6499996185,0.0
1614968950178244113,,105527,,1614896923,138852763,"""0""",11.0,8.25,11.6499996185,0.0
1614968950178262948,,105528,,1614896923,188787711,"""0""",11.0,8.0,11.6999998093,0.0
1614968950218291044,,105529,,1614896923,238797347,"""0""",11.0,8.0,11.6999998093,0.0
1614968950297010898,,105530,,1614896923,288785940,"""0""",11.0,7.875,11.6999998093,0.0
1614968950339818954,,105531,,1614896923,338865107,"""0""",11.0,7.875,11.6999998093,0.0
1614968950375098943,,105532,,1614896923,388914221,"""0""",11.0,7.75,11.6999998093,0.0
1614968950474817037,,105533,,1614896923,438878284,"""0""",11.0,7.75,11.6999998093,0.0
1614968950474874973,,105534,,1614896923,488815784,"""0""",11.0,7.5,11.8500003815,0.0
1614968950514375925,,105535,,1614896923,538782763,"""0""",11.0,7.25,11.8500003815,0.0
1614968950564714908,,105536,,1614896923,588804326,"""0""",11.0,7.125,11.8500003815,0.0
1614968950624614953,,105537,,1614896923,638869794,"""0""",11.0,7.0,11.8500003815,0.0
1614968950684125900,,105538,,1614896923,688874326,"""0""",11.0,6.5,11.8999996185,0.0
1614968950755331039,,105539,,1614896923,738811878,"""0""",11.0,4.75,11.8999996185,0.0
1614968950833457946,,105540,,1614896923,788782034,"""0""",11.0,3.375,11.8999996185,0.0
1614968950833564043,,105541,,1614896923,838871982,"""0""",11.0,2.375,12.0500001907,0.0
1614968950870007991,,105542,,1614896923,888930159,"""0""",11.0,1.75,12.0500001907,0.0
1614968950910976886,,105543,,1614896923,938781565,"""0""",11.0,1.75,12.0500001907,0.0
1614968950955032110,,105544,,1614896923,988860003,"""0""",11.0,2.0,12.0500001907,0.0
1614968951018830060,,105545,,1614896924,38790680,"""0""",11.0,2.375,12.0500001907,0.0
1614968951071661949,,105546,,1614896924,88779065,"""0""",11.0,1.375,12.0500001907,0.0
1614968951111645936,,105547,,1614896924,138799950,"""0""",11.0,1.0,12.1000003815,0.0
1614968951164725065,,105548,,1614896924,188747659,"""0""",11.0,1.0,12.1000003815,0.0
1614968951209686040,,105549,,1614896924,238798805,"""0""",11.0,1.0,12.1000003815,0.0
1614968951260302066,,105550,,1614896924,288798284,"""0""",11.0,1.0,12.1000003815,0.0
1614968951312365055,,105551,,1614896924,338804065,"""0""",11.0,1.375,12.1000003815,0.0
1614968951381762981,,105552,,1614896924,388750523,"""0""",11.0,1.75,12.1000003815,0.0
1614968951427778959,,105553,,1614896924,438877034,"""0""",11.0,1.375,12.1000003815,0.0
1614968951470355033,,105554,,1614896924,488775627,"""0""",12.0,1.375,12.1000003815,0.0
1614968951517472982,,105555,,1614896924,538818023,"""0""",12.0,1.75,12.1000003815,0.0
1614968951578715085,,105556,,1614896924,588770784,"""0""",12.0,1.375,12.1000003815,0.0
1614968951639897108,,105557,,1614896924,638804534,"""0""",12.0,2.0,12.0500001907,0.0
1614968951676938056,,105558,,1614896924,688806617,"""0""",12.0,2.75,12.0500001907,0.0
1614968951716005086,,105559,,1614896924,738882398,"""0""",12.0,1.75,12.0500001907,0.0
1614968951762603998,,105560,,1614896924,788916617,"""0""",12.0,0.125,12.1999998093,0.0
1614968951807334899,,105561,,1614896924,838799117,"""0""",12.0,0.0,12.1999998093,0.0
1614968951861850976,,105562,,1614896924,888768075,"""0""",12.0,0.0,12.1999998093,0.0
1614968951921499013,,105563,,1614896924,938867502,"""0""",12.0,0.0,12.25,0.0
1614968951974683046,,105564,,1614896924,988777346,"""0""",12.0,0.0,12.25,0.0
1614968952044739007,,105565,,1614896925,38805263,"""0""",12.0,0.0,12.25,0.0
1614968952082812070,,105566,,1614896925,88789169,"""0""",12.0,0.0,12.25,0.0
1614968952122792959,,105567,,1614896925,138775210,"""0""",12.0,0.0,12.25,0.0
1614968952161508083,,105568,,1614896925,188762554,"""0""",12.0,0.0,12.25,0.0
1614968952246206045,,105569,,1614896925,238904169,"""0""",12.0,0.0,12.25,0.0
1614968952309756994,,105570,,1614896925,288849273,"""0""",12.0,0.0,12.25,0.0
1614968952357444047,,105571,,1614896925,338810262,"""0""",12.0,0.0,12.25,0.0
1614968952401241064,,105572,,1614896925,388847398,"""0""",12.0,0.0,12.25,0.0
1614968952441713094,,105573,,1614896925,438801200,"""0""",12.0,0.0,12.25,0.0
1614968952491275072,,105574,,1614896925,488766877,"""0""",12.0,0.0,12.25,0.0
1614968952566550016,,105575,,1614896925,538810106,"""0""",12.0,0.0,12.25,0.0
1614968952610800981,,105576,,1614896925,588799273,"""0""",12.0,0.0,12.25,0.0
1614968952648343086,,105577,,1614896925,638863439,"""0""",12.0,0.0,12.25,0.0
1614968952693636894,,105578,,1614896925,688904221,"""0""",12.0,0.0,12.25,0.0
1614968952742435932,,105579,,1614896925,738874794,"""0""",12.0,0.0,12.25,0.0
1614968952808897972,,105580,,1614896925,788821148,"""0""",12.0,0.0,12.25,0.0
1614968952876450061,,105581,,1614896925,838809064,"""0""",12.0,0.0,12.25,0.0
1614968952876569032,,105582,,1614896925,888771877,"""0""",12.0,0.0,12.25,0.0
1614968953005597114,,105583,,1614896925,938840835,"""0""",12.0,0.0,12.25,0.0
1614968953005713939,,105584,,1614896925,988759168,"""0""",12.0,0.0,12.25,0.0
1614968953050276994,,105585,,1614896926,38847710,"""0""",12.0,0.0,12.25,0.0
1614968953092942953,,105586,,1614896926,88836252,"""0""",12.0,0.0,12.3000001907,0.0
1614968953182976007,,105587,,1614896926,138882918,"""0""",12.0,0.0,12.3000001907,0.0
