rosbagTimestamp,header,seq,stamp,secs,nsecs,frame_id,Temperature,OutputCurrent,BusVoltage,ClosedLoopError
1614968729927166938,,101124,,1614896702,988800712,"""0""",12.0,0.0,12.3999996185,0.0
1614968729993593931,,101125,,1614896703,38783941,"""0""",12.0,0.0,12.3999996185,0.0
1614968730035576105,,101126,,1614896703,88781441,"""0""",12.0,0.0,12.3999996185,0.0
1614968730092525005,,101127,,1614896703,138784983,"""0""",12.0,0.0,12.3999996185,0.0
1614968730132100105,,101128,,1614896703,188987222,"""0""",13.0,0.0,12.3999996185,0.0
1614968730185291051,,101129,,1614896703,238768733,"""0""",13.0,0.0,12.3999996185,0.0
1614968730232229948,,101130,,1614896703,288785920,"""0""",13.0,0.0,12.3999996185,0.0
1614968730289819955,,101131,,1614896703,339308160,"""0""",12.0,0.0,12.3999996185,0.0
1614968730336304903,,101132,,1614896703,388814201,"""0""",12.0,0.0,12.3999996185,0.0
1614968730391328096,,101133,,1614896703,438927691,"""0""",12.0,0.0,12.3999996185,0.0
1614968730437275886,,101134,,1614896703,488787326,"""0""",12.0,0.0,12.3999996185,0.0
1614968730488337993,,101135,,1614896703,538854930,"""0""",13.0,0.0,12.3999996185,0.0
1614968730539797067,,101136,,1614896703,588967326,"""0""",13.0,0.0,12.3999996185,0.0
1614968730589787960,,101137,,1614896703,638737014,"""0""",13.0,0.0,12.3999996185,0.0
1614968730637779951,,101138,,1614896703,688821701,"""0""",13.0,0.0,12.3999996185,0.0
1614968730697218894,,101139,,1614896703,738775191,"""0""",13.0,0.0,12.3999996185,0.0
1614968730739686965,,101140,,1614896703,788868264,"""0""",13.0,0.0,12.3999996185,0.0
1614968730784354925,,101141,,1614896703,838768993,"""0""",12.0,0.0,12.3999996185,0.0
1614968730840110063,,101142,,1614896703,888867795,"""0""",12.0,0.0,12.3999996185,0.0
1614968730889636039,,101143,,1614896703,938756805,"""0""",12.0,0.0,12.3999996185,0.0
1614968730945635080,,101144,,1614896703,988827326,"""0""",12.0,0.0,12.3999996185,0.0
1614968730995202064,,101145,,1614896704,38819878,"""0""",12.0,0.0,12.3999996185,0.0
1614968731045752048,,101146,,1614896704,88851909,"""0""",12.0,0.0,12.3999996185,0.0
1614968731095616102,,101147,,1614896704,138744461,"""0""",12.0,0.0,12.3999996185,0.0
1614968731141166925,,101148,,1614896704,188803732,"""0""",12.0,0.0,12.3999996185,0.0
1614968731190771102,,101149,,1614896704,238774305,"""0""",12.0,0.0,12.3999996185,0.0
1614968731247340917,,101150,,1614896704,289041388,"""0""",12.0,0.0,12.3999996185,0.0
1614968731296219110,,101151,,1614896704,338819774,"""0""",12.0,0.0,12.3999996185,0.0
1614968731349109888,,101152,,1614896704,388864774,"""0""",12.0,0.0,12.3999996185,0.0
1614968731392474889,,101153,,1614896704,438868420,"""0""",12.0,0.0,12.3999996185,0.0
1614968731456366062,,101154,,1614896704,488781649,"""0""",12.0,0.0,12.3999996185,0.0
1614968731491067886,,101155,,1614896704,538784409,"""0""",12.0,0.0,12.3999996185,0.0
1614968731542489051,,101156,,1614896704,588928420,"""0""",12.0,0.0,12.3999996185,0.0
1614968731602689027,,101157,,1614896704,638783680,"""0""",13.0,0.0,12.3999996185,0.0
1614968731654333114,,101158,,1614896704,688781805,"""0""",13.0,0.0,12.3999996185,0.0
1614968731698571920,,101159,,1614896704,738786284,"""0""",13.0,0.0,12.3999996185,0.0
1614968731747030973,,101160,,1614896704,788810347,"""0""",13.0,0.0,12.3999996185,0.0
1614968731798559904,,101161,,1614896704,838786961,"""0""",13.0,0.0,12.3999996185,0.0
1614968731842978000,,101162,,1614896704,888797326,"""0""",13.0,0.0,12.3999996185,0.0
1614968731902185916,,101163,,1614896704,938756753,"""0""",13.0,0.0,12.3999996185,0.0
1614968731947227001,,101164,,1614896704,988817846,"""0""",13.0,0.0,12.3999996185,0.0
1614968731999910116,,101165,,1614896705,38802638,"""0""",13.0,0.0,12.3999996185,0.0
1614968732053548097,,101166,,1614896705,88785763,"""0""",12.0,0.0,12.3999996185,0.0
1614968732100663900,,101167,,1614896705,138821388,"""0""",12.0,0.0,12.3999996185,0.0
1614968732151407003,,101168,,1614896705,188853940,"""0""",12.0,0.0,12.3999996185,0.0
1614968732204802989,,101169,,1614896705,238842638,"""0""",12.0,0.0,12.3999996185,0.0
1614968732242615938,,101170,,1614896705,288786076,"""0""",12.0,0.0,12.3999996185,0.0
1614968732299602985,,101171,,1614896705,338801388,"""0""",12.0,0.0,12.3999996185,0.0
1614968732344871044,,101172,,1614896705,388782325,"""0""",12.0,0.0,12.3999996185,0.0
1614968732395811080,,101173,,1614896705,438775763,"""0""",12.0,0.0,12.3999996185,0.0
1614968732450058937,,101174,,1614896705,488870867,"""0""",12.0,0.0,12.3999996185,0.0
1614968732498620033,,101175,,1614896705,538772898,"""0""",12.0,0.0,12.3999996185,0.0
1614968732543596982,,101176,,1614896705,588824461,"""0""",13.0,0.0,12.3999996185,0.0
1614968732596585988,,101177,,1614896705,638821127,"""0""",13.0,0.0,12.3999996185,0.0
1614968732648015022,,101178,,1614896705,688790294,"""0""",13.0,0.0,12.3999996185,0.0
1614968732698924064,,101179,,1614896705,738813471,"""0""",12.0,0.0,12.3999996185,0.0
1614968732748708963,,101180,,1614896705,788794513,"""0""",12.0,0.0,12.3999996185,0.0
1614968732796025037,,101181,,1614896705,838927013,"""0""",12.0,0.0,12.3999996185,0.0
1614968732848313093,,101182,,1614896705,888900346,"""0""",12.0,0.0,12.3999996185,0.0
1614968732895387887,,101183,,1614896705,938770919,"""0""",12.0,0.0,12.3999996185,0.0
1614968732948679924,,101184,,1614896705,988793107,"""0""",12.0,0.0,12.3999996185,0.0
1614968732998650074,,101185,,1614896706,38773263,"""0""",12.0,0.0,12.3999996185,0.0
1614968733049572944,,101186,,1614896706,88784565,"""0""",12.0,0.0,12.3999996185,0.0
1614968733096400976,,101187,,1614896706,138781388,"""0""",12.0,0.0,12.3999996185,0.0
1614968733148080110,,101188,,1614896706,188777742,"""0""",12.0,0.0,12.3999996185,0.0
1614968733200176000,,101189,,1614896706,238808731,"""0""",12.0,0.0,12.3999996185,0.0
1614968733251760959,,101190,,1614896706,288792950,"""0""",12.0,0.0,12.3999996185,0.0
1614968733296777963,,101191,,1614896706,338837846,"""0""",12.0,0.0,12.3999996185,0.0
1614968733349087953,,101192,,1614896706,388841908,"""0""",12.0,0.0,12.3999996185,0.0
1614968733396732091,,101193,,1614896706,438809929,"""0""",12.0,0.0,12.3999996185,0.0
1614968733445991992,,101194,,1614896706,488870606,"""0""",12.0,0.0,12.3999996185,0.0
1614968733494873046,,101195,,1614896706,538853731,"""0""",12.0,0.0,12.3999996185,0.0
1614968733545011043,,101196,,1614896706,588935815,"""0""",12.0,0.0,12.3999996185,0.0
1614968733595900058,,101197,,1614896706,638774200,"""0""",12.0,0.0,12.3999996185,0.0
1614968733644129037,,101198,,1614896706,688810710,"""0""",12.0,0.0,12.3999996185,0.0
1614968733695230960,,101199,,1614896706,738830762,"""0""",12.0,0.0,12.3999996185,0.0
1614968733751519918,,101200,,1614896706,788872637,"""0""",12.0,0.0,12.3999996185,0.0
1614968733804738044,,101201,,1614896706,838797325,"""0""",12.0,0.0,12.3999996185,0.0
1614968733852202892,,101202,,1614896706,888876023,"""0""",12.0,0.0,12.3999996185,0.0
1614968733904336929,,101203,,1614896706,938870867,"""0""",12.0,0.0,12.3999996185,0.0
1614968733950500011,,101204,,1614896706,988782169,"""0""",12.0,0.0,12.3999996185,0.0
1614968734009386062,,101205,,1614896707,38764669,"""0""",13.0,0.0,12.3999996185,0.0
1614968734057702064,,101206,,1614896707,89206908,"""0""",13.0,0.0,12.3999996185,0.0
1614968734096061944,,101207,,1614896707,138855502,"""0""",13.0,0.0,12.3999996185,0.0
1614968734152070999,,101208,,1614896707,188796700,"""0""",12.0,0.0,12.3999996185,0.0
1614968734196685075,,101209,,1614896707,238817481,"""0""",12.0,0.0,12.3999996185,0.0
1614968734247381925,,101210,,1614896707,288807064,"""0""",12.0,0.0,12.3999996185,0.0
1614968734297064065,,101211,,1614896707,338781231,"""0""",12.0,0.0,12.3999996185,0.0
1614968734386353969,,101212,,1614896707,388787429,"""0""",12.0,0.0,12.3999996185,0.0
1614968734415306091,,101213,,1614896707,438826543,"""0""",12.0,0.0,12.3999996185,0.0
1614968734454894065,,101214,,1614896707,488794564,"""0""",12.0,0.0,12.3999996185,0.0
1614968734497505903,,101215,,1614896707,538799200,"""0""",12.0,0.0,12.3999996185,0.0
1614968734556890010,,101216,,1614896707,588785866,"""0""",12.0,0.0,12.3999996185,0.0
1614968734598241090,,101217,,1614896707,638799043,"""0""",12.0,0.0,12.3999996185,0.0
1614968734663755893,,101218,,1614896707,688786179,"""0""",12.0,0.0,12.3999996185,0.0
1614968734702562093,,101219,,1614896707,738782637,"""0""",12.0,0.0,12.3999996185,0.0
1614968734747493982,,101220,,1614896707,788792012,"""0""",12.0,0.0,12.3999996185,0.0
1614968734798221111,,101221,,1614896707,838792272,"""0""",12.0,0.0,12.3999996185,0.0
1614968734848397016,,101222,,1614896707,888877533,"""0""",12.0,0.0,12.3999996185,0.0
1614968734900823116,,101223,,1614896707,938815293,"""0""",12.0,0.0,12.3999996185,0.0
1614968734945600032,,101224,,1614896707,988844460,"""0""",13.0,0.0,12.3999996185,0.0
1614968734998603105,,101225,,1614896708,38839199,"""0""",13.0,0.0,12.3999996185,0.0
1614968735046762943,,101226,,1614896708,88799564,"""0""",13.0,0.0,12.3999996185,0.0
1614968735097662925,,101227,,1614896708,138818939,"""0""",12.0,0.0,12.3999996185,0.0
1614968735146733999,,101228,,1614896708,188792897,"""0""",12.0,0.0,12.3999996185,0.0
1614968735197730064,,101229,,1614896708,238762064,"""0""",12.0,0.0,12.3999996185,0.0
1614968735249476909,,101230,,1614896708,289179251,"""0""",12.0,0.0,12.3999996185,0.0
1614968735306626081,,101231,,1614896708,338762064,"""0""",12.0,0.0,12.3999996185,0.0
1614968735346095085,,101232,,1614896708,388789408,"""0""",12.0,0.0,12.3999996185,0.0
1614968735402406930,,101233,,1614896708,438864928,"""0""",12.0,0.0,12.3999996185,0.0
1614968735451298952,,101234,,1614896708,488789095,"""0""",12.0,0.0,12.3999996185,0.0
1614968735502367973,,101235,,1614896708,538774668,"""0""",12.0,0.0,12.3999996185,0.0
1614968735545906066,,101236,,1614896708,588800866,"""0""",12.0,0.0,12.3999996185,0.0
1614968735607367992,,101237,,1614896708,638790241,"""0""",12.0,0.0,12.3999996185,0.0
1614968735652604103,,101238,,1614896708,688786699,"""0""",12.0,0.0,12.3999996185,0.0
1614968735704226016,,101239,,1614896708,738817897,"""0""",12.0,5.25,12.3999996185,0.0
1614968735751281976,,101240,,1614896708,788780710,"""0""",13.0,4.0,12.1999998093,0.0
1614968735803761005,,101241,,1614896708,838758730,"""0""",13.0,3.75,12.1999998093,0.0
1614968735851269006,,101242,,1614896708,888866022,"""0""",13.0,3.0,12.1999998093,0.0
1614968735902657985,,101243,,1614896708,938910189,"""0""",12.0,2.75,12.25,0.0
1614968735947279930,,101244,,1614896708,988796335,"""0""",12.0,2.375,12.25,0.0
1614968736004970073,,101245,,1614896709,38831855,"""0""",12.0,2.0,12.25,0.0
1614968736052917957,,101246,,1614896709,89663001,"""0""",12.0,1.0,12.25,0.0
1614968736105670928,,101247,,1614896709,138775241,"""0""",12.0,0.625,12.3500003815,0.0
1614968736155649900,,101248,,1614896709,188887376,"""0""",12.0,0.375,12.3500003815,0.0
1614968736200690031,,101249,,1614896709,238809564,"""0""",12.0,0.375,12.3500003815,0.0
1614968736252839088,,101250,,1614896709,288792636,"""0""",12.0,0.375,12.3500003815,0.0
1614968736303903102,,101251,,1614896709,338770241,"""0""",12.0,0.375,12.3500003815,0.0
1614968736360531091,,101252,,1614896709,388787949,"""0""",12.0,0.375,12.3500003815,0.0
1614968736401916027,,101253,,1614896709,438853574,"""0""",12.0,1.0,12.3000001907,0.0
1614968736455995082,,101254,,1614896709,488822741,"""0""",12.0,1.0,12.3000001907,0.0
1614968736523858070,,101255,,1614896709,538783470,"""0""",12.0,0.625,12.3000001907,0.0
1614968736582075119,,101256,,1614896709,588951907,"""0""",12.0,2.0,12.25,0.0
1614968736620398998,,101257,,1614896709,638884095,"""0""",12.0,3.375,12.25,0.0
1614968736649873971,,101258,,1614896709,688791647,"""0""",12.0,3.875,12.25,0.0
1614968736701679944,,101259,,1614896709,738781907,"""0""",12.0,3.0,12.25,0.0
1614968736759471893,,101260,,1614896709,788785918,"""0""",12.0,1.0,12.25,0.0
1614968736799550056,,101261,,1614896709,838877220,"""0""",12.0,1.0,12.25,0.0
1614968736851413965,,101262,,1614896709,888939147,"""0""",12.0,1.375,12.25,0.0
1614968736897685050,,101263,,1614896709,938797532,"""0""",12.0,1.0,12.25,0.0
1614968736948762893,,101264,,1614896709,989623574,"""0""",12.0,0.625,12.25,0.0
1614968737011378049,,101265,,1614896710,38857480,"""0""",12.0,0.625,12.25,0.0
1614968737049042940,,101266,,1614896710,88865553,"""0""",12.0,0.625,12.3500003815,0.0
1614968737102638006,,101267,,1614896710,138756907,"""0""",12.0,0.625,12.3500003815,0.0
1614968737151843070,,101268,,1614896710,188824094,"""0""",12.0,0.625,12.3500003815,0.0
1614968737208872079,,101269,,1614896710,238771959,"""0""",12.0,0.375,12.3500003815,0.0
1614968737250072002,,101270,,1614896710,288913626,"""0""",12.0,0.375,12.3500003815,0.0
1614968737301636934,,101271,,1614896710,338771594,"""0""",12.0,0.375,12.3500003815,0.0
1614968737349267005,,101272,,1614896710,388917584,"""0""",12.0,0.625,12.3500003815,0.0
1614968737408900976,,101273,,1614896710,438786594,"""0""",12.0,0.375,12.3500003815,0.0
1614968737446073055,,101274,,1614896710,488957271,"""0""",12.0,0.375,12.3500003815,0.0
1614968737500401973,,101275,,1614896710,538764459,"""0""",12.0,0.375,12.3500003815,0.0
1614968737547599077,,101276,,1614896710,589042011,"""0""",12.0,0.375,12.3500003815,0.0
1614968737599976062,,101277,,1614896710,638849771,"""0""",12.0,0.375,12.3500003815,0.0
1614968737658802032,,101278,,1614896710,688843157,"""0""",12.0,0.0,12.3500003815,0.0
1614968737714968919,,101279,,1614896710,738766542,"""0""",12.0,0.0,12.3999996185,0.0
1614968737752315044,,101280,,1614896710,788860448,"""0""",12.0,0.375,12.3999996185,0.0
1614968737834429025,,101281,,1614896710,838892532,"""0""",12.0,0.375,12.3999996185,0.0
1614968737864862918,,101282,,1614896710,888806959,"""0""",12.0,0.0,12.3999996185,0.0
1614968737895991086,,101283,,1614896710,938898365,"""0""",12.0,0.375,12.3999996185,0.0
1614968737956895112,,101284,,1614896710,988848625,"""0""",12.0,0.375,12.3999996185,0.0
1614968738018378019,,101285,,1614896711,38854927,"""0""",12.0,0.375,12.3500003815,0.0
1614968738052438020,,101286,,1614896711,88788521,"""0""",12.0,0.375,12.3500003815,0.0
1614968738096781015,,101287,,1614896711,138787375,"""0""",12.0,0.375,12.3500003815,0.0
1614968738149713993,,101288,,1614896711,188869042,"""0""",12.0,0.375,12.3500003815,0.0
1614968738197072029,,101289,,1614896711,238802167,"""0""",12.0,0.375,12.3500003815,0.0
1614968738256078004,,101290,,1614896711,288950032,"""0""",12.0,0.625,12.3500003815,0.0
1614968738322793960,,101291,,1614896711,338952584,"""0""",12.0,0.625,12.3500003815,0.0
1614968738356064081,,101292,,1614896711,388868365,"""0""",12.0,0.375,12.3500003815,0.0
1614968738398658037,,101293,,1614896711,438779198,"""0""",12.0,0.375,12.3500003815,0.0
1614968738457321882,,101294,,1614896711,489542011,"""0""",12.0,1.375,12.25,0.0
1614968738504251003,,101295,,1614896711,538795604,"""0""",12.0,1.375,12.25,0.0
1614968738565464019,,101296,,1614896711,588817115,"""0""",12.0,0.625,12.25,0.0
1614968738620227098,,101297,,1614896711,638966281,"""0""",12.0,0.625,12.25,0.0
1614968738655205965,,101298,,1614896711,688847427,"""0""",12.0,1.0,12.3000001907,0.0
1614968738705696105,,101299,,1614896711,738783833,"""0""",12.0,1.0,12.3000001907,0.0
1614968738768474102,,101300,,1614896711,788885396,"""0""",12.0,0.375,12.3000001907,0.0
1614968738801691055,,101301,,1614896711,838787896,"""0""",12.0,0.375,12.3500003815,0.0
1614968738867463111,,101302,,1614896711,888788156,"""0""",12.0,0.625,12.3500003815,0.0
1614968738900250911,,101303,,1614896711,938791802,"""0""",12.0,0.625,12.3500003815,0.0
1614968738956401109,,101304,,1614896711,988816854,"""0""",12.0,0.375,12.3500003815,0.0
1614968739007529020,,101305,,1614896712,38844771,"""0""",12.0,0.625,12.3500003815,0.0
1614968739061075925,,101306,,1614896712,88782948,"""0""",12.0,1.375,12.3500003815,0.0
1614968739120570898,,101307,,1614896712,138789562,"""0""",12.0,1.75,12.25,0.0
1614968739196959972,,101308,,1614896712,188772323,"""0""",12.0,1.375,12.25,0.0
1614968739232053995,,101309,,1614896712,238803990,"""0""",12.0,1.0,12.25,0.0
1614968739279182910,,101310,,1614896712,288810500,"""0""",12.0,0.625,12.25,0.0
1614968739321346998,,101311,,1614896712,338846958,"""0""",12.0,1.375,12.3000001907,0.0
1614968739396251916,,101312,,1614896712,388812479,"""0""",12.0,1.375,12.3000001907,0.0
1614968739436161041,,101313,,1614896712,438795812,"""0""",12.0,1.375,12.3000001907,0.0
1614968739496227979,,101314,,1614896712,488759771,"""0""",12.0,1.75,12.25,0.0
1614968739533047914,,101315,,1614896712,538786594,"""0""",12.0,1.0,12.25,0.0
1614968739571548938,,101316,,1614896712,588845187,"""0""",12.0,1.375,12.25,0.0
1614968739636207103,,101317,,1614896712,638792010,"""0""",12.0,1.75,12.25,0.0
1614968739673549890,,101318,,1614896712,688761125,"""0""",12.0,1.375,12.25,0.0
1614968739717822074,,101319,,1614896712,738794875,"""0""",12.0,1.375,12.25,0.0
1614968739796868085,,101320,,1614896712,788769666,"""0""",12.0,0.625,12.3000001907,0.0
1614968739829714059,,101321,,1614896712,838824146,"""0""",12.0,0.625,12.3000001907,0.0
1614968739863286972,,101322,,1614896712,888783156,"""0""",12.0,0.625,12.3000001907,0.0
1614968739897234916,,101323,,1614896712,938783729,"""0""",12.0,1.0,12.3000001907,0.0
1614968739949937105,,101324,,1614896712,988837843,"""0""",12.0,1.0,12.3000001907,0.0
1614968740011771917,,101325,,1614896713,38778625,"""0""",12.0,1.0,12.3000001907,0.0
1614968740065129041,,101326,,1614896713,88789823,"""0""",12.0,0.625,12.3000001907,0.0
1614968740137482881,,101327,,1614896713,138805656,"""0""",12.0,1.0,12.3000001907,0.0
1614968740178775072,,101328,,1614896713,188776385,"""0""",12.0,1.75,12.3000001907,0.0
1614968740221127033,,101329,,1614896713,238806906,"""0""",12.0,1.375,12.3000001907,0.0
1614968740283571958,,101330,,1614896713,288849614,"""0""",12.0,1.0,12.3000001907,0.0
1614968740347731113,,101331,,1614896713,338859875,"""0""",12.0,1.375,12.3000001907,0.0
1614968740413536071,,101332,,1614896713,388768156,"""0""",12.0,1.375,12.3000001907,0.0
1614968740413641929,,101333,,1614896713,439048260,"""0""",12.0,1.375,12.25,0.0
1614968740448338031,,101334,,1614896713,488774666,"""0""",12.0,1.0,12.25,0.0
1614968740498778104,,101335,,1614896713,538806802,"""0""",12.0,0.625,12.25,0.0
1614968740544913053,,101336,,1614896713,588788468,"""0""",12.0,0.625,12.3000001907,0.0
1614968740603421926,,101337,,1614896713,639253312,"""0""",12.0,0.625,12.3000001907,0.0
1614968740647649049,,101338,,1614896713,688824249,"""0""",12.0,1.0,12.3000001907,0.0
1614968740702709913,,101339,,1614896713,738792218,"""0""",12.0,1.375,12.25,0.0
1614968740747885942,,101340,,1614896713,788866958,"""0""",12.0,1.375,12.25,0.0
1614968740798801898,,101341,,1614896713,838778260,"""0""",12.0,1.375,12.25,0.0
1614968740850874900,,101342,,1614896713,888963312,"""0""",12.0,1.375,12.25,0.0
1614968740901815891,,101343,,1614896713,938854093,"""0""",12.0,1.0,12.25,0.0
1614968740962791919,,101344,,1614896713,988890083,"""0""",12.0,1.0,12.25,0.0
1614968740993232011,,101345,,1614896714,38774718,"""0""",12.0,1.0,12.25,0.0
1614968741045758962,,101346,,1614896714,88791385,"""0""",12.0,0.625,12.3000001907,0.0
1614968741108402967,,101347,,1614896714,138854041,"""0""",12.0,0.625,12.3000001907,0.0
1614968741147311925,,101348,,1614896714,188871541,"""0""",12.0,0.625,12.3000001907,0.0
1614968741200953006,,101349,,1614896714,238772166,"""0""",12.0,0.625,12.3500003815,0.0
1614968741280368089,,101350,,1614896714,288795499,"""0""",12.0,0.625,12.3500003815,0.0
1614968741315184116,,101351,,1614896714,338784405,"""0""",12.0,0.625,12.3500003815,0.0
1614968741348948001,,101352,,1614896714,388787895,"""0""",12.0,1.375,12.25,0.0
1614968741400722980,,101353,,1614896714,438865343,"""0""",12.0,2.0,12.25,0.0
1614968741448476076,,101354,,1614896714,488792530,"""0""",12.0,2.75,12.25,0.0
1614968741502773046,,101355,,1614896714,538795030,"""0""",12.0,2.0,12.25,0.0
1614968741563028097,,101356,,1614896714,588895499,"""0""",12.0,2.0,12.25,0.0
1614968741603521108,,101357,,1614896714,638736541,"""0""",12.0,2.375,12.25,0.0
1614968741662947893,,101358,,1614896714,688852270,"""0""",12.0,2.0,12.25,0.0
1614968741704087018,,101359,,1614896714,738792947,"""0""",12.0,1.375,12.25,0.0
1614968741752029895,,101360,,1614896714,788819666,"""0""",12.0,1.0,12.25,0.0
1614968741804254055,,101361,,1614896714,838786853,"""0""",12.0,1.0,12.25,0.0
1614968741851653099,,101362,,1614896714,888788468,"""0""",12.0,1.0,12.25,0.0
1614968741925748109,,101363,,1614896714,938776645,"""0""",12.0,1.0,12.25,0.0
1614968741963938951,,101364,,1614896714,988840551,"""0""",12.0,1.0,12.25,0.0
1614968742004296064,,101365,,1614896715,38795238,"""0""",12.0,1.0,12.3000001907,0.0
1614968742054491043,,101366,,1614896715,88802999,"""0""",12.0,0.625,12.3000001907,0.0
1614968742112865924,,101367,,1614896715,138782322,"""0""",12.0,0.625,12.3000001907,0.0
1614968742176973104,,101368,,1614896715,188843676,"""0""",12.0,1.0,12.25,0.0
1614968742228147029,,101369,,1614896715,238767061,"""0""",12.0,0.625,12.25,0.0
1614968742290040969,,101370,,1614896715,288987738,"""0""",12.0,0.375,12.25,0.0
1614968742330285072,,101371,,1614896715,338900082,"""0""",12.0,0.375,12.3500003815,0.0
1614968742367598056,,101372,,1614896715,388950082,"""0""",12.0,0.625,12.3500003815,0.0
1614968742411467075,,101373,,1614896715,438755967,"""0""",12.0,0.625,12.3500003815,0.0
1614968742488426923,,101374,,1614896715,488762999,"""0""",12.0,0.375,12.3500003815,0.0
1614968742552005052,,101375,,1614896715,538780342,"""0""",12.0,0.375,12.3500003815,0.0
1614968742552108049,,101376,,1614896715,589669092,"""0""",12.0,0.375,12.3500003815,0.0
1614968742598447084,,101377,,1614896715,638802009,"""0""",12.0,0.375,12.3500003815,0.0
1614968742653882026,,101378,,1614896715,688778624,"""0""",12.0,0.375,12.3500003815,0.0
1614968742778326988,,101379,,1614896715,738783259,"""0""",12.0,0.375,12.3500003815,0.0
1614968742778486013,,101380,,1614896715,788823103,"""0""",12.0,0.375,12.3500003815,0.0
1614968742801800966,,101381,,1614896715,838784717,"""0""",12.0,0.375,12.3500003815,0.0
1614968742859518051,,101382,,1614896715,888842426,"""0""",12.0,0.375,12.3500003815,0.0
1614968742904306888,,101383,,1614896715,938764717,"""0""",12.0,0.625,12.3500003815,0.0
1614968742953762054,,101384,,1614896715,988772061,"""0""",12.0,0.375,12.3500003815,0.0
1614968743006916046,,101385,,1614896716,38790238,"""0""",12.0,0.375,12.3500003815,0.0
1614968743060259103,,101386,,1614896716,88778936,"""0""",12.0,1.375,12.3500003815,0.0
1614968743101872920,,101387,,1614896716,138814509,"""0""",12.0,1.75,12.25,0.0
1614968743155862092,,101388,,1614896716,188956748,"""0""",12.0,0.625,12.25,0.0
1614968743212465047,,101389,,1614896716,238843311,"""0""",12.0,1.0,12.25,0.0
1614968743251441001,,101390,,1614896716,288848259,"""0""",12.0,1.375,12.25,0.0
1614968743304363012,,101391,,1614896716,338804873,"""0""",12.0,1.0,12.25,0.0
1614968743406800031,,101392,,1614896716,388770394,"""0""",12.0,1.375,12.25,0.0
1614968743406910896,,101393,,1614896716,438818884,"""0""",12.0,1.75,12.25,0.0
1614968743467546939,,101394,,1614896716,488813675,"""0""",12.0,1.0,12.25,0.0
1614968743507302045,,101395,,1614896716,538775238,"""0""",12.0,1.0,12.25,0.0
1614968743565294027,,101396,,1614896716,588791957,"""0""",12.0,1.0,12.25,0.0
1614968743626235961,,101397,,1614896716,638825290,"""0""",12.0,0.625,12.3000001907,0.0
1614968743671408891,,101398,,1614896716,689138259,"""0""",12.0,0.375,12.3000001907,0.0
1614968743737317085,,101399,,1614896716,738872373,"""0""",12.0,0.625,12.3000001907,0.0
1614968743803421020,,101400,,1614896716,788944509,"""0""",12.0,1.0,12.25,0.0
1614968743860534906,,101401,,1614896716,838810811,"""0""",12.0,0.625,12.25,0.0
1614968743860678911,,101402,,1614896716,888977686,"""0""",12.0,0.625,12.25,0.0
1614968743915528059,,101403,,1614896716,938810863,"""0""",12.0,0.375,12.3500003815,0.0
1614968743959033012,,101404,,1614896716,988795811,"""0""",12.0,0.375,12.3500003815,0.0
1614968744010821104,,101405,,1614896717,39274873,"""0""",12.0,0.375,12.3500003815,0.0
1614968744073529005,,101406,,1614896717,89201644,"""0""",12.0,0.625,12.3500003815,0.0
1614968744119009017,,101407,,1614896717,138746227,"""0""",12.0,0.625,12.3000001907,0.0
1614968744174319982,,101408,,1614896717,188889821,"""0""",12.0,0.625,12.3000001907,0.0
1614968744231676101,,101409,,1614896717,238782894,"""0""",12.0,0.625,12.3000001907,0.0
1614968744286324977,,101410,,1614896717,289859456,"""0""",12.0,2.0,12.25,0.0
1614968744342622995,,101411,,1614896717,338783519,"""0""",12.0,2.75,12.25,0.0
1614968744433943033,,101412,,1614896717,388932998,"""0""",12.0,4.125,12.25,0.0
1614968744434376955,,101413,,1614896717,438778310,"""0""",12.0,4.125,12.1499996185,0.0
1614968744505759000,,101414,,1614896717,488886071,"""0""",12.0,3.75,12.1499996185,0.0
1614968744551141023,,101415,,1614896717,538859352,"""0""",12.0,3.75,12.1499996185,0.0
1614968744598048925,,101416,,1614896717,588939092,"""0""",12.0,3.875,12.1999998093,0.0
1614968744650631904,,101417,,1614896717,638818362,"""0""",12.0,4.0,12.1999998093,0.0
1614968744707146883,,101418,,1614896717,689164040,"""0""",12.0,4.125,12.1999998093,0.0
1614968744765960931,,101419,,1614896717,738884352,"""0""",12.0,4.0,12.1499996185,0.0
1614968744766066074,,101420,,1614896717,788811956,"""0""",12.0,4.0,12.1499996185,0.0
1614968744828640937,,101421,,1614896717,838862112,"""0""",12.0,4.0,12.1499996185,0.0
1614968744869256973,,101422,,1614896717,888746800,"""0""",12.0,4.0,12.1000003815,0.0
1614968744941668033,,101423,,1614896717,938757425,"""0""",12.0,4.0,12.1000003815,0.0
1614968745009150981,,101424,,1614896717,988811800,"""0""",12.0,3.875,12.1000003815,0.0
1614968745088541984,,101425,,1614896718,38785654,"""0""",12.0,3.875,12.1000003815,0.0
1614968745088690042,,101426,,1614896718,88859144,"""0""",12.0,3.0,12.1999998093,0.0
1614968745121227025,,101427,,1614896718,138786956,"""0""",12.0,3.375,12.1999998093,0.0
1614968745173933029,,101428,,1614896718,188804352,"""0""",12.0,4.0,12.1999998093,0.0
1614968745223267078,,101429,,1614896718,238811383,"""0""",12.0,3.875,12.1499996185,0.0
1614968745274646043,,101430,,1614896718,288827112,"""0""",12.0,3.875,12.1499996185,0.0
1614968745327557086,,101431,,1614896718,338879873,"""0""",12.0,3.875,12.1499996185,0.0
1614968745359180927,,101432,,1614896718,388799352,"""0""",12.0,4.0,12.1999998093,0.0
1614968745402724981,,101433,,1614896718,438846123,"""0""",12.0,4.0,12.1999998093,0.0
1614968745452508926,,101434,,1614896718,488793518,"""0""",12.0,4.0,12.1999998093,0.0
1614968745530807971,,101435,,1614896718,538768050,"""0""",12.0,4.125,12.1000003815,0.0
1614968745581670999,,101436,,1614896718,588784404,"""0""",12.0,4.25,12.1000003815,0.0
1614968745642251968,,101437,,1614896718,638801018,"""0""",12.0,4.25,12.1000003815,0.0
1614968745689575910,,101438,,1614896718,688787320,"""0""",11.0,4.125,12.1000003815,0.0
1614968745751482009,,101439,,1614896718,738804977,"""0""",11.0,4.125,12.1000003815,0.0
1614968745793828010,,101440,,1614896718,788782216,"""0""",11.0,4.125,12.1000003815,0.0
1614968745841614961,,101441,,1614896718,838806435,"""0""",11.0,4.0,12.1000003815,0.0
1614968745877938032,,101442,,1614896718,888804768,"""0""",12.0,4.125,12.1000003815,0.0
1614968745944758892,,101443,,1614896718,938757477,"""0""",12.0,4.0,12.1000003815,0.0
1614968745998682975,,101444,,1614896718,988790289,"""0""",12.0,3.875,12.1000003815,0.0
1614968746072114944,,101445,,1614896719,38790758,"""0""",12.0,3.875,12.1499996185,0.0
1614968746072252988,,101446,,1614896719,88773154,"""0""",12.0,4.0,12.1499996185,0.0
1614968746109256982,,101447,,1614896719,138837216,"""0""",12.0,4.0,12.1499996185,0.0
1614968746242008924,,101448,,1614896719,188777737,"""0""",12.0,3.875,12.1999998093,0.0
1614968746242232084,,101449,,1614896719,238789195,"""0""",12.0,4.0,12.1999998093,0.0
1614968746291295051,,101450,,1614896719,288887112,"""0""",12.0,4.125,12.1999998093,0.0
1614968746334266901,,101451,,1614896719,338825081,"""0""",12.0,4.0,12.1499996185,0.0
1614968746388004064,,101452,,1614896719,388775185,"""0""",12.0,4.125,12.1499996185,0.0
1614968746430061101,,101453,,1614896719,438748414,"""0""",12.0,4.0,12.1499996185,0.0
1614968746469885110,,101454,,1614896719,488856018,"""0""",12.0,4.125,12.1499996185,0.0
1614968746527962923,,101455,,1614896719,538784403,"""0""",12.0,4.0,12.1000003815,0.0
1614968746581432104,,101456,,1614896719,588835862,"""0""",12.0,3.75,12.1000003815,0.0
1614968746619553089,,101457,,1614896719,638749664,"""0""",12.0,3.75,12.1000003815,0.0
1614968746669827938,,101458,,1614896719,688826487,"""0""",12.0,4.0,12.1000003815,0.0
1614968746724746942,,101459,,1614896719,738783414,"""0""",12.0,3.875,12.1000003815,0.0
1614968746767676115,,101460,,1614896719,788812320,"""0""",12.0,3.875,12.1000003815,0.0
1614968746800910949,,101461,,1614896719,838773466,"""0""",12.0,3.875,12.1999998093,0.0
1614968746853991985,,101462,,1614896719,888813153,"""0""",12.0,4.0,12.1999998093,0.0
1614968746901828050,,101463,,1614896719,938780028,"""0""",12.0,4.0,12.1999998093,0.0
1614968746984922885,,101464,,1614896719,988929195,"""0""",12.0,4.25,12.0500001907,0.0
1614968747040958881,,101465,,1614896720,38786851,"""0""",12.0,4.0,12.0500001907,0.0
1614968747067476034,,101466,,1614896720,88817841,"""0""",12.0,3.875,12.0500001907,0.0
1614968747099271059,,101467,,1614896720,138772841,"""0""",12.0,3.875,12.1499996185,0.0
1614968747157315015,,101468,,1614896720,188794091,"""0""",12.0,3.875,12.1499996185,0.0
1614968747202438116,,101469,,1614896720,238809820,"""0""",12.0,3.375,12.1499996185,0.0
1614968747251931905,,101470,,1614896720,288766486,"""0""",12.0,1.75,12.25,0.0
1614968747296808004,,101471,,1614896720,338809455,"""0""",12.0,1.375,12.25,0.0
1614968747359189987,,101472,,1614896720,388825757,"""0""",12.0,1.75,12.25,0.0
1614968747421824932,,101473,,1614896720,438852893,"""0""",12.0,2.0,12.25,0.0
1614968747456872940,,101474,,1614896720,488802893,"""0""",12.0,1.75,12.1999998093,0.0
1614968747498691082,,101475,,1614896720,538808361,"""0""",12.0,1.375,12.1999998093,0.0
1614968747571404933,,101476,,1614896720,588786226,"""0""",12.0,1.0,12.1999998093,0.0
1614968747609661102,,101477,,1614896720,638966070,"""0""",12.0,1.0,12.25,0.0
1614968747663686990,,101478,,1614896720,688803570,"""0""",12.0,0.625,12.25,0.0
1614968747727802991,,101479,,1614896720,738902215,"""0""",12.0,0.375,12.25,0.0
1614968747769187927,,101480,,1614896720,788857528,"""0""",12.0,0.375,12.3000001907,0.0
1614968747831257104,,101481,,1614896720,838783934,"""0""",12.0,0.375,12.3000001907,0.0
1614968747885363101,,101482,,1614896720,889010340,"""0""",12.0,0.375,12.3000001907,0.0
1614968747923937082,,101483,,1614896720,938849090,"""0""",12.0,0.375,12.3000001907,0.0
1614968747963012933,,101484,,1614896720,988768778,"""0""",12.0,0.375,12.3000001907,0.0
1614968748026520013,,101485,,1614896721,38850705,"""0""",12.0,0.0,12.3000001907,0.0
1614968748052455902,,101486,,1614896721,88793517,"""0""",12.0,0.0,12.3500003815,0.0
1614968748144684076,,101487,,1614896721,138786799,"""0""",12.0,0.0,12.3500003815,0.0
1614968748202672004,,101488,,1614896721,188805288,"""0""",12.0,0.0,12.3500003815,0.0
1614968748202804088,,101489,,1614896721,238786590,"""0""",12.0,0.0,12.3500003815,0.0
1614968748257356882,,101490,,1614896721,288786017,"""0""",12.0,0.0,12.3500003815,0.0
1614968748312160015,,101491,,1614896721,338829715,"""0""",12.0,0.0,12.3500003815,0.0
1614968748351305961,,101492,,1614896721,388857476,"""0""",12.0,0.0,12.3500003815,0.0
1614968748407723903,,101493,,1614896721,438938778,"""0""",12.0,0.375,12.3500003815,0.0
1614968748476787090,,101494,,1614896721,488833257,"""0""",12.0,0.375,12.3500003815,0.0
1614968748506535053,,101495,,1614896721,538898778,"""0""",12.0,0.375,12.3500003815,0.0
1614968748679482936,,101496,,1614896721,588778361,"""0""",12.0,0.375,12.3500003815,0.0
1614968748679625988,,101497,,1614896721,638799507,"""0""",12.0,0.375,12.3500003815,0.0
1614968748679662942,,101498,,1614896721,688766694,"""0""",12.0,0.375,12.3500003815,0.0
1614968748724291086,,101499,,1614896721,739678257,"""0""",12.0,0.375,12.3500003815,0.0
1614968748772140979,,101500,,1614896721,788783621,"""0""",12.0,0.375,12.3500003815,0.0
1614968748808170080,,101501,,1614896721,838779819,"""0""",12.0,0.375,12.3500003815,0.0
1614968748864578008,,101502,,1614896721,888776382,"""0""",12.0,0.375,12.3500003815,0.0
1614968748900902986,,101503,,1614896721,938778934,"""0""",12.0,0.375,12.3500003815,0.0
1614968748998389005,,101504,,1614896721,988814819,"""0""",12.0,1.0,12.3500003815,0.0
1614968749036307096,,101505,,1614896722,38878048,"""0""",12.0,1.375,12.3500003815,0.0
1614968749095103025,,101506,,1614896722,88798882,"""0""",12.0,0.625,12.25,0.0
1614968749143883943,,101507,,1614896722,138831902,"""0""",12.0,0.375,12.25,0.0
1614968749205724954,,101508,,1614896722,188796954,"""0""",12.0,0.375,12.25,0.0
1614968749250294923,,101509,,1614896722,238858569,"""0""",12.0,0.375,12.3000001907,0.0
1614968749303224086,,101510,,1614896722,288769923,"""0""",12.0,0.375,12.3000001907,0.0
1614968749403104066,,101511,,1614896722,338823100,"""0""",12.0,0.375,12.3000001907,0.0
1614968749403212070,,101512,,1614896722,388778673,"""0""",12.0,0.375,12.3000001907,0.0
1614968749434657096,,101513,,1614896722,438927996,"""0""",12.0,0.375,12.3000001907,0.0
1614968749491739988,,101514,,1614896722,488770704,"""0""",12.0,0.375,12.3000001907,0.0
1614968749528017997,,101515,,1614896722,538789350,"""0""",12.0,0.375,12.3000001907,0.0
1614968749565748929,,101516,,1614896722,588777736,"""0""",12.0,1.375,12.3000001907,0.0
1614968749627039909,,101517,,1614896722,638926433,"""0""",12.0,2.375,12.3000001907,0.0
1614968749678879976,,101518,,1614896722,689029454,"""0""",12.0,2.75,12.1999998093,0.0
1614968749734299898,,101519,,1614896722,738790965,"""0""",12.0,3.875,12.1999998093,0.0
1614968749770003080,,101520,,1614896722,788757527,"""0""",12.0,3.875,12.1999998093,0.0
1614968749808929920,,101521,,1614896722,838896954,"""0""",12.0,3.375,12.1999998093,0.0
1614968749851931095,,101522,,1614896722,888770704,"""0""",12.0,3.875,12.1999998093,0.0
1614968749923161029,,101523,,1614896722,939422735,"""0""",12.0,3.875,12.1999998093,0.0
1614968749962306022,,101524,,1614896722,988770496,"""0""",12.0,3.0,12.1999998093,0.0
1614968750024997949,,101525,,1614896723,38799038,"""0""",12.0,2.75,12.1999998093,0.0
1614968750079281091,,101526,,1614896723,88791954,"""0""",12.0,2.375,12.1999998093,0.0
1614968750124123096,,101527,,1614896723,138802892,"""0""",12.0,2.375,12.1999998093,0.0
1614968750172553062,,101528,,1614896723,188755548,"""0""",12.0,2.375,12.1999998093,0.0
1614968750248641014,,101529,,1614896723,238779923,"""0""",12.0,2.375,12.1999998093,0.0
1614968750308581113,,101530,,1614896723,288766173,"""0""",12.0,2.75,12.1999998093,0.0
1614968750308733940,,101531,,1614896723,338773881,"""0""",12.0,3.375,12.1999998093,0.0
1614968750361645936,,101532,,1614896723,388750912,"""0""",12.0,3.875,12.1999998093,0.0
1614968750405891895,,101533,,1614896723,438832579,"""0""",12.0,3.875,12.1999998093,0.0
1614968750459805965,,101534,,1614896723,489915912,"""0""",12.0,3.375,12.1999998093,0.0
1614968750511725902,,101535,,1614896723,538784558,"""0""",12.0,3.375,12.1999998093,0.0
1614968750565293073,,101536,,1614896723,589079766,"""0""",12.0,3.875,12.1999998093,0.0
1614968750620325088,,101537,,1614896723,638807162,"""0""",12.0,3.875,12.1999998093,0.0
1614968750649374961,,101538,,1614896723,688793569,"""0""",12.0,4.0,12.1000003815,0.0
1614968750708825111,,101539,,1614896723,738940808,"""0""",12.0,3.875,12.1000003815,0.0
1614968750760030984,,101540,,1614896723,788800548,"""0""",12.0,4.125,12.1000003815,0.0
1614968750805330991,,101541,,1614896723,838791902,"""0""",11.0,4.125,12.1000003815,0.0
1614968750886588096,,101542,,1614896723,888813985,"""0""",11.0,4.125,12.1000003815,0.0
1614968750931860923,,101543,,1614896723,938815548,"""0""",11.0,4.125,12.1000003815,0.0
1614968750964003086,,101544,,1614896723,988829141,"""0""",11.0,4.125,12.1000003815,0.0
1614968751001173019,,101545,,1614896724,38815183,"""0""",11.0,4.25,12.1000003815,0.0
1614968751056516885,,101546,,1614896724,88905860,"""0""",11.0,4.375,12.1000003815,0.0
1614968751100588083,,101547,,1614896724,138787006,"""0""",12.0,4.25,12.1000003815,0.0
1614968751160919904,,101548,,1614896724,188775079,"""0""",12.0,4.125,12.1000003815,0.0
1614968751199769020,,101549,,1614896724,238810079,"""0""",12.0,4.0,12.1000003815,0.0
1614968751264133930,,101550,,1614896724,288778152,"""0""",12.0,4.125,12.1000003815,0.0
1614968751307112932,,101551,,1614896724,339428620,"""0""",12.0,4.125,12.1000003815,0.0
1614968751358545064,,101552,,1614896724,388768360,"""0""",12.0,4.0,12.1000003815,0.0
1614968751400338888,,101553,,1614896724,438862943,"""0""",12.0,4.0,12.1000003815,0.0
1614968751470597982,,101554,,1614896724,488777527,"""0""",12.0,3.875,12.1499996185,0.0
1614968751502679109,,101555,,1614896724,538779558,"""0""",12.0,3.875,12.1499996185,0.0
1614968751564624071,,101556,,1614896724,588912943,"""0""",12.0,3.875,12.1499996185,0.0
1614968751624465942,,101557,,1614896724,638783151,"""0""",12.0,3.75,12.1000003815,0.0
1614968751665271997,,101558,,1614896724,688783881,"""0""",12.0,3.875,12.1000003815,0.0
1614968751699471950,,101559,,1614896724,739008412,"""0""",12.0,3.875,12.1000003815,0.0
1614968751773397922,,101560,,1614896724,788755339,"""0""",12.0,3.875,12.1499996185,0.0
1614968751814896106,,101561,,1614896724,838854818,"""0""",12.0,4.0,12.1499996185,0.0
1614968751862392902,,101562,,1614896724,888914037,"""0""",12.0,3.875,12.1499996185,0.0
1614968751900814056,,101563,,1614896724,938779089,"""0""",12.0,3.875,12.1499996185,0.0
1614968751959976911,,101564,,1614896724,988760651,"""0""",12.0,4.0,12.1499996185,0.0
1614968752006776094,,101565,,1614896725,38858308,"""0""",12.0,4.0,12.1499996185,0.0
1614968752081499099,,101566,,1614896725,88863724,"""0""",11.0,4.0,12.1000003815,0.0
1614968752131159067,,101567,,1614896725,138793880,"""0""",11.0,4.0,12.1000003815,0.0
1614968752174922943,,101568,,1614896725,188810183,"""0""",11.0,3.875,12.1000003815,0.0
1614968752216830968,,101569,,1614896725,238803099,"""0""",11.0,3.875,12.1000003815,0.0
1614968752273468971,,101570,,1614896725,288810599,"""0""",12.0,4.0,12.1000003815,0.0
1614968752320637941,,101571,,1614896725,338787735,"""0""",12.0,4.0,12.1000003815,0.0
1614968752381217002,,101572,,1614896725,388791693,"""0""",12.0,4.0,12.1000003815,0.0
1614968752424031972,,101573,,1614896725,438812630,"""0""",12.0,4.0,12.1000003815,0.0
1614968752463792085,,101574,,1614896725,488767891,"""0""",12.0,3.875,12.1000003815,0.0
1614968752513689994,,101575,,1614896725,538810391,"""0""",12.0,3.875,12.1000003815,0.0
1614968752557446956,,101576,,1614896725,588772734,"""0""",11.0,3.875,12.1000003815,0.0
1614968752599071025,,101577,,1614896725,638848047,"""0""",11.0,3.875,12.1000003815,0.0
1614968752658417940,,101578,,1614896725,688764453,"""0""",11.0,4.0,12.1000003815,0.0
1614968752700519084,,101579,,1614896725,738856432,"""0""",12.0,3.875,12.1499996185,0.0
1614968752752964973,,101580,,1614896725,788789661,"""0""",12.0,4.0,12.1499996185,0.0
1614968752804986000,,101581,,1614896725,838855339,"""0""",12.0,4.0,12.1499996185,0.0
1614968752969747066,,101582,,1614896725,888876588,"""0""",12.0,4.0,12.1000003815,0.0
1614968752969856977,,101583,,1614896725,938850078,"""0""",12.0,4.0,12.1000003815,0.0
1614968752969907999,,101584,,1614896725,988796641,"""0""",12.0,4.0,12.1000003815,0.0
1614968753023791074,,101585,,1614896726,38780963,"""0""",12.0,3.875,12.1000003815,0.0
1614968753068197965,,101586,,1614896726,88794818,"""0""",12.0,3.875,12.1000003815,0.0
1614968753130110025,,101587,,1614896726,138751380,"""0""",12.0,3.875,12.1000003815,0.0
1614968753200908899,,101588,,1614896726,188798672,"""0""",12.0,4.0,12.1000003815,0.0
1614968753254347085,,101589,,1614896726,238868255,"""0""",12.0,4.0,12.1000003815,0.0
1614968753293785095,,101590,,1614896726,288880443,"""0""",12.0,4.0,12.1000003815,0.0
1614968753348681926,,101591,,1614896726,338779453,"""0""",12.0,4.0,12.1000003815,0.0
1614968753414712905,,101592,,1614896726,388800442,"""0""",12.0,3.875,12.1499996185,0.0
1614968753454086065,,101593,,1614896726,438771901,"""0""",12.0,4.0,12.1499996185,0.0
1614968753518876075,,101594,,1614896726,488914870,"""0""",12.0,3.875,12.1499996185,0.0
1614968753579735040,,101595,,1614896726,538793307,"""0""",12.0,3.875,12.1000003815,0.0
1614968753579905033,,101596,,1614896726,588791849,"""0""",12.0,4.0,12.1000003815,0.0
1614968753630405902,,101597,,1614896726,638762734,"""0""",12.0,3.875,12.1000003815,0.0
1614968753682769060,,101598,,1614896726,688873151,"""0""",12.0,3.875,12.1000003815,0.0
1614968753731422901,,101599,,1614896726,738805963,"""0""",12.0,4.0,12.1000003815,0.0
1614968753794114112,,101600,,1614896726,788827942,"""0""",12.0,4.125,12.1000003815,0.0
1614968753866641998,,101601,,1614896726,838950026,"""0""",12.0,4.0,12.1000003815,0.0
1614968753915298938,,101602,,1614896726,888817057,"""0""",12.0,4.125,12.1000003815,0.0
1614968753952346086,,101603,,1614896726,938789401,"""0""",12.0,4.125,12.1000003815,0.0
1614968754015907049,,101604,,1614896726,988835755,"""0""",12.0,4.0,12.1000003815,0.0
1614968754016016006,,101605,,1614896727,38736796,"""0""",11.0,4.0,12.1000003815,0.0
1614968754057254076,,101606,,1614896727,88796848,"""0""",11.0,4.0,12.1000003815,0.0
1614968754111424922,,101607,,1614896727,138768098,"""0""",11.0,4.0,12.1000003815,0.0
1614968754171736955,,101608,,1614896727,188745963,"""0""",12.0,4.0,12.1000003815,0.0
1614968754215290069,,101609,,1614896727,238774400,"""0""",12.0,4.0,12.1000003815,0.0
1614968754270488023,,101610,,1614896727,288867161,"""0""",12.0,4.0,12.1000003815,0.0
1614968754318329095,,101611,,1614896727,338764453,"""0""",12.0,4.0,12.1000003815,0.0
1614968754354247093,,101612,,1614896727,388808098,"""0""",12.0,4.125,12.1000003815,0.0
1614968754420403003,,101613,,1614896727,438763880,"""0""",12.0,4.0,12.1000003815,0.0
1614968754493124008,,101614,,1614896727,488831536,"""0""",12.0,4.125,12.1000003815,0.0
1614968754536503076,,101615,,1614896727,538761900,"""0""",12.0,4.0,12.1000003815,0.0
1614968754581260919,,101616,,1614896727,588771015,"""0""",12.0,4.0,12.1000003815,0.0
1614968754631371021,,101617,,1614896727,638837421,"""0""",12.0,4.0,12.1000003815,0.0
1614968754674303054,,101618,,1614896727,688822265,"""0""",11.0,4.0,12.1000003815,0.0
1614968754708174943,,101619,,1614896727,738805546,"""0""",11.0,4.0,12.1000003815,0.0
1614968754750953912,,101620,,1614896727,788856379,"""0""",11.0,4.0,12.1000003815,0.0
1614968754816421031,,101621,,1614896727,838765546,"""0""",12.0,3.875,12.1499996185,0.0
1614968754876892089,,101622,,1614896727,888857734,"""0""",12.0,3.875,12.1499996185,0.0
1614968754914784908,,101623,,1614896727,938764869,"""0""",12.0,3.875,12.1499996185,0.0
1614968754957282066,,101624,,1614896727,988854036,"""0""",12.0,3.875,12.1000003815,0.0
1614968755017487049,,101625,,1614896728,38876327,"""0""",12.0,3.875,12.1000003815,0.0
1614968755090986967,,101626,,1614896728,88778931,"""0""",12.0,3.875,12.1000003815,0.0
1614968755170329093,,101627,,1614896728,138767733,"""0""",12.0,3.875,12.1000003815,0.0
1614968755170433998,,101628,,1614896728,188774140,"""0""",12.0,4.0,12.1000003815,0.0
1614968755223436117,,101629,,1614896728,238807942,"""0""",12.0,4.0,12.1000003815,0.0
1614968755266875982,,101630,,1614896728,288862942,"""0""",12.0,4.0,12.1000003815,0.0
1614968755311580896,,101631,,1614896728,338797838,"""0""",12.0,4.0,12.1000003815,0.0
1614968755371191978,,101632,,1614896728,388814348,"""0""",12.0,4.125,12.1000003815,0.0
1614968755408740043,,101633,,1614896728,438786796,"""0""",12.0,4.0,12.1000003815,0.0
1614968755475187063,,101634,,1614896728,488769608,"""0""",12.0,4.0,12.1000003815,0.0
1614968755514858961,,101635,,1614896728,538764973,"""0""",12.0,4.0,12.1000003815,0.0
1614968755559304952,,101636,,1614896728,588841640,"""0""",12.0,4.0,12.1000003815,0.0
1614968755617474079,,101637,,1614896728,638784296,"""0""",11.0,4.0,12.1000003815,0.0
1614968755708878993,,101638,,1614896728,688973306,"""0""",11.0,4.125,12.1000003815,0.0
1614968755709026098,,101639,,1614896728,738817525,"""0""",11.0,4.125,12.1000003815,0.0
1614968755760970115,,101640,,1614896728,788854973,"""0""",11.0,4.25,12.1000003815,0.0
1614968755812937974,,101641,,1614896728,838768879,"""0""",11.0,4.125,12.1000003815,0.0
1614968755857706069,,101642,,1614896728,889060962,"""0""",11.0,4.0,12.1000003815,0.0
1614968755903964042,,101643,,1614896728,938762681,"""0""",11.0,4.0,12.1000003815,0.0
1614968755973383903,,101644,,1614896728,988832733,"""0""",11.0,4.0,12.1000003815,0.0
1614968756004338026,,101645,,1614896729,38823150,"""0""",11.0,3.875,12.1000003815,0.0
1614968756059973001,,101646,,1614896729,88829244,"""0""",11.0,3.875,12.1000003815,0.0
1614968756113272905,,101647,,1614896729,138772994,"""0""",12.0,3.875,12.1000003815,0.0
1614968756164892911,,101648,,1614896729,188836848,"""0""",12.0,3.875,12.1000003815,0.0
1614968756212708950,,101649,,1614896729,238813723,"""0""",12.0,3.875,12.1000003815,0.0
1614968756270364046,,101650,,1614896729,289004556,"""0""",12.0,3.875,12.1499996185,0.0
1614968756317210912,,101651,,1614896729,338792316,"""0""",12.0,3.875,12.1499996185,0.0
1614968756385699033,,101652,,1614896729,388983150,"""0""",12.0,3.75,12.1499996185,0.0
1614968756420599937,,101653,,1614896729,438798723,"""0""",12.0,3.875,12.1000003815,0.0
1614968756476155042,,101654,,1614896729,488873983,"""0""",12.0,3.875,12.1000003815,0.0
1614968756518318891,,101655,,1614896729,538794400,"""0""",12.0,3.875,12.1000003815,0.0
1614968756579461097,,101656,,1614896729,588922473,"""0""",11.0,3.875,12.1000003815,0.0
1614968756638298034,,101657,,1614896729,638788566,"""0""",11.0,3.875,12.1000003815,0.0
1614968756683094978,,101658,,1614896729,688857212,"""0""",11.0,4.0,12.1000003815,0.0
1614968756728185892,,101659,,1614896729,738764347,"""0""",11.0,4.0,12.1000003815,0.0
1614968756781775951,,101660,,1614896729,788835233,"""0""",11.0,4.125,12.1000003815,0.0
1614968756856337070,,101661,,1614896729,838789764,"""0""",11.0,4.0,12.1000003815,0.0
1614968756902072906,,101662,,1614896729,888861795,"""0""",11.0,4.0,12.1000003815,0.0
1614968756960980892,,101663,,1614896729,938785077,"""0""",11.0,4.0,12.1000003815,0.0
1614968757013374090,,101664,,1614896729,988757785,"""0""",11.0,3.875,12.1000003815,0.0
1614968757013523101,,101665,,1614896730,38761795,"""0""",11.0,3.875,12.1000003815,0.0
1614968757067454099,,101666,,1614896730,88807472,"""0""",12.0,4.0,12.1000003815,0.0
1614968757113373994,,101667,,1614896730,138781483,"""0""",12.0,3.875,12.1000003815,0.0
1614968757185635089,,101668,,1614896730,188778670,"""0""",12.0,4.0,12.1000003815,0.0
1614968757226506948,,101669,,1614896730,238769972,"""0""",12.0,4.0,12.1000003815,0.0
1614968757259509086,,101670,,1614896730,288780806,"""0""",12.0,4.0,12.1000003815,0.0
1614968757307606935,,101671,,1614896730,338775910,"""0""",12.0,3.875,12.1000003815,0.0
1614968757365444898,,101672,,1614896730,388798566,"""0""",12.0,4.0,12.1000003815,0.0
1614968757418607950,,101673,,1614896730,438809191,"""0""",12.0,4.0,12.1000003815,0.0
1614968757497260093,,101674,,1614896730,488824764,"""0""",12.0,4.0,12.1000003815,0.0
1614968757541043996,,101675,,1614896730,538808201,"""0""",11.0,4.0,12.1000003815,0.0
1614968757621150970,,101676,,1614896730,588971170,"""0""",11.0,3.875,12.1000003815,0.0
1614968757621260881,,101677,,1614896730,638842576,"""0""",11.0,3.875,12.1000003815,0.0
1614968757667783021,,101678,,1614896730,689164608,"""0""",12.0,4.0,12.1000003815,0.0
1614968757727592945,,101679,,1614896730,738815389,"""0""",12.0,3.875,12.1000003815,0.0
1614968757782252073,,101680,,1614896730,788791118,"""0""",12.0,4.0,12.1000003815,0.0
1614968757830657958,,101681,,1614896730,838753722,"""0""",12.0,4.0,12.1000003815,0.0
1614968757868244886,,101682,,1614896730,888778045,"""0""",12.0,4.125,12.1000003815,0.0
1614968757912851095,,101683,,1614896730,938789399,"""0""",12.0,4.125,12.1000003815,0.0
1614968757952230930,,101684,,1614896730,988828409,"""0""",12.0,4.0,12.1000003815,0.0
1614968758007829904,,101685,,1614896731,38847003,"""0""",12.0,4.125,12.1000003815,0.0
1614968758053791046,,101686,,1614896731,88777628,"""0""",12.0,4.125,12.1000003815,0.0
1614968758110476970,,101687,,1614896731,138817159,"""0""",12.0,4.125,12.1000003815,0.0
1614968758154444932,,101688,,1614896731,188810024,"""0""",12.0,4.125,12.1000003815,0.0
1614968758213912010,,101689,,1614896731,238741326,"""0""",12.0,4.125,12.1000003815,0.0
1614968758263885974,,101690,,1614896731,288803982,"""0""",12.0,4.125,12.1000003815,0.0
1614968758304776906,,101691,,1614896731,338750805,"""0""",11.0,4.125,12.0500001907,0.0
1614968758365452051,,101692,,1614896731,388777680,"""0""",11.0,4.125,12.0500001907,0.0
1614968758418792009,,101693,,1614896731,438776482,"""0""",11.0,4.125,12.0500001907,0.0
1614968758466392040,,101694,,1614896731,488774711,"""0""",11.0,4.375,12.0500001907,0.0
1614968758529959917,,101695,,1614896731,538796743,"""0""",12.0,4.125,12.0500001907,0.0
1614968758564712047,,101696,,1614896731,588849034,"""0""",12.0,3.875,12.0500001907,0.0
1614968758623012065,,101697,,1614896731,638800128,"""0""",12.0,3.75,12.0500001907,0.0
1614968758669929981,,101698,,1614896731,688859190,"""0""",12.0,3.875,12.1000003815,0.0
1614968758709065914,,101699,,1614896731,738847055,"""0""",12.0,3.875,12.1000003815,0.0
1614968758747525930,,101700,,1614896731,788828617,"""0""",12.0,3.875,12.1000003815,0.0
1614968758807986974,,101701,,1614896731,838789451,"""0""",12.0,3.875,12.1000003815,0.0
1614968758855573892,,101702,,1614896731,888796274,"""0""",12.0,3.875,12.1000003815,0.0
1614968758914869070,,101703,,1614896731,938775597,"""0""",12.0,3.875,12.1000003815,0.0
1614968758989377975,,101704,,1614896731,988933982,"""0""",12.0,4.0,12.1000003815,0.0
1614968759032260894,,101705,,1614896732,38811326,"""0""",12.0,4.0,12.1000003815,0.0
1614968759075443029,,101706,,1614896732,88841847,"""0""",12.0,4.125,12.1000003815,0.0
1614968759119462966,,101707,,1614896732,138837472,"""0""",11.0,4.125,12.0500001907,0.0
1614968759166815042,,101708,,1614896732,188819347,"""0""",11.0,4.125,12.0500001907,0.0
1614968759211271047,,101709,,1614896732,238846534,"""0""",11.0,4.0,12.0500001907,0.0
1614968759271584987,,101710,,1614896732,289121794,"""0""",11.0,4.0,12.0500001907,0.0
1614968759328303098,,101711,,1614896732,338764867,"""0""",12.0,4.0,12.1000003815,0.0
1614968759385221958,,101712,,1614896732,388782732,"""0""",12.0,4.125,12.1000003815,0.0
1614968759443162918,,101713,,1614896732,438818305,"""0""",12.0,4.125,12.1000003815,0.0
1614968759494103908,,101714,,1614896732,488776378,"""0""",12.0,4.125,12.0500001907,0.0
1614968759540014028,,101715,,1614896732,538804555,"""0""",12.0,4.125,12.0500001907,0.0
1614968759597703933,,101716,,1614896732,588834659,"""0""",12.0,4.125,12.0500001907,0.0
1614968759653197050,,101717,,1614896732,638764711,"""0""",12.0,4.125,12.1000003815,0.0
1614968759706273078,,101718,,1614896732,688758461,"""0""",12.0,4.0,12.1000003815,0.0
1614968759706382989,,101719,,1614896732,738796221,"""0""",12.0,4.0,12.1000003815,0.0
1614968759776813030,,101720,,1614896732,788747367,"""0""",12.0,4.125,12.0500001907,0.0
1614968759808947086,,101721,,1614896732,838781013,"""0""",12.0,4.125,12.0500001907,0.0
1614968759870919942,,101722,,1614896732,888820232,"""0""",12.0,4.125,12.0500001907,0.0
1614968759912249088,,101723,,1614896732,938820805,"""0""",12.0,4.25,12.0500001907,0.0
1614968759954643011,,101724,,1614896732,988839971,"""0""",12.0,4.0,12.0500001907,0.0
1614968760050806045,,101725,,1614896733,38774555,"""0""",12.0,3.875,12.0500001907,0.0
1614968760133837938,,101726,,1614896733,88764086,"""0""",12.0,3.875,12.0500001907,0.0
1614968760134368896,,101727,,1614896733,138813409,"""0""",11.0,3.875,12.1000003815,0.0
1614968760177400112,,101728,,1614896733,188813617,"""0""",11.0,3.75,12.1000003815,0.0
1614968760237004995,,101729,,1614896733,238789554,"""0""",11.0,3.0,12.1000003815,0.0
1614968760277066946,,101730,,1614896733,288834919,"""0""",12.0,2.75,12.1999998093,0.0
1614968760310077905,,101731,,1614896733,338782159,"""0""",12.0,2.375,12.1999998093,0.0
1614968760353318929,,101732,,1614896733,388813304,"""0""",12.0,2.0,12.1999998093,0.0
1614968760423074960,,101733,,1614896733,438745544,"""0""",12.0,1.75,12.1999998093,0.0
1614968760487896919,,101734,,1614896733,488827523,"""0""",12.0,1.75,12.1999998093,0.0
1614968760526344060,,101735,,1614896733,538789763,"""0""",12.0,1.375,12.1999998093,0.0
1614968760568727016,,101736,,1614896733,588767627,"""0""",12.0,1.0,12.1999998093,0.0
1614968760610876083,,101737,,1614896733,638786377,"""0""",12.0,1.0,12.1999998093,0.0
1614968760665868997,,101738,,1614896733,688780961,"""0""",12.0,0.625,12.1999998093,0.0
1614968760777659893,,101739,,1614896733,738719033,"""0""",12.0,0.375,12.25,0.0
1614968760777786970,,101740,,1614896733,788940023,"""0""",12.0,0.375,12.25,0.0
1614968760823661088,,101741,,1614896733,838760127,"""0""",12.0,0.0,12.25,0.0
1614968760868791103,,101742,,1614896733,888764190,"""0""",12.0,0.0,12.3500003815,0.0
1614968760907016992,,101743,,1614896733,938829763,"""0""",12.0,0.0,12.3500003815,0.0
1614968760958551883,,101744,,1614896733,988806065,"""0""",12.0,0.0,12.3500003815,0.0
1614968761049833059,,101745,,1614896734,38794242,"""0""",12.0,0.375,12.3500003815,0.0
1614968761086210012,,101746,,1614896734,88915440,"""0""",12.0,0.375,12.3000001907,0.0
1614968761170948982,,101747,,1614896734,138792419,"""0""",12.0,0.375,12.3000001907,0.0
1614968761171060085,,101748,,1614896734,188988408,"""0""",12.0,0.375,12.3000001907,0.0
1614968761216481924,,101749,,1614896734,238908148,"""0""",12.0,0.375,12.25,0.0
1614968761265273094,,101750,,1614896734,288787158,"""0""",12.0,1.0,12.25,0.0
1614968761371767044,,101751,,1614896734,338866064,"""0""",12.0,1.0,12.25,0.0
1614968761371902942,,101752,,1614896734,388849502,"""0""",12.0,0.625,12.25,0.0
1614968761469985961,,101753,,1614896734,438844971,"""0""",12.0,0.625,12.25,0.0
1614968761470091104,,101754,,1614896734,488774033,"""0""",12.0,1.375,12.25,0.0
1614968761531786918,,101755,,1614896734,538919971,"""0""",12.0,1.0,12.25,0.0
1614968761564512014,,101756,,1614896734,588784502,"""0""",12.0,0.625,12.25,0.0
1614968761606961965,,101757,,1614896734,638793773,"""0""",12.0,0.375,12.25,0.0
1614968761655323028,,101758,,1614896734,689090283,"""0""",12.0,0.375,12.25,0.0
1614968761710664033,,101759,,1614896734,738801377,"""0""",12.0,0.625,12.25,0.0
1614968761753936052,,101760,,1614896734,788810439,"""0""",12.0,0.625,12.25,0.0
1614968761806381940,,101761,,1614896734,838819918,"""0""",12.0,0.625,12.25,0.0
1614968761857073068,,101762,,1614896734,888851741,"""0""",12.0,1.0,12.1999998093,0.0
1614968761914482116,,101763,,1614896734,938814710,"""0""",12.0,1.0,12.1999998093,0.0
1614968761994404077,,101764,,1614896734,988817939,"""0""",12.0,1.0,12.1999998093,0.0
1614968762032879114,,101765,,1614896735,38851168,"""0""",12.0,1.0,12.1999998093,0.0
1614968762092936038,,101766,,1614896735,88786793,"""0""",12.0,1.0,12.1999998093,0.0
1614968762133323907,,101767,,1614896735,138952002,"""0""",12.0,1.0,12.1999998093,0.0
1614968762184576034,,101768,,1614896735,189346429,"""0""",12.0,1.0,12.1999998093,0.0
1614968762251010894,,101769,,1614896735,238938981,"""0""",12.0,1.0,12.1999998093,0.0
1614968762302071094,,101770,,1614896735,289121116,"""0""",12.0,0.625,12.1999998093,0.0
1614968762335890054,,101771,,1614896735,338785647,"""0""",12.0,0.625,12.25,0.0
1614968762452423095,,101772,,1614896735,388781897,"""0""",12.0,0.625,12.25,0.0
1614968762452655076,,101773,,1614896735,438886377,"""0""",12.0,0.625,12.25,0.0
1614968762566777944,,101774,,1614896735,489007210,"""0""",12.0,0.625,12.25,0.0
1614968762566896915,,101775,,1614896735,538787366,"""0""",12.0,0.625,12.25,0.0
1614968762566919088,,101776,,1614896735,588835074,"""0""",12.0,0.625,12.25,0.0
1614968762616553068,,101777,,1614896735,638819970,"""0""",12.0,1.0,12.25,0.0
1614968762678900003,,101778,,1614896735,688939033,"""0""",12.0,1.0,12.25,0.0
1614968762732151031,,101779,,1614896735,739059085,"""0""",12.0,1.0,12.25,0.0
1614968762830275058,,101780,,1614896735,788863512,"""0""",12.0,1.0,12.25,0.0
1614968762830427885,,101781,,1614896735,838866064,"""0""",12.0,0.625,12.25,0.0
1614968762888839006,,101782,,1614896735,888765178,"""0""",12.0,0.625,12.25,0.0
1614968762939265966,,101783,,1614896735,938929345,"""0""",12.0,0.625,12.25,0.0
1614968762990340948,,101784,,1614896735,988799345,"""0""",12.0,0.625,12.25,0.0
1614968763044281005,,101785,,1614896736,38880751,"""0""",12.0,0.375,12.25,0.0
1614968763086719036,,101786,,1614896736,88828876,"""0""",12.0,0.375,12.25,0.0
1614968763145845890,,101787,,1614896736,138827366,"""0""",12.0,0.375,12.25,0.0
1614968763203089952,,101788,,1614896736,188836376,"""0""",12.0,0.625,12.25,0.0
1614968763261192083,,101789,,1614896736,238772730,"""0""",12.0,0.625,12.25,0.0
1614968763327548027,,101790,,1614896736,288813147,"""0""",12.0,0.625,12.25,0.0
1614968763327668905,,101791,,1614896736,338907053,"""0""",12.0,0.375,12.25,0.0
1614968763382195949,,101792,,1614896736,389142678,"""0""",12.0,0.625,12.25,0.0
1614968763426980972,,101793,,1614896736,438778668,"""0""",12.0,1.375,12.25,0.0
1614968763466286897,,101794,,1614896736,488785022,"""0""",12.0,1.375,12.1999998093,0.0
1614968763508940935,,101795,,1614896736,538932470,"""0""",12.0,1.0,12.1999998093,0.0
1614968763592926979,,101796,,1614896736,588888980,"""0""",12.0,1.0,12.1999998093,0.0
1614968763652688980,,101797,,1614896736,638787522,"""0""",12.0,0.625,12.25,0.0
1614968763716640949,,101798,,1614896736,688791480,"""0""",12.0,0.375,12.25,0.0
1614968763784558057,,101799,,1614896736,738796741,"""0""",12.0,0.625,12.25,0.0
1614968763784974098,,101800,,1614896736,788888720,"""0""",12.0,1.0,12.25,0.0
1614968763836226940,,101801,,1614896736,838795907,"""0""",12.0,0.625,12.25,0.0
1614968763897514104,,101802,,1614896736,888828303,"""0""",12.0,0.375,12.25,0.0
1614968763975785970,,101803,,1614896736,938851168,"""0""",12.0,0.375,12.25,0.0
1614968763975909948,,101804,,1614896736,988782209,"""0""",12.0,0.375,12.25,0.0
1614968764012296915,,101805,,1614896737,39064188,"""0""",12.0,0.625,12.25,0.0
1614968764068911075,,101806,,1614896737,88856324,"""0""",12.0,0.625,12.25,0.0
1614968764129996061,,101807,,1614896737,138834501,"""0""",11.0,1.0,12.25,0.0
1614968764173711061,,101808,,1614896737,188761584,"""0""",11.0,1.375,12.25,0.0
1614968764233575105,,101809,,1614896737,238879032,"""0""",11.0,1.375,12.25,0.0
1614968764302479028,,101810,,1614896737,288789865,"""0""",12.0,1.75,12.1999998093,0.0
1614968764362682104,,101811,,1614896737,338940282,"""0""",12.0,1.75,12.1999998093,0.0
1614968764426695108,,101812,,1614896737,388806063,"""0""",12.0,1.375,12.1999998093,0.0
1614968764426953077,,101813,,1614896737,438781480,"""0""",12.0,1.375,12.1999998093,0.0
1614968764483076095,,101814,,1614896737,488890907,"""0""",12.0,0.625,12.1999998093,0.0
1614968764514205932,,101815,,1614896737,538785334,"""0""",12.0,0.625,12.1999998093,0.0
1614968764564941883,,101816,,1614896737,588786480,"""0""",12.0,0.625,12.25,0.0
1614968764617429018,,101817,,1614896737,638840074,"""0""",12.0,0.625,12.25,0.0
1614968764699780941,,101818,,1614896737,688797782,"""0""",12.0,1.0,12.25,0.0
1614968764747972011,,101819,,1614896737,738837834,"""0""",12.0,1.375,12.1999998093,0.0
1614968764789477109,,101820,,1614896737,788813719,"""0""",12.0,1.375,12.1999998093,0.0
1614968764831969976,,101821,,1614896737,838776740,"""0""",12.0,1.375,12.1999998093,0.0
1614968764891776084,,101822,,1614896737,888898303,"""0""",12.0,0.625,12.1999998093,0.0
1614968764980691909,,101823,,1614896737,938777261,"""0""",12.0,0.625,12.25,0.0
1614968764980801105,,101824,,1614896737,988854240,"""0""",12.0,1.375,12.25,0.0
