rosbagTimestamp,header,seq,stamp,secs,nsecs,frame_id,Temperature,OutputCurrent,BusVoltage,ClosedLoopError
1614965197806557893,,30483,,1614893170,938834090,"""0""",12.0,0.0,12.3999996185,0.0
1614965197863393068,,30484,,1614893170,988777320,"""0""",12.0,0.0,12.3999996185,0.0
1614965197910588026,,30485,,1614893171,39260392,"""0""",12.0,0.0,12.3999996185,0.0
1614965197968383073,,30486,,1614893171,89034924,"""0""",12.0,0.0,12.3999996185,0.0
1614965198010056018,,30487,,1614893171,139659090,"""0""",12.0,0.0,12.3999996185,0.0
1614965198069047927,,30488,,1614893171,188764559,"""0""",12.0,0.0,12.3999996185,0.0
1614965198113890886,,30489,,1614893171,238812059,"""0""",12.0,0.0,12.3999996185,0.0
1614965198175564050,,30490,,1614893171,288757892,"""0""",12.0,0.0,12.3999996185,0.0
1614965198212924003,,30491,,1614893171,338802944,"""0""",12.0,0.0,12.3999996185,0.0
1614965198274892091,,30492,,1614893171,389986434,"""0""",12.0,0.0,12.3999996185,0.0
1614965198310252904,,30493,,1614893171,438808205,"""0""",12.0,0.0,12.3999996185,0.0
1614965198367182016,,30494,,1614893171,488780288,"""0""",12.0,0.0,12.3999996185,0.0
1614965198419003963,,30495,,1614893171,538759976,"""0""",12.0,0.0,12.3999996185,0.0
1614965198477874040,,30496,,1614893171,588764038,"""0""",12.0,0.0,12.3999996185,0.0
1614965198516765117,,30497,,1614893171,639007684,"""0""",12.0,0.0,12.3999996185,0.0
1614965198578059911,,30498,,1614893171,688880548,"""0""",12.0,0.0,12.3999996185,0.0
1614965198622554063,,30499,,1614893171,739329298,"""0""",12.0,0.0,12.3999996185,0.0
1614965198666554927,,30500,,1614893171,788841017,"""0""",12.0,0.0,12.3999996185,0.0
1614965198721925973,,30501,,1614893171,838799767,"""0""",12.0,0.0,12.3999996185,0.0
1614965198778553962,,30502,,1614893171,888908517,"""0""",12.0,0.0,12.3999996185,0.0
1614965198824820041,,30503,,1614893171,938809403,"""0""",12.0,0.0,12.3999996185,0.0
1614965198876251935,,30504,,1614893171,988790444,"""0""",12.0,0.0,12.3999996185,0.0
1614965198932022094,,30505,,1614893172,38870236,"""0""",12.0,0.0,12.3999996185,0.0
1614965198977809906,,30506,,1614893172,88752788,"""0""",12.0,0.0,12.3999996185,0.0
1614965199028095960,,30507,,1614893172,138807423,"""0""",12.0,0.0,12.3999996185,0.0
1614965199079701900,,30508,,1614893172,188773517,"""0""",12.0,0.0,12.3999996185,0.0
1614965199125197887,,30509,,1614893172,238849455,"""0""",12.0,0.0,12.3999996185,0.0
1614965199180222034,,30510,,1614893172,288755027,"""0""",12.0,0.0,12.3999996185,0.0
1614965199221481084,,30511,,1614893172,338824038,"""0""",12.0,0.0,12.3999996185,0.0
1614965199273327112,,30512,,1614893172,388800079,"""0""",12.0,0.0,12.3999996185,0.0
1614965199323113918,,30513,,1614893172,438816486,"""0""",12.0,0.0,12.3999996185,0.0
1614965199379652023,,30514,,1614893172,488914194,"""0""",12.0,0.0,12.3999996185,0.0
1614965199422642946,,30515,,1614893172,538803152,"""0""",12.0,0.0,12.3999996185,0.0
1614965199480158090,,30516,,1614893172,588814142,"""0""",12.0,0.0,12.3999996185,0.0
1614965199524377107,,30517,,1614893172,638844819,"""0""",12.0,0.0,12.3999996185,0.0
1614965199573725938,,30518,,1614893172,688890496,"""0""",12.0,0.0,12.3999996185,0.0
1614965199622575998,,30519,,1614893172,738951850,"""0""",12.0,0.0,12.3999996185,0.0
1614965199680464982,,30520,,1614893172,788771121,"""0""",12.0,0.0,12.3999996185,0.0
1614965199719974994,,30521,,1614893172,838779923,"""0""",12.0,0.0,12.3999996185,0.0
1614965199777465105,,30522,,1614893172,888802475,"""0""",12.0,0.0,12.3999996185,0.0
1614965199831681966,,30523,,1614893172,938811017,"""0""",12.0,0.0,12.3999996185,0.0
1614965199884821891,,30524,,1614893172,988942892,"""0""",12.0,0.0,12.3999996185,0.0
1614965199923114061,,30525,,1614893173,38986069,"""0""",12.0,0.0,12.3999996185,0.0
1614965199993505954,,30526,,1614893173,88800183,"""0""",12.0,0.0,12.3999996185,0.0
1614965200058762073,,30527,,1614893173,138802163,"""0""",12.0,0.0,12.3999996185,0.0
1614965200168895006,,30528,,1614893173,188778100,"""0""",12.0,0.0,12.3999996185,0.0
1614965200169723033,,30529,,1614893173,238833256,"""0""",12.0,0.0,12.3999996185,0.0
1614965200207057952,,30530,,1614893173,288825652,"""0""",12.0,0.0,12.3999996185,0.0
1614965200229351997,,30531,,1614893173,338808725,"""0""",12.0,0.0,12.3999996185,0.0
1614965200278331995,,30532,,1614893173,388983933,"""0""",12.0,0.0,12.3999996185,0.0
1614965200324853897,,30533,,1614893173,438789402,"""0""",12.0,0.0,12.3999996185,0.0
1614965200384393930,,30534,,1614893173,489322475,"""0""",12.0,0.0,12.3999996185,0.0
1614965200423600912,,30535,,1614893173,538914558,"""0""",12.0,0.0,12.3999996185,0.0
1614965200489430904,,30536,,1614893173,588857944,"""0""",12.0,0.0,12.3999996185,0.0
1614965200526293992,,30537,,1614893173,638817891,"""0""",12.0,0.0,12.3999996185,0.0
1614965200581938982,,30538,,1614893173,688820548,"""0""",12.0,0.0,12.3999996185,0.0
1614965200631181955,,30539,,1614893173,738921798,"""0""",12.0,0.0,12.3999996185,0.0
1614965200684526920,,30540,,1614893173,788891173,"""0""",12.0,0.0,12.3999996185,0.0
1614965200726747035,,30541,,1614893173,839272683,"""0""",12.0,0.0,12.3999996185,0.0
1614965200796477079,,30542,,1614893173,888794923,"""0""",12.0,0.0,12.3999996185,0.0
1614965200827748060,,30543,,1614893173,938915496,"""0""",12.0,0.0,12.3999996185,0.0
1614965200887093067,,30544,,1614893173,988821068,"""0""",12.0,0.0,12.3999996185,0.0
1614965200926404953,,30545,,1614893174,39008829,"""0""",12.0,0.0,12.3999996185,0.0
1614965200983520030,,30546,,1614893174,88899506,"""0""",12.0,0.0,12.3999996185,0.0
1614965201030512094,,30547,,1614893174,139209818,"""0""",12.0,0.0,12.3999996185,0.0
1614965201087258100,,30548,,1614893174,189006329,"""0""",12.0,0.0,12.3999996185,0.0
1614965201126490116,,30549,,1614893174,239827475,"""0""",12.0,0.0,12.3999996185,0.0
1614965201179663896,,30550,,1614893174,288856797,"""0""",12.0,0.0,12.3999996185,0.0
1614965201225939989,,30551,,1614893174,338810131,"""0""",12.0,0.0,12.3999996185,0.0
1614965201302396059,,30552,,1614893174,388791537,"""0""",12.0,0.0,12.3999996185,0.0
1614965201360302925,,30553,,1614893174,438991068,"""0""",12.0,0.0,12.3999996185,0.0
1614965201392718076,,30554,,1614893174,488781537,"""0""",12.0,0.0,12.3999996185,0.0
1614965201430233955,,30555,,1614893174,538801277,"""0""",12.0,0.0,12.3999996185,0.0
1614965201490262031,,30556,,1614893174,589587943,"""0""",12.0,0.0,12.3999996185,0.0
1614965201530550956,,30557,,1614893174,638918672,"""0""",12.0,0.0,12.3999996185,0.0
1614965201576385021,,30558,,1614893174,688819766,"""0""",12.0,0.0,12.3999996185,0.0
1614965201633646965,,30559,,1614893174,738884089,"""0""",12.0,0.0,12.3999996185,0.0
1614965201689614057,,30560,,1614893174,788857318,"""0""",12.0,0.0,12.3999996185,0.0
1614965201725724935,,30561,,1614893174,838803829,"""0""",12.0,0.0,12.3999996185,0.0
1614965201778868913,,30562,,1614893174,888805443,"""0""",12.0,0.0,12.3999996185,0.0
1614965201825315952,,30563,,1614893174,939254558,"""0""",12.0,0.0,12.3999996185,0.0
1614965201877931118,,30564,,1614893174,988810808,"""0""",12.0,0.0,12.3999996185,0.0
1614965201928750038,,30565,,1614893175,38906537,"""0""",12.0,0.0,12.3999996185,0.0
1614965201977991104,,30566,,1614893175,88763881,"""0""",12.0,0.0,12.3999996185,0.0
1614965202025386095,,30567,,1614893175,138796276,"""0""",12.0,0.0,12.3999996185,0.0
1614965202087138891,,30568,,1614893175,188796433,"""0""",12.0,0.0,12.3999996185,0.0
1614965202125708103,,30569,,1614893175,238912943,"""0""",12.0,0.0,12.3999996185,0.0
1614965202179162025,,30570,,1614893175,288914297,"""0""",12.0,0.0,12.3999996185,0.0
1614965202233294010,,30571,,1614893175,338956276,"""0""",12.0,0.0,12.3999996185,0.0
1614965202299391031,,30572,,1614893175,388756589,"""0""",12.0,0.0,12.3999996185,0.0
1614965202330328941,,30573,,1614893175,438844662,"""0""",12.0,0.0,12.3999996185,0.0
1614965202380285978,,30574,,1614893175,488853412,"""0""",12.0,0.0,12.3999996185,0.0
1614965202423871040,,30575,,1614893175,538788620,"""0""",12.0,0.0,12.3999996185,0.0
1614965202478097915,,30576,,1614893175,588802162,"""0""",12.0,0.0,12.3999996185,0.0
1614965202530219078,,30577,,1614893175,638806380,"""0""",12.0,0.0,12.3999996185,0.0
1614965202636429071,,30578,,1614893175,688789193,"""0""",12.0,0.0,12.3999996185,0.0
1614965202636595010,,30579,,1614893175,738779609,"""0""",12.0,0.0,12.3999996185,0.0
1614965202685266971,,30580,,1614893175,788839193,"""0""",12.0,0.0,12.3999996185,0.0
1614965202730931043,,30581,,1614893175,838924766,"""0""",12.0,0.0,12.3999996185,0.0
1614965202782937049,,30582,,1614893175,888784297,"""0""",12.0,0.0,12.3999996185,0.0
1614965202833211898,,30583,,1614893175,938923047,"""0""",12.0,0.0,12.3999996185,0.0
1614965202881125926,,30584,,1614893175,988804401,"""0""",12.0,0.0,12.3999996185,0.0
1614965202927236080,,30585,,1614893176,38854401,"""0""",12.0,0.0,12.3999996185,0.0
1614965202978236913,,30586,,1614893176,88796432,"""0""",12.0,0.0,12.3999996185,0.0
1614965203033427000,,30587,,1614893176,139288932,"""0""",12.0,0.0,12.3999996185,0.0
1614965203077625989,,30588,,1614893176,188949349,"""0""",12.0,0.0,12.3999996185,0.0
1614965203132338047,,30589,,1614893176,238818620,"""0""",12.0,0.0,12.3999996185,0.0
1614965203192539930,,30590,,1614893176,288761015,"""0""",12.0,0.0,12.3999996185,0.0
1614965203230662107,,30591,,1614893176,338891172,"""0""",12.0,0.0,12.3999996185,0.0
1614965203278650045,,30592,,1614893176,388910807,"""0""",12.0,0.0,12.3999996185,0.0
1614965203333888053,,30593,,1614893176,438895495,"""0""",12.0,0.0,12.3999996185,0.0
1614965203385032892,,30594,,1614893176,488815963,"""0""",12.0,0.0,12.3999996185,0.0
1614965203435662984,,30595,,1614893176,538886849,"""0""",12.0,0.0,12.3999996185,0.0
1614965203483866930,,30596,,1614893176,588790859,"""0""",12.0,0.0,12.3999996185,0.0
1614965203556291103,,30597,,1614893176,638798672,"""0""",12.0,0.0,12.3999996185,0.0
1614965203598778963,,30598,,1614893176,688930442,"""0""",12.0,0.0,12.3999996185,0.0
1614965203644495010,,30599,,1614893176,738809349,"""0""",12.0,0.0,12.3999996185,0.0
1614965203675900936,,30600,,1614893176,788861119,"""0""",12.0,4.875,12.3999996185,0.0
1614965203728059053,,30601,,1614893176,838898724,"""0""",12.0,4.125,12.1499996185,0.0
1614965203782867908,,30602,,1614893176,888790547,"""0""",12.0,4.75,12.1499996185,0.0
1614965203824965953,,30603,,1614893176,938819401,"""0""",12.0,6.75,12.1499996185,0.0
1614965203881401062,,30604,,1614893176,989009401,"""0""",12.0,7.125,12.1499996185,0.0
1614965203924873113,,30605,,1614893177,38802942,"""0""",12.0,6.75,11.9499998093,0.0
1614965203975738048,,30606,,1614893177,88867474,"""0""",12.0,6.0,11.9499998093,0.0
1614965204029434919,,30607,,1614893177,138858619,"""0""",12.0,5.5,11.9499998093,0.0
1614965204089071989,,30608,,1614893177,188768567,"""0""",12.0,4.75,12.0500001907,0.0
1614965204123954057,,30609,,1614893177,239711119,"""0""",12.0,4.125,12.0500001907,0.0
1614965204178303956,,30610,,1614893177,288840234,"""0""",12.0,4.0,12.0500001907,0.0
1614965204232649087,,30611,,1614893177,338926588,"""0""",12.0,2.75,12.1999998093,0.0
1614965204285229921,,30612,,1614893177,388826328,"""0""",12.0,1.75,12.1999998093,0.0
1614965204330727100,,30613,,1614893177,438985390,"""0""",12.0,1.0,12.1999998093,0.0
1614965204376360893,,30614,,1614893177,488759140,"""0""",12.0,1.0,12.3000001907,0.0
1614965204427643060,,30615,,1614893177,538891953,"""0""",12.0,1.0,12.3000001907,0.0
1614965204478449106,,30616,,1614893177,588984296,"""0""",12.0,0.625,12.3000001907,0.0
1614965204523590087,,30617,,1614893177,638791588,"""0""",12.0,0.625,12.3500003815,0.0
1614965204577877998,,30618,,1614893177,688870911,"""0""",12.0,2.375,12.3500003815,0.0
1614965204637406110,,30619,,1614893177,738876484,"""0""",12.0,3.875,12.3500003815,0.0
1614965204684252023,,30620,,1614893177,789251692,"""0""",12.0,4.0,12.3500003815,0.0
1614965204735390901,,30621,,1614893177,838913515,"""0""",12.0,4.0,12.1499996185,0.0
1614965204779597997,,30622,,1614893177,888997265,"""0""",12.0,4.25,12.1499996185,0.0
1614965204829595088,,30623,,1614893177,938807786,"""0""",12.0,4.25,12.1499996185,0.0
1614965204885199069,,30624,,1614893177,988791900,"""0""",12.0,4.25,12.1000003815,0.0
1614965204947799921,,30625,,1614893178,38855963,"""0""",12.0,4.25,12.1000003815,0.0
1614965204980797052,,30626,,1614893178,88832681,"""0""",12.0,4.125,12.1000003815,0.0
1614965205021887063,,30627,,1614893178,138799609,"""0""",12.0,4.125,12.1000003815,0.0
1614965205085120916,,30628,,1614893178,188859348,"""0""",12.0,4.25,12.1000003815,0.0
1614965205132224082,,30629,,1614893178,239368983,"""0""",12.0,3.875,12.1000003815,0.0
1614965205183410882,,30630,,1614893178,288779504,"""0""",12.0,2.375,12.25,0.0
1614965205221504926,,30631,,1614893178,338801223,"""0""",12.0,2.0,12.25,0.0
1614965205276690959,,30632,,1614893178,388767421,"""0""",12.0,3.75,12.25,0.0
1614965205328334093,,30633,,1614893178,438790598,"""0""",12.0,4.0,12.1999998093,0.0
1614965205380594968,,30634,,1614893178,488849088,"""0""",12.0,4.0,12.1999998093,0.0
1614965205419375896,,30635,,1614893178,539312160,"""0""",12.0,3.75,12.1999998093,0.0
1614965205485347032,,30636,,1614893178,588796327,"""0""",12.0,2.375,12.1999998093,0.0
1614965205522692918,,30637,,1614893178,638832213,"""0""",12.0,1.75,12.25,0.0
1614965205579842090,,30638,,1614893178,688807942,"""0""",12.0,2.75,12.25,0.0
1614965205622553110,,30639,,1614893178,738799348,"""0""",12.0,3.875,12.25,0.0
1614965205682960987,,30640,,1614893178,789018098,"""0""",12.0,2.75,12.1999998093,0.0
1614965205725044012,,30641,,1614893178,838956327,"""0""",12.0,1.0,12.1999998093,0.0
1614965205780249118,,30642,,1614893178,888820546,"""0""",12.0,1.0,12.1999998093,0.0
1614965205831846952,,30643,,1614893178,938783775,"""0""",12.0,1.375,12.25,0.0
1614965205883234024,,30644,,1614893178,988794244,"""0""",12.0,1.375,12.25,0.0
1614965205921044111,,30645,,1614893179,38951692,"""0""",12.0,0.625,12.25,0.0
1614965205979773998,,30646,,1614893179,89005754,"""0""",12.0,0.375,12.3500003815,0.0
1614965206026947975,,30647,,1614893179,139264504,"""0""",12.0,0.375,12.3500003815,0.0
1614965206080086946,,30648,,1614893179,188787994,"""0""",12.0,0.375,12.3500003815,0.0
1614965206154253005,,30649,,1614893179,238874608,"""0""",12.0,0.375,12.3500003815,0.0
1614965206191716909,,30650,,1614893179,288823723,"""0""",12.0,0.375,12.3500003815,0.0
1614965206226995944,,30651,,1614893179,339075702,"""0""",12.0,0.375,12.3500003815,0.0
1614965206307892084,,30652,,1614893179,388870493,"""0""",12.0,0.375,12.3500003815,0.0
1614965206342938899,,30653,,1614893179,438804139,"""0""",12.0,0.375,12.3500003815,0.0
1614965206387891054,,30654,,1614893179,488840233,"""0""",12.0,0.375,12.3500003815,0.0
1614965206482767105,,30655,,1614893179,538811691,"""0""",12.0,0.625,12.3500003815,0.0
1614965206483047008,,30656,,1614893179,588787056,"""0""",12.0,1.75,12.25,0.0
1614965206527488946,,30657,,1614893179,638815181,"""0""",12.0,1.75,12.25,0.0
1614965206582644939,,30658,,1614893179,688795806,"""0""",12.0,1.375,12.25,0.0
1614965206626269102,,30659,,1614893179,738925806,"""0""",12.0,3.875,12.1999998093,0.0
1614965206675266027,,30660,,1614893179,788785493,"""0""",12.0,3.875,12.1999998093,0.0
1614965206722260951,,30661,,1614893179,839058566,"""0""",12.0,2.75,12.1999998093,0.0
1614965206772708892,,30662,,1614893179,888853566,"""0""",12.0,2.75,12.1999998093,0.0
1614965206827059984,,30663,,1614893179,938966483,"""0""",12.0,2.75,12.1999998093,0.0
1614965206886487007,,30664,,1614893179,988822368,"""0""",12.0,2.0,12.1999998093,0.0
1614965206926222085,,30665,,1614893180,39081847,"""0""",11.0,2.375,12.1999998093,0.0
1614965206976639986,,30666,,1614893180,88786639,"""0""",11.0,2.375,12.1999998093,0.0
1614965207028289079,,30667,,1614893180,138825597,"""0""",11.0,1.375,12.1999998093,0.0
1614965207079320907,,30668,,1614893180,189149139,"""0""",11.0,1.375,12.1999998093,0.0
1614965207135411024,,30669,,1614893180,238913879,"""0""",12.0,1.75,12.25,0.0
1614965207184463977,,30670,,1614893180,288881795,"""0""",12.0,1.0,12.25,0.0
1614965207228588104,,30671,,1614893180,338892472,"""0""",12.0,1.0,12.25,0.0
1614965207281064033,,30672,,1614893180,389284868,"""0""",12.0,1.75,12.25,0.0
1614965207369792938,,30673,,1614893180,438959399,"""0""",12.0,2.375,12.25,0.0
1614965207412133932,,30674,,1614893180,488827993,"""0""",12.0,3.0,12.25,0.0
1614965207453263044,,30675,,1614893180,539010701,"""0""",11.0,3.0,12.1999998093,0.0
1614965207487708091,,30676,,1614893180,588811847,"""0""",11.0,3.375,12.1999998093,0.0
1614965207531310081,,30677,,1614893180,638868410,"""0""",11.0,3.875,12.1999998093,0.0
1614965207592581033,,30678,,1614893180,688815649,"""0""",11.0,3.875,12.1999998093,0.0
1614965207660275936,,30679,,1614893180,738801743,"""0""",11.0,3.75,12.1999998093,0.0
1614965207703073978,,30680,,1614893180,788977264,"""0""",11.0,2.75,12.1999998093,0.0
1614965207739689111,,30681,,1614893180,838822316,"""0""",11.0,3.875,12.1000003815,0.0
1614965207793806076,,30682,,1614893180,888757576,"""0""",11.0,4.0,12.1000003815,0.0
1614965207857537984,,30683,,1614893180,938783201,"""0""",11.0,3.875,12.1000003815,0.0
1614965207910671949,,30684,,1614893180,988753670,"""0""",11.0,3.875,12.1000003815,0.0
1614965207950696945,,30685,,1614893181,38812107,"""0""",11.0,3.0,12.1999998093,0.0
1614965207982964992,,30686,,1614893181,88984972,"""0""",11.0,3.875,12.1999998093,0.0
1614965208033579111,,30687,,1614893181,138918253,"""0""",11.0,4.125,12.1999998093,0.0
1614965208089375972,,30688,,1614893181,188798982,"""0""",11.0,4.0,12.1999998093,0.0
1614965208140152931,,30689,,1614893181,238817055,"""0""",11.0,3.75,12.1999998093,0.0
1614965208180500984,,30690,,1614893181,288776951,"""0""",11.0,3.0,12.1999998093,0.0
1614965208223412036,,30691,,1614893181,339060857,"""0""",11.0,2.0,12.25,0.0
1614965208298682928,,30692,,1614893181,388860076,"""0""",11.0,2.0,12.25,0.0
1614965208365894079,,30693,,1614893181,438804139,"""0""",11.0,3.875,12.25,0.0
1614965208402034044,,30694,,1614893181,488757732,"""0""",11.0,3.875,12.1999998093,0.0
1614965208454468965,,30695,,1614893181,539317472,"""0""",11.0,3.75,12.1999998093,0.0
1614965208493860960,,30696,,1614893181,588789451,"""0""",11.0,3.0,12.1999998093,0.0
1614965208562987089,,30697,,1614893181,638796170,"""0""",11.0,2.75,12.1999998093,0.0
1614965208611963033,,30698,,1614893181,688758722,"""0""",11.0,2.75,12.1999998093,0.0
1614965208663691043,,30699,,1614893181,738801534,"""0""",11.0,2.0,12.1999998093,0.0
1614965208727449893,,30700,,1614893181,788758253,"""0""",11.0,1.75,12.1999998093,0.0
1614965208760525941,,30701,,1614893181,838862680,"""0""",11.0,2.75,12.25,0.0
1614965208861972093,,30702,,1614893181,888756586,"""0""",11.0,3.875,12.25,0.0
1614965208862095117,,30703,,1614893181,938796586,"""0""",11.0,3.875,12.25,0.0
1614965208913811922,,30704,,1614893181,988780336,"""0""",11.0,3.0,12.1999998093,0.0
1614965208964849948,,30705,,1614893182,40136795,"""0""",11.0,3.0,12.1999998093,0.0
1614965209025347948,,30706,,1614893182,88763982,"""0""",11.0,2.75,12.1999998093,0.0
1614965209062717914,,30707,,1614893182,138797784,"""0""",11.0,3.375,12.1999998093,0.0
1614965209111563920,,30708,,1614893182,189046742,"""0""",11.0,3.875,12.1999998093,0.0
1614965209177907943,,30709,,1614893182,238805857,"""0""",11.0,3.875,12.1999998093,0.0
1614965209213372945,,30710,,1614893182,289021117,"""0""",11.0,3.875,12.1499996185,0.0
1614965209257946968,,30711,,1614893182,338807628,"""0""",11.0,4.0,12.1499996185,0.0
1614965209295960903,,30712,,1614893182,388800596,"""0""",11.0,4.0,12.1499996185,0.0
1614965209348100900,,30713,,1614893182,439056846,"""0""",11.0,3.0,12.1999998093,0.0
1614965209393203973,,30714,,1614893182,489272419,"""0""",11.0,2.0,12.1999998093,0.0
1614965209489782094,,30715,,1614893182,539210284,"""0""",11.0,2.75,12.1999998093,0.0
1614965209489805936,,30716,,1614893182,588822263,"""0""",11.0,3.375,12.1999998093,0.0
1614965209548738002,,30717,,1614893182,638908826,"""0""",11.0,3.75,12.1999998093,0.0
1614965209600117921,,30718,,1614893182,689316273,"""0""",11.0,3.0,12.1999998093,0.0
1614965209633573055,,30719,,1614893182,738803982,"""0""",11.0,2.375,12.1999998093,0.0
1614965209682904958,,30720,,1614893182,788778096,"""0""",11.0,2.0,12.1999998093,0.0
1614965209765685081,,30721,,1614893182,839024242,"""0""",11.0,3.0,12.1999998093,0.0
1614965209820552110,,30722,,1614893182,888777315,"""0""",11.0,3.75,12.1999998093,0.0
1614965209859419107,,30723,,1614893182,938863305,"""0""",11.0,3.0,12.1999998093,0.0
1614965209895934104,,30724,,1614893182,988832523,"""0""",11.0,3.75,12.1999998093,0.0
1614965209931833028,,30725,,1614893183,38972680,"""0""",11.0,4.25,12.1999998093,0.0
1614965210018981933,,30726,,1614893183,88760127,"""0""",11.0,4.125,12.1499996185,0.0
1614965210095083951,,30727,,1614893183,138880648,"""0""",11.0,4.0,12.1499996185,0.0
1614965210129002094,,30728,,1614893183,189452107,"""0""",11.0,4.0,12.1499996185,0.0
1614965210129287958,,30729,,1614893183,239534763,"""0""",11.0,4.0,12.1499996185,0.0
1614965210187752962,,30730,,1614893183,288825857,"""0""",11.0,3.875,12.1499996185,0.0
1614965210227891921,,30731,,1614893183,338957784,"""0""",11.0,3.875,12.1499996185,0.0
1614965210285795927,,30732,,1614893183,388765127,"""0""",11.0,3.875,12.1499996185,0.0
1614965210377180099,,30733,,1614893183,438888461,"""0""",11.0,3.375,12.1499996185,0.0
1614965210419292926,,30734,,1614893183,488815179,"""0""",11.0,3.375,12.1499996185,0.0
1614965210501230001,,30735,,1614893183,538802784,"""0""",11.0,3.875,12.1499996185,0.0
1614965210501365900,,30736,,1614893183,588824919,"""0""",11.0,3.875,12.1499996185,0.0
1614965210559636116,,30737,,1614893183,638797523,"""0""",11.0,3.875,12.1499996185,0.0
1614965210587532043,,30738,,1614893183,688818669,"""0""",11.0,3.0,12.1499996185,0.0
1614965210670694112,,30739,,1614893183,738768565,"""0""",11.0,3.75,12.1499996185,0.0
1614965210715643882,,30740,,1614893183,788799763,"""0""",11.0,3.75,12.1499996185,0.0
1614965210768414974,,30741,,1614893183,838785544,"""0""",11.0,2.375,12.1499996185,0.0
1614965210818397998,,30742,,1614893183,888807523,"""0""",11.0,2.0,12.25,0.0
1614965210863102912,,30743,,1614893183,938808981,"""0""",11.0,1.75,12.25,0.0
1614965210908253908,,30744,,1614893183,988802263,"""0""",11.0,2.75,12.25,0.0
1614965210952373027,,30745,,1614893184,39209085,"""0""",11.0,3.0,12.1499996185,0.0
1614965210991002082,,30746,,1614893184,88787002,"""0""",11.0,3.0,12.1499996185,0.0
1614965211035490989,,30747,,1614893184,140492523,"""0""",11.0,2.0,12.1499996185,0.0
1614965211083703041,,30748,,1614893184,188781846,"""0""",11.0,1.75,12.1499996185,0.0
1614965211199471950,,30749,,1614893184,238787262,"""0""",11.0,1.0,12.25,0.0
1614965211199860095,,30750,,1614893184,288801377,"""0""",11.0,1.0,12.25,0.0
1614965211235263109,,30751,,1614893184,338982679,"""0""",11.0,1.75,12.25,0.0
1614965211288021087,,30752,,1614893184,388766273,"""0""",11.0,1.0,12.25,0.0
1614965211346756935,,30753,,1614893184,438793877,"""0""",11.0,1.0,12.25,0.0
1614965211402784109,,30754,,1614893184,488873877,"""0""",11.0,1.0,12.25,0.0
1614965211446293115,,30755,,1614893184,539234606,"""0""",11.0,1.75,12.1999998093,0.0
1614965211495738983,,30756,,1614893184,588764502,"""0""",11.0,1.375,12.1999998093,0.0
1614965211536360979,,30757,,1614893184,638782158,"""0""",11.0,0.625,12.1999998093,0.0
1614965211644201993,,30758,,1614893184,688769085,"""0""",11.0,1.0,12.25,0.0
1614965211710619926,,30759,,1614893184,739159762,"""0""",11.0,3.0,12.25,0.0
1614965211710722923,,30760,,1614893184,788770179,"""0""",11.0,3.375,12.25,0.0
1614965211800354957,,30761,,1614893184,838807627,"""0""",11.0,2.75,12.1999998093,0.0
1614965211800493001,,30762,,1614893184,888891585,"""0""",11.0,2.75,12.1999998093,0.0
1614965211839013099,,30763,,1614893184,938802991,"""0""",11.0,3.75,12.1999998093,0.0
1614965211893079996,,30764,,1614893184,988770491,"""0""",11.0,4.0,12.1999998093,0.0
1614965211952902078,,30765,,1614893185,38771793,"""0""",11.0,3.875,12.1000003815,0.0
1614965212054406881,,30766,,1614893185,88868929,"""0""",11.0,3.375,12.1000003815,0.0
1614965212054514884,,30767,,1614893185,138897991,"""0""",11.0,3.75,12.1000003815,0.0
1614965212100503921,,30768,,1614893185,189125856,"""0""",11.0,3.75,12.1999998093,0.0
1614965212160810947,,30769,,1614893185,238812991,"""0""",11.0,3.875,12.1999998093,0.0
1614965212213531970,,30770,,1614893185,288757418,"""0""",11.0,2.375,12.1999998093,0.0
1614965212279015064,,30771,,1614893185,339154554,"""0""",11.0,1.375,12.25,0.0
1614965212353174924,,30772,,1614893185,388749762,"""0""",11.0,1.75,12.25,0.0
1614965212421801090,,30773,,1614893185,438844397,"""0""",11.0,3.375,12.25,0.0
1614965212421909093,,30774,,1614893185,488840752,"""0""",11.0,3.875,12.1999998093,0.0
1614965212475810050,,30775,,1614893185,538793408,"""0""",11.0,2.0,12.1999998093,0.0
1614965212530677080,,30776,,1614893185,588908252,"""0""",11.0,1.0,12.1999998093,0.0
1614965212606005907,,30777,,1614893185,639152470,"""0""",11.0,1.375,12.25,0.0
1614965212606247901,,30778,,1614893185,688813876,"""0""",11.0,2.0,12.25,0.0
1614965212660576105,,30779,,1614893185,738922001,"""0""",11.0,1.75,12.25,0.0
1614965212713763952,,30780,,1614893185,788800908,"""0""",11.0,1.375,12.25,0.0
1614965212766509056,,30781,,1614893185,838924762,"""0""",11.0,2.375,12.25,0.0
1614965212829392910,,30782,,1614893185,888793095,"""0""",11.0,2.75,12.25,0.0
1614965212886921882,,30783,,1614893185,939371637,"""0""",11.0,2.75,12.25,0.0
1614965212933389902,,30784,,1614893185,988789866,"""0""",11.0,3.0,12.1999998093,0.0
1614965212983171939,,30785,,1614893186,39046116,"""0""",11.0,4.0,12.1999998093,0.0
1614965213029546022,,30786,,1614893186,88796637,"""0""",11.0,4.625,12.1999998093,0.0
1614965213085299968,,30787,,1614893186,138806168,"""0""",11.0,5.125,12.0,0.0
1614965213134495973,,30788,,1614893186,188838303,"""0""",11.0,4.625,12.0,0.0
1614965213187288999,,30789,,1614893186,238826741,"""0""",11.0,4.75,12.0,0.0
1614965213246910095,,30790,,1614893186,288779449,"""0""",11.0,5.125,12.0,0.0
1614965213247257947,,30791,,1614893186,338768512,"""0""",11.0,4.875,12.0,0.0
1614965213313304901,,30792,,1614893186,388809085,"""0""",11.0,5.125,12.0,0.0
1614965213385185003,,30793,,1614893186,438759241,"""0""",11.0,6.375,11.8999996185,0.0
1614965213445146083,,30794,,1614893186,488783876,"""0""",11.0,6.375,11.8999996185,0.0
1614965213445250988,,30795,,1614893186,538896793,"""0""",11.0,6.125,11.8999996185,0.0
1614965213496443986,,30796,,1614893186,589201897,"""0""",11.0,6.5,11.8999996185,0.0
1614965213539398908,,30797,,1614893186,638786689,"""0""",11.0,4.75,12.0500001907,0.0
1614965213586469888,,30798,,1614893186,688938251,"""0""",11.0,4.875,12.0500001907,0.0
1614965213703672885,,30799,,1614893186,738842626,"""0""",11.0,5.25,12.0500001907,0.0
1614965213774758100,,30800,,1614893186,788846011,"""0""",11.0,4.625,12.0500001907,0.0
1614965213775122880,,30801,,1614893186,838870595,"""0""",11.0,5.25,12.0500001907,0.0
1614965213814382076,,30802,,1614893186,888823824,"""0""",11.0,5.625,12.0500001907,0.0
1614965213887784957,,30803,,1614893186,938882782,"""0""",11.0,6.125,11.8500003815,0.0
1614965213988792896,,30804,,1614893186,988761324,"""0""",11.0,5.625,11.8500003815,0.0
1614965213989053964,,30805,,1614893187,38791532,"""0""",11.0,5.5,11.8500003815,0.0
1614965214033034086,,30806,,1614893187,88791428,"""0""",11.0,5.5,12.0,0.0
1614965214073858976,,30807,,1614893187,138802209,"""0""",11.0,5.0,12.0,0.0
1614965214140563011,,30808,,1614893187,188900230,"""0""",11.0,5.5,12.0,0.0
1614965214140712976,,30809,,1614893187,238829188,"""0""",11.0,5.25,12.0,0.0
1614965214197343111,,30810,,1614893187,288823043,"""0""",11.0,5.25,12.0,0.0
1614965214268088102,,30811,,1614893187,338798355,"""0""",11.0,5.125,12.0,0.0
1614965214319617986,,30812,,1614893187,388994188,"""0""",11.0,4.875,12.0,0.0
1614965214388376951,,30813,,1614893187,438849553,"""0""",11.0,4.625,12.0,0.0
1614965214443753957,,30814,,1614893187,489072938,"""0""",11.0,5.25,12.0,0.0
1614965214443875074,,30815,,1614893187,538823928,"""0""",11.0,6.125,12.0,0.0
1614965214488198995,,30816,,1614893187,589385386,"""0""",11.0,5.375,12.0,0.0
1614965214575730085,,30817,,1614893187,638766324,"""0""",11.0,5.125,12.0,0.0
1614965214642460107,,30818,,1614893187,689284344,"""0""",11.0,5.0,12.0,0.0
1614965214708029031,,30819,,1614893187,738966063,"""0""",11.0,4.875,12.0,0.0
1614965214708272933,,30820,,1614893187,788810647,"""0""",11.0,5.375,12.0,0.0
1614965214763031005,,30821,,1614893187,838785126,"""0""",11.0,5.75,12.0,0.0
1614965214882731914,,30822,,1614893187,888868355,"""0""",11.0,6.25,11.8999996185,0.0
1614965214882941961,,30823,,1614893187,938872521,"""0""",11.0,5.5,11.8999996185,0.0
1614965214926081895,,30824,,1614893187,988799344,"""0""",11.0,6.125,11.8999996185,0.0
1614965214974335908,,30825,,1614893188,38871167,"""0""",11.0,5.75,12.0,0.0
1614965215019866943,,30826,,1614893188,88809865,"""0""",11.0,5.25,12.0,0.0
1614965215223294973,,30827,,1614893188,138807573,"""0""",11.0,5.875,12.0,0.0
1614965215223398923,,30828,,1614893188,188959188,"""0""",11.0,5.5,12.0,0.0
1614965215223422050,,30829,,1614893188,238780126,"""0""",11.0,5.875,11.8999996185,0.0
1614965215223442077,,30830,,1614893188,288907938,"""0""",11.0,5.875,11.8999996185,0.0
1614965215253894090,,30831,,1614893188,338881688,"""0""",11.0,5.875,11.8999996185,0.0
1614965215308219909,,30832,,1614893188,388841792,"""0""",11.0,6.25,11.8999996185,0.0
1614965215358342885,,30833,,1614893188,438777469,"""0""",11.0,5.75,11.8999996185,0.0
1614965215512834072,,30834,,1614893188,488935802,"""0""",11.0,6.125,11.8999996185,0.0
1614965215557288885,,30835,,1614893188,538891584,"""0""",11.0,5.5,12.0,0.0
1614965215557393074,,30836,,1614893188,588859292,"""0""",11.0,5.25,12.0,0.0
1614965215557558059,,30837,,1614893188,639113250,"""0""",11.0,5.25,12.0,0.0
1614965215596755027,,30838,,1614893188,688803407,"""0""",11.0,5.25,11.9499998093,0.0
1614965215650896072,,30839,,1614893188,738864657,"""0""",11.0,6.125,11.9499998093,0.0
1614965215683834075,,30840,,1614893188,788784761,"""0""",11.0,6.125,11.9499998093,0.0
1614965215798849105,,30841,,1614893188,838888927,"""0""",11.0,6.375,11.8999996185,0.0
1614965215798995971,,30842,,1614893188,888751740,"""0""",11.0,6.125,11.8999996185,0.0
1614965215834657907,,30843,,1614893188,938750802,"""0""",11.0,5.875,11.8999996185,0.0
1614965215886636972,,30844,,1614893188,988908719,"""0""",11.0,6.375,11.8999996185,0.0
1614965215940146923,,30845,,1614893189,38771115,"""0""",11.0,5.5,11.8999996185,0.0
1614965215982988119,,30846,,1614893189,88813875,"""0""",11.0,5.125,11.8999996185,0.0
1614965216065520048,,30847,,1614893189,138763927,"""0""",11.0,5.5,11.8999996185,0.0
1614965216114231109,,30848,,1614893189,188784604,"""0""",11.0,5.0,12.0,0.0
1614965216189822912,,30849,,1614893189,238764813,"""0""",11.0,4.875,12.0,0.0
1614965216189956903,,30850,,1614893189,288994656,"""0""",11.0,4.625,12.0,0.0
1614965216239418983,,30851,,1614893189,338873823,"""0""",11.0,4.5,12.0500001907,0.0
1614965216302653074,,30852,,1614893189,388972625,"""0""",11.0,4.5,12.0500001907,0.0
1614965216351813077,,30853,,1614893189,439116219,"""0""",11.0,4.375,12.0500001907,0.0
1614965216405040979,,30854,,1614893189,488952000,"""0""",11.0,4.25,12.0500001907,0.0
1614965216442487955,,30855,,1614893189,538798719,"""0""",11.0,3.875,12.0500001907,0.0
1614965216482471942,,30856,,1614893189,588827729,"""0""",11.0,4.0,12.0500001907,0.0
1614965216539251089,,30857,,1614893189,638794240,"""0""",11.0,4.0,12.1000003815,0.0
1614965216587876081,,30858,,1614893189,688953406,"""0""",11.0,4.0,12.1000003815,0.0
1614965216655646085,,30859,,1614893189,738763875,"""0""",11.0,3.875,12.1000003815,0.0
1614965216749164104,,30860,,1614893189,789020958,"""0""",11.0,3.875,12.1000003815,0.0
1614965216749881029,,30861,,1614893189,838766948,"""0""",11.0,2.75,12.1000003815,0.0
1614965216789350032,,30862,,1614893189,888926896,"""0""",11.0,1.75,12.1000003815,0.0
1614965216846738100,,30863,,1614893189,938769396,"""0""",11.0,1.375,12.1000003815,0.0
1614965216894748926,,30864,,1614893189,989502364,"""0""",11.0,1.375,12.1999998093,0.0
1614965216974338054,,30865,,1614893190,38751635,"""0""",11.0,1.0,12.1999998093,0.0
1614965217040354013,,30866,,1614893190,89696062,"""0""",11.0,0.625,12.1999998093,0.0
1614965217040719032,,30867,,1614893190,138930958,"""0""",11.0,0.375,12.25,0.0
1614965217082036972,,30868,,1614893190,188911271,"""0""",11.0,0.375,12.25,0.0
1614965217147977113,,30869,,1614893190,238759708,"""0""",11.0,0.0,12.25,0.0
1614965217184617042,,30870,,1614893190,288859604,"""0""",11.0,0.0,12.3000001907,0.0
1614965217237924098,,30871,,1614893190,338932781,"""0""",11.0,0.375,12.3000001907,0.0
1614965217283905029,,30872,,1614893190,388869031,"""0""",11.0,0.375,12.3000001907,0.0
1614965217336652040,,30873,,1614893190,438785750,"""0""",11.0,0.0,12.3000001907,0.0
1614965217382951974,,30874,,1614893190,489364968,"""0""",11.0,0.0,12.3000001907,0.0
1614965217433902025,,30875,,1614893190,538820281,"""0""",11.0,0.375,12.3000001907,0.0
1614965217478316068,,30876,,1614893190,588851739,"""0""",11.0,0.0,12.3000001907,0.0
1614965217546392917,,30877,,1614893190,638759864,"""0""",11.0,0.0,12.3000001907,0.0
1614965217604927062,,30878,,1614893190,690024916,"""0""",11.0,0.375,12.3000001907,0.0
1614965217650829076,,30879,,1614893190,738823614,"""0""",11.0,0.375,12.3000001907,0.0
1614965217702824115,,30880,,1614893190,789362989,"""0""",11.0,0.375,12.25,0.0
1614965217740524053,,30881,,1614893190,838906218,"""0""",11.0,0.375,12.25,0.0
1614965217776609897,,30882,,1614893190,888855333,"""0""",11.0,0.375,12.25,0.0
1614965217830758094,,30883,,1614893190,938830697,"""0""",11.0,0.375,12.25,0.0
1614965217904866933,,30884,,1614893190,989029656,"""0""",11.0,0.375,12.25,0.0
1614965217952250003,,30885,,1614893191,38787468,"""0""",11.0,1.375,12.25,0.0
1614965217993848085,,30886,,1614893191,88920333,"""0""",11.0,1.375,12.1999998093,0.0
1614965218037807941,,30887,,1614893191,138801010,"""0""",11.0,1.75,12.1999998093,0.0
1614965218083343982,,30888,,1614893191,188854499,"""0""",11.0,3.0,12.1999998093,0.0
1614965218137370109,,30889,,1614893191,238764551,"""0""",11.0,3.375,12.1999998093,0.0
1614965218187576055,,30890,,1614893191,289070489,"""0""",11.0,2.0,12.1999998093,0.0
1614965218235291957,,30891,,1614893191,338783562,"""0""",11.0,0.625,12.1999998093,0.0
1614965218290687084,,30892,,1614893191,388776947,"""0""",11.0,0.625,12.1999998093,0.0
1614965218336076021,,30893,,1614893191,438790749,"""0""",11.0,0.625,12.25,0.0
1614965218384006977,,30894,,1614893191,488818353,"""0""",11.0,1.0,12.25,0.0
1614965218459501981,,30895,,1614893191,538877468,"""0""",11.0,2.75,12.25,0.0
1614965218513768911,,30896,,1614893191,588786583,"""0""",11.0,3.75,12.1000003815,0.0
1614965218580673933,,30897,,1614893191,638791791,"""0""",11.0,3.375,12.1000003815,0.0
1614965218618927955,,30898,,1614893191,688814083,"""0""",11.0,2.375,12.1000003815,0.0
1614965218669707059,,30899,,1614893191,738823145,"""0""",11.0,2.375,12.1999998093,0.0
1614965218768409013,,30900,,1614893191,788741582,"""0""",11.0,3.875,12.1999998093,0.0
1614965218768440008,,30901,,1614893191,838860332,"""0""",11.0,4.125,12.1999998093,0.0
1614965218814338922,,30902,,1614893191,888784343,"""0""",11.0,4.125,12.1000003815,0.0
1614965218887803077,,30903,,1614893191,938948874,"""0""",11.0,4.375,12.1000003815,0.0
1614965218887921094,,30904,,1614893191,988810332,"""0""",11.0,4.375,12.1000003815,0.0
1614965218937323093,,30905,,1614893192,38764551,"""0""",11.0,4.75,12.0,0.0
1614965218977346897,,30906,,1614893192,88832780,"""0""",11.0,4.5,12.0,0.0
1614965219044286966,,30907,,1614893192,138778614,"""0""",11.0,4.625,12.0,0.0
1614965219082392930,,30908,,1614893192,188837207,"""0""",11.0,4.375,12.0,0.0
1614965219135330915,,30909,,1614893192,238776582,"""0""",11.0,4.375,12.0500001907,0.0
1614965219186328887,,30910,,1614893192,288987676,"""0""",11.0,4.5,12.0500001907,0.0
1614965219234517097,,30911,,1614893192,339005072,"""0""",11.0,4.875,12.0500001907,0.0
1614965219285245895,,30912,,1614893192,388789499,"""0""",11.0,4.625,12.0,0.0
1614965219342492103,,30913,,1614893192,438885124,"""0""",11.0,4.5,12.0,0.0
1614965219383315086,,30914,,1614893192,488884395,"""0""",11.0,4.375,12.0,0.0
1614965219442590951,,30915,,1614893192,538923353,"""0""",11.0,4.375,12.0500001907,0.0
1614965219487900972,,30916,,1614893192,588985957,"""0""",11.0,4.5,12.0500001907,0.0
1614965219538618087,,30917,,1614893192,638840645,"""0""",11.0,4.75,12.0500001907,0.0
1614965219589534044,,30918,,1614893192,688805749,"""0""",11.0,5.0,12.0,0.0
1614965219646991014,,30919,,1614893192,738889186,"""0""",11.0,4.5,12.0,0.0
1614965219681209087,,30920,,1614893192,788774915,"""0""",11.0,4.625,12.0,0.0
1614965219737574100,,30921,,1614893192,838893457,"""0""",11.0,4.625,12.0500001907,0.0
1614965219816776037,,30922,,1614893192,888833092,"""0""",11.0,4.625,12.0500001907,0.0
1614965219851942062,,30923,,1614893192,938870280,"""0""",11.0,4.625,12.0500001907,0.0
1614965219899166107,,30924,,1614893192,988824915,"""0""",11.0,4.625,12.0500001907,0.0
1614965219982840061,,30925,,1614893193,38772728,"""0""",11.0,4.5,12.0500001907,0.0
1614965220081880092,,30926,,1614893193,88785332,"""0""",11.0,4.5,12.0500001907,0.0
1614965220081988096,,30927,,1614893193,138784967,"""0""",11.0,4.75,12.0500001907,0.0
1614965220138576030,,30928,,1614893193,189129863,"""0""",11.0,4.75,12.0,0.0
1614965220138778924,,30929,,1614893193,239048822,"""0""",11.0,4.625,12.0,0.0
1614965220191934108,,30930,,1614893193,288856738,"""0""",11.0,4.375,12.0,0.0
1614965220239870071,,30931,,1614893193,338782155,"""0""",11.0,4.375,12.0,0.0
1614965220282021045,,30932,,1614893193,388789499,"""0""",11.0,4.375,12.0,0.0
1614965220334379911,,30933,,1614893193,438763874,"""0""",11.0,4.5,12.0,0.0
1614965220385713100,,30934,,1614893193,488984603,"""0""",11.0,4.5,12.0500001907,0.0
1614965220432353973,,30935,,1614893193,538769759,"""0""",11.0,4.5,12.0500001907,0.0
1614965220491947889,,30936,,1614893193,588786165,"""0""",11.0,4.375,12.0500001907,0.0
1614965220540241956,,30937,,1614893193,638791738,"""0""",11.0,4.375,12.0500001907,0.0
1614965220589031934,,30938,,1614893193,688805332,"""0""",11.0,4.5,12.0500001907,0.0
1614965220671885013,,30939,,1614893193,738809498,"""0""",11.0,4.375,12.0500001907,0.0
1614965220710352897,,30940,,1614893193,788801582,"""0""",11.0,4.375,12.0500001907,0.0
1614965220761373996,,30941,,1614893193,838783092,"""0""",11.0,4.125,12.1000003815,0.0
1614965220807713985,,30942,,1614893193,888728092,"""0""",11.0,4.125,12.1000003815,0.0
1614965220877159118,,30943,,1614893193,938883040,"""0""",11.0,4.125,12.1000003815,0.0
1614965220915541887,,30944,,1614893193,988806217,"""0""",11.0,4.25,12.0500001907,0.0
1614965220967649936,,30945,,1614893194,38794550,"""0""",11.0,4.25,12.0500001907,0.0
1614965221007503032,,30946,,1614893194,88843769,"""0""",11.0,4.125,12.0500001907,0.0
1614965221055929899,,30947,,1614893194,138800696,"""0""",11.0,4.0,12.1000003815,0.0
1614965221088435888,,30948,,1614893194,188788352,"""0""",11.0,4.0,12.1000003815,0.0
1614965221159913063,,30949,,1614893194,238796113,"""0""",11.0,4.125,12.1000003815,0.0
1614965221214473962,,30950,,1614893194,288825592,"""0""",11.0,4.25,12.0500001907,0.0
1614965221257493972,,30951,,1614893194,338904654,"""0""",11.0,4.125,12.0500001907,0.0
1614965221296458959,,30952,,1614893194,388896269,"""0""",11.0,4.125,12.0500001907,0.0
1614965221347440958,,30953,,1614893194,438872831,"""0""",11.0,4.125,12.0500001907,0.0
1614965221382838010,,30954,,1614893194,488791529,"""0""",11.0,4.125,12.0500001907,0.0
1614965221456259965,,30955,,1614893194,538940852,"""0""",11.0,4.125,12.0500001907,0.0
1614965221489268064,,30956,,1614893194,588866425,"""0""",11.0,4.125,12.0500001907,0.0
1614965221527597904,,30957,,1614893194,638831269,"""0""",11.0,4.0,12.1000003815,0.0
1614965221580285072,,30958,,1614893194,688758821,"""0""",11.0,4.125,12.1000003815,0.0
1614965221634289979,,30959,,1614893194,738796008,"""0""",11.0,4.25,12.1000003815,0.0
1614965221688076972,,30960,,1614893194,788784863,"""0""",11.0,4.25,12.0500001907,0.0
1614965221739988088,,30961,,1614893194,839003769,"""0""",11.0,4.125,12.0500001907,0.0
1614965221789299964,,30962,,1614893194,888870748,"""0""",11.0,4.0,12.0500001907,0.0
1614965221836414098,,30963,,1614893194,938888248,"""0""",11.0,4.125,12.0500001907,0.0
1614965221934664011,,30964,,1614893194,988814654,"""0""",11.0,4.125,12.0500001907,0.0
1614965221934858083,,30965,,1614893195,38975748,"""0""",11.0,4.25,12.0500001907,0.0
1614965221999500036,,30966,,1614893195,88933456,"""0""",11.0,4.25,12.0500001907,0.0
1614965222036039113,,30967,,1614893195,138786477,"""0""",11.0,4.125,12.0500001907,0.0
1614965222088527917,,30968,,1614893195,188764654,"""0""",11.0,4.125,12.0500001907,0.0
1614965222130023956,,30969,,1614893195,239744446,"""0""",11.0,4.125,12.0500001907,0.0
1614965222190231084,,30970,,1614893195,288897623,"""0""",11.0,4.125,12.0500001907,0.0
1614965222233584880,,30971,,1614893195,338781373,"""0""",11.0,4.0,12.0500001907,0.0
1614965222292643070,,30972,,1614893195,388819133,"""0""",11.0,3.875,12.0500001907,0.0
1614965222355186939,,30973,,1614893195,438784967,"""0""",11.0,3.875,12.1499996185,0.0
1614965222415594100,,30974,,1614893195,488799862,"""0""",11.0,4.0,12.1499996185,0.0
1614965222457483053,,30975,,1614893195,538760071,"""0""",11.0,4.25,12.1499996185,0.0
1614965222495409011,,30976,,1614893195,588772623,"""0""",11.0,4.25,12.0500001907,0.0
1614965222531851053,,30977,,1614893195,638852206,"""0""",11.0,4.125,12.0500001907,0.0
1614965222596911907,,30978,,1614893195,688897987,"""0""",11.0,4.125,12.0500001907,0.0
1614965222639014959,,30979,,1614893195,738779289,"""0""",11.0,4.25,12.0500001907,0.0
1614965222684546947,,30980,,1614893195,788767154,"""0""",11.0,4.375,12.0500001907,0.0
1614965222736994981,,30981,,1614893195,838857362,"""0""",11.0,4.5,12.0500001907,0.0
1614965222788093090,,30982,,1614893195,888915227,"""0""",11.0,4.375,12.0500001907,0.0
1614965222843647003,,30983,,1614893195,938914445,"""0""",11.0,4.375,12.0500001907,0.0
1614965222892396926,,30984,,1614893195,988983873,"""0""",11.0,4.375,12.0500001907,0.0
1614965222955415010,,30985,,1614893196,38803248,"""0""",11.0,4.25,12.0,0.0
1614965223004533052,,30986,,1614893196,88845070,"""0""",11.0,4.25,12.0,0.0
1614965223058722972,,30987,,1614893196,138794029,"""0""",11.0,4.25,12.0,0.0
1614965223087764978,,30988,,1614893196,189427622,"""0""",11.0,4.125,12.0,0.0
1614965223132102966,,30989,,1614893196,239185852,"""0""",11.0,4.25,12.1000003815,0.0
1614965223184463977,,30990,,1614893196,288800539,"""0""",11.0,4.375,12.1000003815,0.0
1614965223236634969,,30991,,1614893196,339080435,"""0""",11.0,4.375,12.1000003815,0.0
1614965223285023927,,30992,,1614893196,388829185,"""0""",11.0,4.25,12.0500001907,0.0
1614965223334618091,,30993,,1614893196,438789341,"""0""",11.0,4.125,12.0500001907,0.0
1614965223395081043,,30994,,1614893196,488789966,"""0""",11.0,4.125,12.0500001907,0.0
1614965223432771921,,30995,,1614893196,538801945,"""0""",11.0,4.125,12.1000003815,0.0
1614965223482604980,,30996,,1614893196,588796633,"""0""",11.0,4.125,12.1000003815,0.0
1614965223541147947,,30997,,1614893196,638999810,"""0""",11.0,4.125,12.1000003815,0.0
1614965223600374937,,30998,,1614893196,688836997,"""0""",11.0,4.0,12.1000003815,0.0
1614965223636959075,,30999,,1614893196,739090904,"""0""",11.0,4.0,12.1000003815,0.0
1614965223718367099,,31000,,1614893196,789181060,"""0""",11.0,4.0,12.1000003815,0.0
1614965223750464916,,31001,,1614893196,838774081,"""0""",11.0,4.25,12.0500001907,0.0
1614965223844748020,,31002,,1614893196,888768924,"""0""",11.0,4.125,12.0500001907,0.0
1614965223874849081,,31003,,1614893196,938776424,"""0""",11.0,3.875,12.0500001907,0.0
1614965223935976982,,31004,,1614893196,988800851,"""0""",11.0,3.875,12.0500001907,0.0
1614965223967020034,,31005,,1614893197,38785799,"""0""",11.0,4.0,12.1000003815,0.0
1614965224010931968,,31006,,1614893197,88768455,"""0""",11.0,4.125,12.1000003815,0.0
1614965224062695026,,31007,,1614893197,138849549,"""0""",11.0,4.125,12.1000003815,0.0
1614965224133404970,,31008,,1614893197,188800070,"""0""",11.0,4.0,12.0500001907,0.0
1614965224173656940,,31009,,1614893197,238821841,"""0""",11.0,4.0,12.0500001907,0.0
1614965224227282047,,31010,,1614893197,288976997,"""0""",11.0,4.125,12.0500001907,0.0
1614965224281548023,,31011,,1614893197,338822205,"""0""",11.0,4.375,12.1000003815,0.0
1614965224336179971,,31012,,1614893197,388943768,"""0""",11.0,4.5,12.1000003815,0.0
1614965224401027917,,31013,,1614893197,438775226,"""0""",11.0,4.25,12.1000003815,0.0
1614965224401170969,,31014,,1614893197,488802257,"""0""",11.0,4.25,12.0500001907,0.0
1614965224448311090,,31015,,1614893197,538847518,"""0""",11.0,4.25,12.0500001907,0.0
1614965224490551948,,31016,,1614893197,588908247,"""0""",11.0,4.375,12.0500001907,0.0
1614965224543407917,,31017,,1614893197,638775903,"""0""",11.0,4.25,12.0,0.0
1614965224587713003,,31018,,1614893197,688786320,"""0""",11.0,4.25,12.0,0.0
1614965224640969038,,31019,,1614893197,738984966,"""0""",11.0,4.125,12.0,0.0
1614965224687530994,,31020,,1614893197,788913924,"""0""",11.0,4.25,12.0,0.0
1614965224763505935,,31021,,1614893197,838874289,"""0""",11.0,4.375,12.0,0.0
1614965224805164098,,31022,,1614893197,888758455,"""0""",11.0,4.375,12.0,0.0
1614965224844748020,,31023,,1614893197,938793663,"""0""",11.0,4.25,12.0,0.0
1614965224886023044,,31024,,1614893197,988880643,"""0""",11.0,4.125,12.1000003815,0.0
1614965224938374042,,31025,,1614893198,38779966,"""0""",11.0,4.125,12.1000003815,0.0
1614965224982434034,,31026,,1614893198,88820799,"""0""",11.0,4.125,12.1000003815,0.0
1614965225052206993,,31027,,1614893198,138868768,"""0""",11.0,4.25,12.0500001907,0.0
1614965225089164972,,31028,,1614893198,188767257,"""0""",11.0,4.25,12.0500001907,0.0
1614965225127948999,,31029,,1614893198,238789497,"""0""",11.0,4.0,12.0500001907,0.0
1614965225180484056,,31030,,1614893198,288834497,"""0""",11.0,4.125,12.0500001907,0.0
1614965225247247934,,31031,,1614893198,338837517,"""0""",11.0,4.125,12.0500001907,0.0
1614965225279692888,,31032,,1614893198,389190486,"""0""",11.0,4.25,12.0500001907,0.0
1614965225326440095,,31033,,1614893198,438775486,"""0""",11.0,4.125,12.0500001907,0.0
1614965225382903099,,31034,,1614893198,488771684,"""0""",11.0,3.875,12.0500001907,0.0
1614965225444973945,,31035,,1614893198,538803299,"""0""",11.0,4.0,12.0500001907,0.0
1614965225478869915,,31036,,1614893198,588814601,"""0""",11.0,4.0,12.0500001907,0.0
1614965225532248020,,31037,,1614893198,639157934,"""0""",11.0,4.25,12.0500001907,0.0
1614965225671561002,,31038,,1614893198,689024861,"""0""",11.0,4.125,12.0500001907,0.0
1614965225671673059,,31039,,1614893198,738796944,"""0""",11.0,4.0,12.0500001907,0.0
1614965225718839883,,31040,,1614893198,788833924,"""0""",11.0,4.0,12.0500001907,0.0
1614965225764769077,,31041,,1614893198,838796632,"""0""",11.0,4.25,12.0500001907,0.0
1614965225954639911,,31042,,1614893198,888852153,"""0""",11.0,4.375,12.0500001907,0.0
1614965225954945087,,31043,,1614893198,938906424,"""0""",11.0,4.5,12.0,0.0
1614965225954977989,,31044,,1614893198,988767361,"""0""",11.0,4.375,12.0,0.0
1614965225954998970,,31045,,1614893199,38793611,"""0""",11.0,4.375,12.0,0.0
1614965226007595062,,31046,,1614893199,88769444,"""0""",11.0,4.5,12.0,0.0
1614965226041357040,,31047,,1614893199,138806111,"""0""",11.0,4.5,12.0,0.0
1614965226083420991,,31048,,1614893199,188788559,"""0""",11.0,4.5,12.0,0.0
1614965226131144046,,31049,,1614893199,238824080,"""0""",11.0,4.375,12.0500001907,0.0
1614965226188221931,,31050,,1614893199,288804809,"""0""",11.0,4.25,12.0500001907,0.0
1614965226239840030,,31051,,1614893199,338792934,"""0""",11.0,4.375,12.0500001907,0.0
1614965226289676904,,31052,,1614893199,388912205,"""0""",11.0,4.5,12.0500001907,0.0
1614965226326992988,,31053,,1614893199,438771111,"""0""",11.0,4.5,12.0,0.0
1614965226383378982,,31054,,1614893199,488790955,"""0""",11.0,4.5,12.0,0.0
1614965226441051959,,31055,,1614893199,538800382,"""0""",11.0,4.375,12.0,0.0
1614965226484432935,,31056,,1614893199,588762725,"""0""",11.0,4.375,12.0500001907,0.0
1614965226532670021,,31057,,1614893199,638764340,"""0""",11.0,4.25,12.0500001907,0.0
1614965226579941034,,31058,,1614893199,688779548,"""0""",11.0,4.375,12.0500001907,0.0
1614965226661770105,,31059,,1614893199,738773819,"""0""",11.0,4.375,12.0500001907,0.0
1614965226727782011,,31060,,1614893199,788792309,"""0""",11.0,4.375,12.0500001907,0.0
1614965226803292036,,31061,,1614893199,839117621,"""0""",11.0,4.25,12.0500001907,0.0
1614965226803555011,,31062,,1614893199,888846527,"""0""",11.0,4.25,12.0500001907,0.0
1614965226879307031,,31063,,1614893199,938934079,"""0""",11.0,4.25,12.0500001907,0.0
1614965226935651063,,31064,,1614893199,988850277,"""0""",11.0,4.25,12.0500001907,0.0
1614965226988666057,,31065,,1614893200,38794913,"""0""",11.0,4.125,12.0500001907,0.0
1614965227035715103,,31066,,1614893200,88842621,"""0""",11.0,4.0,12.0500001907,0.0
1614965227088593959,,31067,,1614893200,138792308,"""0""",11.0,4.125,12.0500001907,0.0
1614965227190709114,,31068,,1614893200,188798611,"""0""",11.0,4.125,12.0500001907,0.0
1614965227190943002,,31069,,1614893200,238773454,"""0""",11.0,4.25,12.0500001907,0.0
1614965227237689971,,31070,,1614893200,288866423,"""0""",11.0,4.125,12.0500001907,0.0
1614965227279386043,,31071,,1614893200,338770225,"""0""",11.0,4.125,12.0500001907,0.0
1614965227347285985,,31072,,1614893200,389265902,"""0""",11.0,4.125,12.0500001907,0.0
1614965227395416975,,31073,,1614893200,438927465,"""0""",11.0,4.125,12.0500001907,0.0
1614965227395617961,,31074,,1614893200,488730017,"""0""",11.0,4.25,12.0500001907,0.0
1614965227443550109,,31075,,1614893200,538775902,"""0""",11.0,4.375,12.0,0.0
1614965227495672941,,31076,,1614893200,588798454,"""0""",11.0,4.125,12.0,0.0
1614965227550034999,,31077,,1614893200,638796840,"""0""",11.0,4.125,12.0,0.0
1614965227602261066,,31078,,1614893200,689331267,"""0""",11.0,4.125,12.0500001907,0.0
1614965227631896972,,31079,,1614893200,738782360,"""0""",11.0,4.125,12.0500001907,0.0
1614965227684484004,,31080,,1614893200,788841631,"""0""",11.0,4.125,12.0500001907,0.0
1614965227758546113,,31081,,1614893200,838875225,"""0""",11.0,4.125,12.1000003815,0.0
1614965227805738925,,31082,,1614893200,888814235,"""0""",11.0,4.0,12.1000003815,0.0
1614965227847064971,,31083,,1614893200,938777048,"""0""",11.0,4.25,12.1000003815,0.0
1614965227910732984,,31084,,1614893200,988835225,"""0""",11.0,4.375,12.1000003815,0.0
1614965227956188917,,31085,,1614893201,38824339,"""0""",11.0,4.375,12.0500001907,0.0
1614965227989770889,,31086,,1614893201,88861319,"""0""",11.0,4.375,12.0500001907,0.0
1614965228067375898,,31087,,1614893201,138791944,"""0""",11.0,4.25,12.0500001907,0.0
1614965228115928888,,31088,,1614893201,188897985,"""0""",11.0,4.25,12.0500001907,0.0
1614965228158711910,,31089,,1614893201,239155329,"""0""",11.0,4.25,12.0500001907,0.0
1614965228232712030,,31090,,1614893201,288848714,"""0""",11.0,4.25,12.0500001907,0.0
1614965228342834949,,31091,,1614893201,338790537,"""0""",11.0,4.25,12.0500001907,0.0
1614965228342943906,,31092,,1614893201,388827673,"""0""",11.0,4.0,12.0500001907,0.0
1614965228404697895,,31093,,1614893201,438800902,"""0""",11.0,4.0,12.0500001907,0.0
1614965228527232885,,31094,,1614893201,488856162,"""0""",11.0,3.875,12.1000003815,0.0
1614965228527334928,,31095,,1614893201,538789860,"""0""",11.0,3.875,12.1000003815,0.0
1614965228527357101,,31096,,1614893201,588941370,"""0""",11.0,3.0,12.1000003815,0.0
1614965228571365118,,31097,,1614893201,638790433,"""0""",11.0,2.375,12.1499996185,0.0
1614965228650219917,,31098,,1614893201,688760277,"""0""",11.0,2.0,12.1499996185,0.0
1614965228749249935,,31099,,1614893201,738828297,"""0""",11.0,2.375,12.1499996185,0.0
1614965228749356985,,31100,,1614893201,788784704,"""0""",11.0,2.75,12.1499996185,0.0
1614965228807558059,,31101,,1614893201,838773089,"""0""",12.0,2.0,12.1499996185,0.0
1614965228807662963,,31102,,1614893201,888783089,"""0""",12.0,1.375,12.1499996185,0.0
1614965228871283054,,31103,,1614893201,938782777,"""0""",12.0,1.75,12.1499996185,0.0
1614965228955554962,,31104,,1614893201,988774339,"""0""",11.0,1.375,12.1499996185,0.0
1614965229015875101,,31105,,1614893202,38787568,"""0""",11.0,0.625,12.1499996185,0.0
1614965229015990972,,31106,,1614893202,88787204,"""0""",11.0,0.375,12.1499996185,0.0
1614965229062103033,,31107,,1614893202,138790016,"""0""",11.0,0.375,12.25,0.0
1614965229112196922,,31108,,1614893202,188778401,"""0""",11.0,0.375,12.25,0.0
1614965229160274028,,31109,,1614893202,238789599,"""0""",11.0,0.375,12.25,0.0
1614965229198704004,,31110,,1614893202,288866683,"""0""",11.0,0.375,12.25,0.0
1614965229252413988,,31111,,1614893202,338934912,"""0""",11.0,0.625,12.25,0.0
1614965229300317049,,31112,,1614893202,390117464,"""0""",11.0,1.0,12.25,0.0
1614965229356791973,,31113,,1614893202,438786891,"""0""",11.0,1.0,12.1999998093,0.0
1614965229416364908,,31114,,1614893202,489327985,"""0""",11.0,0.625,12.1999998093,0.0
1614965229461432933,,31115,,1614893202,538775120,"""0""",11.0,0.625,12.1999998093,0.0
1614965229544382095,,31116,,1614893202,589076683,"""0""",11.0,1.375,12.1999998093,0.0
1614965229589237928,,31117,,1614893202,638804495,"""0""",11.0,3.375,12.1499996185,0.0
1614965229635128021,,31118,,1614893202,689244443,"""0""",11.0,3.0,12.1499996185,0.0
1614965229688333034,,31119,,1614893202,738835745,"""0""",11.0,2.75,12.1499996185,0.0
1614965229743077039,,31120,,1614893202,788959599,"""0""",11.0,3.75,12.1000003815,0.0
1614965229780895948,,31121,,1614893202,838784964,"""0""",11.0,4.0,12.1000003815,0.0
1614965229862952947,,31122,,1614893202,889782151,"""0""",11.0,4.0,12.1000003815,0.0
1614965229863281011,,31123,,1614893202,938786578,"""0""",11.0,3.75,12.1000003815,0.0
1614965229929065942,,31124,,1614893202,988802932,"""0""",11.0,2.0,12.1000003815,0.0
1614965229980572938,,31125,,1614893203,38821787,"""0""",11.0,1.375,12.1000003815,0.0
1614965230075598001,,31126,,1614893203,88814859,"""0""",11.0,2.375,12.1000003815,0.0
1614965230075819015,,31127,,1614893203,138775380,"""0""",11.0,2.375,12.1000003815,0.0
1614965230159534931,,31128,,1614893203,188845380,"""0""",11.0,3.0,12.1000003815,0.0
1614965230159641981,,31129,,1614893203,239181474,"""0""",11.0,2.375,12.1999998093,0.0
1614965230208520889,,31130,,1614893203,288797307,"""0""",11.0,2.375,12.1999998093,0.0
1614965230260708093,,31131,,1614893203,338771318,"""0""",11.0,3.875,12.1999998093,0.0
1614965230317439079,,31132,,1614893203,388772151,"""0""",11.0,4.0,12.1999998093,0.0
1614965230368902921,,31133,,1614893203,438815380,"""0""",11.0,3.75,12.1000003815,0.0
1614965230423907995,,31134,,1614893203,488865588,"""0""",11.0,3.875,12.1000003815,0.0
1614965230468439102,,31135,,1614893203,538776005,"""0""",11.0,3.875,12.1000003815,0.0
1614965230513087987,,31136,,1614893203,589010745,"""0""",11.0,4.0,12.0500001907,0.0
1614965230550349950,,31137,,1614893203,638851265,"""0""",11.0,3.875,12.0500001907,0.0
1614965230595192909,,31138,,1614893203,689056370,"""0""",11.0,2.75,12.0500001907,0.0
1614965230634789943,,31139,,1614893203,738754755,"""0""",11.0,3.0,12.1499996185,0.0
1614965230691176891,,31140,,1614893203,789344755,"""0""",11.0,3.875,12.1499996185,0.0
1614965230725452899,,31141,,1614893203,838903557,"""0""",11.0,3.75,12.1499996185,0.0
1614965230778908967,,31142,,1614893203,888832880,"""0""",11.0,3.0,12.1000003815,0.0
1614965230834407091,,31143,,1614893203,938769911,"""0""",11.0,2.0,12.1000003815,0.0
1614965230876202106,,31144,,1614893203,989023349,"""0""",11.0,2.0,12.1000003815,0.0
1614965230927072048,,31145,,1614893204,38777776,"""0""",11.0,3.75,12.1000003815,0.0
1614965230983875036,,31146,,1614893204,88930432,"""0""",11.0,3.875,12.1000003815,0.0
1614965231043245077,,31147,,1614893204,138792984,"""0""",11.0,3.875,12.1000003815,0.0
1614965231083338975,,31148,,1614893204,188930640,"""0""",11.0,3.75,12.1000003815,0.0
1614965231126674890,,31149,,1614893204,238801213,"""0""",11.0,3.875,12.1499996185,0.0
1614965231185532093,,31150,,1614893204,289599911,"""0""",11.0,3.875,12.1499996185,0.0
1614965231231161117,,31151,,1614893204,338763609,"""0""",11.0,3.0,12.1499996185,0.0
1614965231284893989,,31152,,1614893204,389129078,"""0""",11.0,2.375,12.1499996185,0.0
1614965231346539974,,31153,,1614893204,438881994,"""0""",11.0,2.0,12.1499996185,0.0
1614965231386411905,,31154,,1614893204,488791838,"""0""",11.0,2.0,12.1499996185,0.0
1614965231451220035,,31155,,1614893204,538923088,"""0""",11.0,2.75,12.1000003815,0.0
1614965231504800081,,31156,,1614893204,588783348,"""0""",11.0,2.75,12.1000003815,0.0
1614965231541075944,,31157,,1614893204,638858765,"""0""",11.0,3.375,12.1000003815,0.0
1614965231580533027,,31158,,1614893204,688805275,"""0""",11.0,3.0,12.1499996185,0.0
1614965231659548997,,31159,,1614893204,738793036,"""0""",11.0,2.75,12.1499996185,0.0
1614965231713428974,,31160,,1614893204,789202411,"""0""",11.0,3.375,12.1499996185,0.0
1614965231767545938,,31161,,1614893204,838978973,"""0""",11.0,3.875,12.1499996185,0.0
1614965231794615983,,31162,,1614893204,888825171,"""0""",11.0,3.0,12.1499996185,0.0
1614965231828248023,,31163,,1614893204,938829859,"""0""",11.0,3.0,12.1499996185,0.0
1614965231887206077,,31164,,1614893204,988761630,"""0""",11.0,3.875,12.1499996185,0.0
1614965231946330070,,31165,,1614893205,38757307,"""0""",11.0,4.0,12.0500001907,0.0
1614965231998404979,,31166,,1614893205,89265171,"""0""",11.0,4.0,12.0500001907,0.0
1614965232035615921,,31167,,1614893205,138853661,"""0""",11.0,4.0,12.0500001907,0.0
1614965232089214086,,31168,,1614893205,188761786,"""0""",11.0,3.75,12.0500001907,0.0
1614965232130745887,,31169,,1614893205,238879963,"""0""",11.0,3.875,12.0500001907,0.0
1614965232189279079,,31170,,1614893205,288792984,"""0""",11.0,3.875,12.0500001907,0.0
1614965232232168912,,31171,,1614893205,338912515,"""0""",11.0,3.0,12.1499996185,0.0
1614965232277501106,,31172,,1614893205,388764702,"""0""",11.0,2.375,12.1499996185,0.0
1614965232334357976,,31173,,1614893205,438778713,"""0""",11.0,2.75,12.1499996185,0.0
1614965232384354114,,31174,,1614893205,488827306,"""0""",11.0,2.75,12.1000003815,0.0
1614965232435259103,,31175,,1614893205,538829494,"""0""",11.0,3.0,12.1000003815,0.0
1614965232479161024,,31176,,1614893205,588850796,"""0""",11.0,2.75,12.1000003815,0.0
1614965232528145074,,31177,,1614893205,638846265,"""0""",11.0,2.375,12.1499996185,0.0
1614965232580490112,,31178,,1614893205,688795692,"""0""",11.0,3.0,12.1499996185,0.0
1614965232628185987,,31179,,1614893205,739172827,"""0""",11.0,4.125,12.1499996185,0.0
1614965232686364889,,31180,,1614893205,788779025,"""0""",11.0,4.125,12.1499996185,0.0
1614965232731731891,,31181,,1614893205,838848556,"""0""",11.0,3.875,12.1000003815,0.0
1614965232788084030,,31182,,1614893205,888778400,"""0""",11.0,4.0,12.1000003815,0.0
1614965232852459907,,31183,,1614893205,938840952,"""0""",11.0,4.0,12.1000003815,0.0
1614965232892669916,,31184,,1614893205,988836994,"""0""",11.0,4.125,12.0500001907,0.0
1614965232941447019,,31185,,1614893206,38827619,"""0""",11.0,4.0,12.0500001907,0.0
1614965232990525960,,31186,,1614893206,88838035,"""0""",11.0,3.875,12.0500001907,0.0
1614965233039271116,,31187,,1614893206,138938035,"""0""",11.0,3.75,12.1000003815,0.0
1614965233086420059,,31188,,1614893206,188810692,"""0""",11.0,3.875,12.1000003815,0.0
1614965233154885053,,31189,,1614893206,238780014,"""0""",11.0,4.0,12.1000003815,0.0
1614965233246248006,,31190,,1614893206,288979285,"""0""",11.0,3.875,12.1499996185,0.0
1614965233246360063,,31191,,1614893206,338921629,"""0""",11.0,3.875,12.1499996185,0.0
1614965233294342994,,31192,,1614893206,389171837,"""0""",11.0,4.0,12.1499996185,0.0
