rosbagTimestamp,header,seq,stamp,secs,nsecs,frame_id,Temperature,OutputCurrent,BusVoltage,ClosedLoopError
1614895188149609088,,62165,,1614895188,331937103,"""0""",12.0,0.0,12.5,0.0
1614895188218050956,,62166,,1614895188,381976061,"""0""",12.0,0.0,12.5,0.0
1614895188259437084,,62167,,1614895188,431925123,"""0""",12.0,0.0,12.5,0.0
1614895188315087080,,62168,,1614895188,481923769,"""0""",12.0,0.0,12.5,0.0
1614895188359451055,,62169,,1614895188,532266009,"""0""",12.0,0.0,12.5,0.0
1614895188414695978,,62170,,1614895188,581911478,"""0""",12.0,0.0,12.5,0.0
1614895188460573911,,62171,,1614895188,631977259,"""0""",12.0,0.0,12.5,0.0
1614895188509208917,,62172,,1614895188,681922675,"""0""",12.0,0.0,12.5,0.0
1614895188557229995,,62173,,1614895188,731986009,"""0""",12.0,0.0,12.5,0.0
1614895188619375944,,62174,,1614895188,781939030,"""0""",12.0,0.0,12.5,0.0
1614895188654841899,,62175,,1614895188,831925332,"""0""",12.0,0.0,12.5,0.0
1614895188713970899,,62176,,1614895188,881899186,"""0""",12.0,0.0,12.5,0.0
1614895188761079072,,62177,,1614895188,931928352,"""0""",12.0,0.0,12.5,0.0
1614895188817625045,,62178,,1614895188,981922727,"""0""",12.0,0.0,12.5,0.0
1614895188868439912,,62179,,1614895189,31933248,"""0""",12.0,0.0,12.5,0.0
1614895188919568061,,62180,,1614895189,82259967,"""0""",12.0,0.0,12.5,0.0
1614895188964612007,,62181,,1614895189,132715488,"""0""",12.0,0.0,12.5,0.0
1614895189020740032,,62182,,1614895189,181905904,"""0""",12.0,0.0,12.5,0.0
1614895189080729961,,62183,,1614895189,232172779,"""0""",12.0,0.0,12.5,0.0
1614895189128640890,,62184,,1614895189,281919446,"""0""",12.0,0.0,12.5,0.0
1614895189171786069,,62185,,1614895189,331938352,"""0""",12.0,0.0,12.5,0.0
1614895189223692893,,62186,,1614895189,381941634,"""0""",12.0,0.0,12.5,0.0
1614895189275211095,,62187,,1614895189,432005800,"""0""",12.0,0.0,12.5,0.0
1614895189317707061,,62188,,1614895189,481920540,"""0""",12.0,0.0,12.5,0.0
1614895189369168996,,62189,,1614895189,531949863,"""0""",12.0,0.0,12.5,0.0
1614895189427381038,,62190,,1614895189,581912831,"""0""",12.0,0.0,12.5,0.0
1614895189463459014,,62191,,1614895189,631953508,"""0""",12.0,0.0,12.5,0.0
1614895189517035961,,62192,,1614895189,681935904,"""0""",12.0,0.0,12.5,0.0
1614895189561032056,,62193,,1614895189,731930227,"""0""",12.0,0.0,12.5,0.0
1614895189622065067,,62194,,1614895189,781907102,"""0""",12.0,0.0,12.5,0.0
1614895189671463966,,62195,,1614895189,831979185,"""0""",12.0,0.0,12.5,0.0
1614895189717674016,,62196,,1614895189,881953925,"""0""",12.0,0.0,12.5,0.0
1614895189767309904,,62197,,1614895189,931951373,"""0""",12.0,0.0,12.5,0.0
1614895189815479040,,62198,,1614895189,981918612,"""0""",12.0,0.0,12.5,0.0
1614895189866332054,,62199,,1614895190,31992623,"""0""",12.0,0.0,12.5,0.0
1614895189946495056,,62200,,1614895190,82094967,"""0""",12.0,0.0,12.5,0.0
1614895190007713079,,62201,,1614895190,131941946,"""0""",12.0,0.0,12.5,0.0
1614895190066714048,,62202,,1614895190,181931946,"""0""",12.0,0.0,12.5,0.0
1614895190106945037,,62203,,1614895190,231946633,"""0""",12.0,0.0,12.5,0.0
1614895190172337055,,62204,,1614895190,281966894,"""0""",12.0,0.0,12.5,0.0
1614895190172380924,,62205,,1614895190,331932727,"""0""",12.0,0.0,12.5,0.0
1614895190232894897,,62206,,1614895190,381916321,"""0""",12.0,0.0,12.5,0.0
1614895190293450117,,62207,,1614895190,431950123,"""0""",12.0,0.0,12.5,0.0
1614895190358257055,,62208,,1614895190,481906164,"""0""",12.0,0.0,12.5,0.0
1614895190378599882,,62209,,1614895190,531935331,"""0""",12.0,0.0,12.5,0.0
1614895190417963027,,62210,,1614895190,581954029,"""0""",12.0,0.0,12.5,0.0
1614895190472007989,,62211,,1614895190,631925643,"""0""",12.0,0.0,12.5,0.0
1614895190539655923,,62212,,1614895190,681906477,"""0""",12.0,0.0,12.5,0.0
1614895190610392093,,62213,,1614895190,732072935,"""0""",12.0,0.0,12.5,0.0
1614895190698481082,,62214,,1614895190,781915852,"""0""",12.0,0.0,12.5,0.0
1614895190699115991,,62215,,1614895190,831998508,"""0""",12.0,0.0,12.5,0.0
1614895190729545116,,62216,,1614895190,881969081,"""0""",12.0,0.0,12.5,0.0
1614895190791958093,,62217,,1614895190,931914706,"""0""",12.0,0.0,12.5,0.0
1614895190829272031,,62218,,1614895190,981960591,"""0""",12.0,0.0,12.5,0.0
1614895190884507894,,62219,,1614895191,31933872,"""0""",12.0,0.0,12.5,0.0
1614895190940885066,,62220,,1614895191,81941477,"""0""",12.0,0.0,12.5,0.0
1614895191006654977,,62221,,1614895191,131942518,"""0""",12.0,0.0,12.5,0.0
1614895191049663066,,62222,,1614895191,183067466,"""0""",12.0,0.0,12.5,0.0
1614895191118062019,,62223,,1614895191,231973352,"""0""",12.0,0.0,12.5,0.0
1614895191188471078,,62224,,1614895191,281911320,"""0""",12.0,0.0,12.5,0.0
1614895191188616991,,62225,,1614895191,332179862,"""0""",12.0,0.0,12.5,0.0
1614895191242134094,,62226,,1614895191,382077570,"""0""",12.0,0.0,12.5,0.0
1614895191269340991,,62227,,1614895191,431968664,"""0""",12.0,0.0,12.5,0.0
1614895191324101924,,62228,,1614895191,481909185,"""0""",12.0,0.0,12.5,0.0
1614895191382477998,,62229,,1614895191,531987570,"""0""",12.0,0.0,12.5,0.0
1614895191430620908,,62230,,1614895191,581915591,"""0""",12.0,0.0,12.5,0.0
1614895191499464988,,62231,,1614895191,632224341,"""0""",12.0,0.0,12.5,0.0
1614895191541100978,,62232,,1614895191,681921476,"""0""",12.0,0.0,12.5,0.0
1614895191608052968,,62233,,1614895191,731942778,"""0""",12.0,0.0,12.5,0.0
1614895191668231964,,62234,,1614895191,781909237,"""0""",12.0,0.0,12.5,0.0
1614895191668344020,,62235,,1614895191,831949133,"""0""",12.0,0.0,12.5,0.0
1614895191746165037,,62236,,1614895191,881896737,"""0""",12.0,0.0,12.5,0.0
1614895191789877891,,62237,,1614895191,931938716,"""0""",12.0,0.0,12.5,0.0
1614895191843887090,,62238,,1614895191,981914549,"""0""",12.0,0.0,12.5,0.0
1614895191912414073,,62239,,1614895192,31955643,"""0""",12.0,0.0,12.5,0.0
1614895191963373899,,62240,,1614895192,81909080,"""0""",12.0,0.0,12.5,0.0
1614895192042403936,,62241,,1614895192,131945591,"""0""",12.0,0.0,12.5,0.0
1614895192042506933,,62242,,1614895192,181937518,"""0""",12.0,0.0,12.5,0.0
1614895192096568107,,62243,,1614895192,231948351,"""0""",12.0,0.0,12.5,0.0
1614895192163974046,,62244,,1614895192,281967205,"""0""",12.0,0.0,12.5,0.0
1614895192207882881,,62245,,1614895192,332667257,"""0""",12.0,0.0,12.5,0.0
1614895192295816898,,62246,,1614895192,382122414,"""0""",12.0,0.0,12.5,0.0
1614895192295928001,,62247,,1614895192,431931997,"""0""",12.0,0.0,12.5,0.0
1614895192377665996,,62248,,1614895192,481919914,"""0""",12.0,0.0,12.5,0.0
1614895192448196887,,62249,,1614895192,531984914,"""0""",12.0,0.0,12.5,0.0
1614895192448303937,,62250,,1614895192,582307205,"""0""",12.0,0.0,12.5,0.0
1614895192509320020,,62251,,1614895192,631943820,"""0""",12.0,0.0,12.5,0.0
1614895192565166950,,62252,,1614895192,681919653,"""0""",12.0,0.0,12.5,0.0
1614895192644284963,,62253,,1614895192,731938559,"""0""",12.0,0.0,12.5,0.0
1614895192644418954,,62254,,1614895192,781925070,"""0""",12.0,0.0,12.5,0.0
1614895192696276903,,62255,,1614895192,831913038,"""0""",12.0,0.0,12.5,0.0
1614895192765054941,,62256,,1614895192,881921632,"""0""",12.0,16.875,11.3000001907,0.0
1614895192809812068,,62257,,1614895192,931932622,"""0""",12.0,13.875,11.3000001907,0.0
1614895192860742092,,62258,,1614895192,981925174,"""0""",12.0,11.375,11.3000001907,0.0
1614895192928093910,,62259,,1614895193,31955434,"""0""",12.0,9.875,11.3000001907,0.0
1614895192928216934,,62260,,1614895193,81933976,"""0""",12.0,9.0,11.8999996185,0.0
1614895193030847072,,62261,,1614895193,131947726,"""0""",12.0,10.0,11.8999996185,0.0
1614895193030952930,,62262,,1614895193,181937882,"""0""",12.0,7.625,11.8999996185,0.0
1614895193071398973,,62263,,1614895193,231937934,"""0""",12.0,7.25,12.0500001907,0.0
1614895193126270055,,62264,,1614895193,282009705,"""0""",12.0,6.75,12.0500001907,0.0
1614895193178668022,,62265,,1614895193,331964913,"""0""",12.0,3.375,12.0500001907,0.0
1614895193229495048,,62266,,1614895193,381981684,"""0""",12.0,2.0,12.25,0.0
1614895193341074943,,62267,,1614895193,431941684,"""0""",12.0,2.0,12.25,0.0
1614895193341188907,,62268,,1614895193,481930851,"""0""",12.0,2.0,12.25,0.0
1614895193373697996,,62269,,1614895193,531941580,"""0""",12.0,2.0,12.3000001907,0.0
1614895193466190099,,62270,,1614895193,581921528,"""0""",12.0,2.75,12.3000001907,0.0
1614895193535161972,,62271,,1614895193,631941684,"""0""",12.0,2.375,12.3000001907,0.0
1614895193535304069,,62272,,1614895193,681984028,"""0""",12.0,6.5,12.3000001907,0.0
1614895193583070039,,62273,,1614895193,732038090,"""0""",12.0,7.0,12.0,0.0
1614895193669620037,,62274,,1614895193,782006528,"""0""",12.0,3.75,12.0,0.0
1614895193669730901,,62275,,1614895193,831957882,"""0""",12.0,3.0,12.0,0.0
1614895193715491056,,62276,,1614895193,881964548,"""0""",12.0,6.125,12.1999998093,0.0
1614895193782119989,,62277,,1614895193,931934028,"""0""",12.0,5.75,12.1999998093,0.0
1614895193843786001,,62278,,1614895193,981910121,"""0""",12.0,3.375,12.1999998093,0.0
1614895193894340038,,62279,,1614895194,31948142,"""0""",12.0,2.0,12.3000001907,0.0
1614895193945740938,,62280,,1614895194,81920538,"""0""",12.0,1.375,12.3000001907,0.0
1614895194009191989,,62281,,1614895194,131942882,"""0""",12.0,1.0,12.3000001907,0.0
1614895194086548089,,62282,,1614895194,181922100,"""0""",12.0,1.0,12.3500003815,0.0
1614895194123277902,,62283,,1614895194,231928663,"""0""",12.0,1.0,12.3500003815,0.0
1614895194123393058,,62284,,1614895194,281970017,"""0""",12.0,0.625,12.3500003815,0.0
1614895194177035093,,62285,,1614895194,331929496,"""0""",12.0,0.625,12.3999996185,0.0
1614895194298297882,,62286,,1614895194,381977465,"""0""",12.0,1.0,12.3999996185,0.0
1614895194298403024,,62287,,1614895194,431978715,"""0""",12.0,1.375,12.3999996185,0.0
1614895194365732908,,62288,,1614895194,481965486,"""0""",12.0,1.375,12.3999996185,0.0
1614895194365859985,,62289,,1614895194,532571944,"""0""",12.0,1.375,12.3500003815,0.0
1614895194441979885,,62290,,1614895194,581919861,"""0""",12.0,1.375,12.3500003815,0.0
1614895194507401943,,62291,,1614895194,631926892,"""0""",12.0,3.0,12.3500003815,0.0
1614895194561934947,,62292,,1614895194,681920277,"""0""",12.0,4.75,12.1499996185,0.0
1614895194612869024,,62293,,1614895194,731943871,"""0""",12.0,3.0,12.1499996185,0.0
1614895194666376113,,62294,,1614895194,781910329,"""0""",12.0,3.375,12.1499996185,0.0
1614895194728868007,,62295,,1614895194,833450850,"""0""",12.0,3.75,12.1999998093,0.0
1614895194729140043,,62296,,1614895194,881924131,"""0""",12.0,3.375,12.1999998093,0.0
1614895194808842897,,62297,,1614895194,932062986,"""0""",12.0,2.75,12.1999998093,0.0
1614895194862767934,,62298,,1614895194,981924131,"""0""",12.0,2.375,12.1999998093,0.0
1614895194976088047,,62299,,1614895195,31947621,"""0""",12.0,2.0,12.1999998093,0.0
1614895194976212978,,62300,,1614895195,81925538,"""0""",12.0,5.5,12.1999998093,0.0
1614895195009845018,,62301,,1614895195,131956735,"""0""",12.0,6.875,12.1000003815,0.0
1614895195063097000,,62302,,1614895195,181922413,"""0""",12.0,4.75,12.1000003815,0.0
1614895195123402118,,62303,,1614895195,234091579,"""0""",12.0,4.375,12.1000003815,0.0
1614895195123677015,,62304,,1614895195,281910277,"""0""",12.0,4.75,12.1000003815,0.0
1614895195206732034,,62305,,1614895195,331957985,"""0""",12.0,3.0,12.1999998093,0.0
1614895195252584934,,62306,,1614895195,382040173,"""0""",12.0,4.75,12.1999998093,0.0
1614895195317666053,,62307,,1614895195,432063975,"""0""",12.0,5.75,12.1999998093,0.0
1614895195398782014,,62308,,1614895195,482954548,"""0""",12.0,3.375,12.1999998093,0.0
1614895195399074077,,62309,,1614895195,532009079,"""0""",12.0,3.0,12.1999998093,0.0
1614895195434514045,,62310,,1614895195,581974287,"""0""",12.0,5.125,12.1999998093,0.0
1614895195492022991,,62311,,1614895195,631930069,"""0""",12.0,4.125,12.1999998093,0.0
1614895195592292070,,62312,,1614895195,681904131,"""0""",12.0,2.75,12.1999998093,0.0
1614895195592390060,,62313,,1614895195,732093714,"""0""",12.0,2.0,12.1999998093,0.0
1614895195655895948,,62314,,1614895195,781992516,"""0""",12.0,4.75,12.1999998093,0.0
1614895195656084060,,62315,,1614895195,831928141,"""0""",12.0,7.0,12.1999998093,0.0
1614895195735853910,,62316,,1614895195,881949964,"""0""",12.0,6.625,12.1999998093,0.0
1614895195854334115,,62317,,1614895195,931936319,"""0""",12.0,3.0,12.25,0.0
1614895195854444980,,62318,,1614895195,981916058,"""0""",12.0,2.375,12.25,0.0
1614895195916256904,,62319,,1614895196,31951891,"""0""",12.0,3.0,12.25,0.0
1614895196024864912,,62320,,1614895196,82048402,"""0""",12.0,4.375,12.1499996185,0.0
1614895196025053977,,62321,,1614895196,132163037,"""0""",12.0,5.125,12.1499996185,0.0
1614895196096791028,,62322,,1614895196,181918246,"""0""",12.0,5.125,12.1499996185,0.0
1614895196097002983,,62323,,1614895196,231922829,"""0""",12.0,5.125,12.1499996185,0.0
1614895196135812997,,62324,,1614895196,281906370,"""0""",12.0,4.75,12.1999998093,0.0
1614895196185112953,,62325,,1614895196,331925381,"""0""",12.0,4.125,12.1999998093,0.0
1614895196289165973,,62326,,1614895196,381912516,"""0""",12.0,3.75,12.1999998093,0.0
1614895196346488952,,62327,,1614895196,431922933,"""0""",12.0,4.375,12.1999998093,0.0
1614895196346842050,,62328,,1614895196,481912204,"""0""",12.0,3.375,12.1999998093,0.0
1614895196394047975,,62329,,1614895196,532110172,"""0""",12.0,4.75,12.1999998093,0.0
1614895196449565887,,62330,,1614895196,581929547,"""0""",12.0,5.125,12.1499996185,0.0
1614895196511852025,,62331,,1614895196,631935381,"""0""",12.0,2.75,12.1499996185,0.0
1614895196572721958,,62332,,1614895196,681956318,"""0""",12.0,1.375,12.1499996185,0.0
1614895196572828054,,62333,,1614895196,731975381,"""0""",12.0,1.75,12.25,0.0
1614895196639184951,,62334,,1614895196,782010745,"""0""",12.0,2.375,12.25,0.0
1614895196690958976,,62335,,1614895196,831926579,"""0""",12.0,2.0,12.25,0.0
1614895196753613948,,62336,,1614895196,882006110,"""0""",12.0,1.375,12.3000001907,0.0
1614895196814660072,,62337,,1614895196,931920537,"""0""",12.0,1.375,12.3000001907,0.0
1614895196844197034,,62338,,1614895196,981966735,"""0""",12.0,2.0,12.3000001907,0.0
1614895196942579984,,62339,,1614895197,32173662,"""0""",12.0,3.0,12.3000001907,0.0
1614895196942682981,,62340,,1614895197,81917151,"""0""",12.0,3.0,12.25,0.0
1614895197013984918,,62341,,1614895197,131921162,"""0""",12.0,3.0,12.25,0.0
1614895197115232944,,62342,,1614895197,181941735,"""0""",12.0,2.375,12.25,0.0
1614895197115509033,,62343,,1614895197,231929026,"""0""",12.0,3.0,12.25,0.0
1614895197159456014,,62344,,1614895197,281916110,"""0""",12.0,6.625,12.25,0.0
1614895197216361045,,62345,,1614895197,331987203,"""0""",12.0,5.5,12.25,0.0
1614895197251740932,,62346,,1614895197,381896839,"""0""",12.0,2.75,12.1999998093,0.0
1614895197355129003,,62347,,1614895197,431906839,"""0""",12.0,2.75,12.1999998093,0.0
1614895197355231046,,62348,,1614895197,481919183,"""0""",12.0,3.75,12.1999998093,0.0
1614895197512151002,,62349,,1614895197,532788662,"""0""",12.0,3.0,12.1999998093,0.0
1614895197512263059,,62350,,1614895197,583798610,"""0""",12.0,2.0,12.1999998093,0.0
1614895197512285947,,62351,,1614895197,631917932,"""0""",12.0,3.0,12.1999998093,0.0
1614895197585230112,,62352,,1614895197,682214547,"""0""",12.0,3.75,12.1999998093,0.0
1614895197585378885,,62353,,1614895197,731923974,"""0""",12.0,6.625,12.1999998093,0.0
1614895197648137092,,62354,,1614895197,781916057,"""0""",12.0,7.25,12.1999998093,0.0
1614895197762907028,,62355,,1614895197,832041318,"""0""",12.0,7.0,12.1999998093,0.0
1614895197763006925,,62356,,1614895197,881910589,"""0""",12.0,6.875,12.1499996185,0.0
1614895197892335891,,62357,,1614895197,932847932,"""0""",12.0,7.75,12.1499996185,0.0
1614895197892441034,,62358,,1614895197,981915693,"""0""",12.0,8.875,12.1499996185,0.0
1614895197892463922,,62359,,1614895198,31940589,"""0""",12.0,8.125,11.8999996185,0.0
1614895197957596063,,62360,,1614895198,81968870,"""0""",12.0,8.25,11.8999996185,0.0
1614895198030024051,,62361,,1614895198,131913818,"""0""",12.0,8.125,11.8999996185,0.0
1614895198030167102,,62362,,1614895198,181915016,"""0""",12.0,8.125,11.8999996185,0.0
1614895198068300008,,62363,,1614895198,231981995,"""0""",12.0,9.25,11.8999996185,0.0
1614895198136646032,,62364,,1614895198,281942828,"""0""",12.0,8.5,11.8999996185,0.0
1614895198197556972,,62365,,1614895198,331925276,"""0""",12.0,7.875,11.9499998093,0.0
1614895198249739885,,62366,,1614895198,381910328,"""0""",12.0,7.75,11.9499998093,0.0
1614895198312880992,,62367,,1614895198,431917203,"""0""",12.0,7.875,11.9499998093,0.0
1614895198362464904,,62368,,1614895198,482010484,"""0""",12.0,8.0,11.8999996185,0.0
1614895198467144012,,62369,,1614895198,532610068,"""0""",12.0,7.875,11.8999996185,0.0
1614895198467257976,,62370,,1614895198,581922463,"""0""",12.0,8.375,11.8999996185,0.0
1614895198554786920,,62371,,1614895198,631929495,"""0""",12.0,8.375,11.8999996185,0.0
1614895198554893970,,62372,,1614895198,681914755,"""0""",12.0,8.0,11.8999996185,0.0
1614895198597178936,,62373,,1614895198,732017828,"""0""",12.0,8.375,11.8999996185,0.0
1614895198622917890,,62374,,1614895198,781908713,"""0""",12.0,9.0,11.8999996185,0.0
1614895198691075086,,62375,,1614895198,831936786,"""0""",12.0,9.0,11.9499998093,0.0
1614895198723273992,,62376,,1614895198,881911838,"""0""",12.0,8.75,11.9499998093,0.0
1614895198809472084,,62377,,1614895198,931920953,"""0""",12.0,8.875,11.9499998093,0.0
1614895198906421899,,62378,,1614895198,981953140,"""0""",12.0,8.0,11.8999996185,0.0
1614895198906836986,,62379,,1614895199,31931838,"""0""",12.0,8.5,11.8999996185,0.0
1614895198957123994,,62380,,1614895199,83192671,"""0""",12.0,9.75,11.8999996185,0.0
1614895199084170103,,62381,,1614895199,131940744,"""0""",12.0,8.5,11.8999996185,0.0
1614895199084268093,,62382,,1614895199,182017567,"""0""",12.0,7.75,11.8999996185,0.0
1614895199084290027,,62383,,1614895199,232055536,"""0""",12.0,7.25,11.8999996185,0.0
1614895199141653060,,62384,,1614895199,281952567,"""0""",12.0,7.0,11.8999996185,0.0
1614895199229794979,,62385,,1614895199,331919442,"""0""",12.0,7.125,12.0500001907,0.0
1614895199274162054,,62386,,1614895199,381969130,"""0""",12.0,6.875,12.0500001907,0.0
1614895199274266004,,62387,,1614895199,431915328,"""0""",12.0,5.5,12.0500001907,0.0
1614895199329181909,,62388,,1614895199,481917515,"""0""",12.0,2.75,12.1499996185,0.0
1614895199443886995,,62389,,1614895199,531922619,"""0""",12.0,1.75,12.1499996185,0.0
1614895199559521913,,62390,,1614895199,581940536,"""0""",12.0,1.375,12.1499996185,0.0
1614895199559643983,,62391,,1614895199,631925744,"""0""",12.0,1.75,12.25,0.0
1614895199559663057,,62392,,1614895199,681912463,"""0""",12.0,1.0,12.25,0.0
1614895199597671031,,62393,,1614895199,731933088,"""0""",12.0,0.625,12.25,0.0
1614895199634059906,,62394,,1614895199,781926317,"""0""",12.0,0.625,12.3500003815,0.0
1614895199697468042,,62395,,1614895199,831927307,"""0""",12.0,0.375,12.3500003815,0.0
1614895199747256994,,62396,,1614895199,881991473,"""0""",12.0,0.375,12.3500003815,0.0
1614895199818239927,,62397,,1614895199,931935900,"""0""",12.0,0.625,12.3500003815,0.0
1614895199873653888,,62398,,1614895199,981940223,"""0""",12.0,0.625,12.3500003815,0.0
1614895199923054933,,62399,,1614895200,32559650,"""0""",12.0,0.375,12.3500003815,0.0
1614895199923809051,,62400,,1614895200,81892671,"""0""",12.0,0.625,12.3500003815,0.0
1614895199984880924,,62401,,1614895200,131982515,"""0""",12.0,0.625,12.3500003815,0.0
1614895200060065984,,62402,,1614895200,181926265,"""0""",12.0,1.0,12.3500003815,0.0
1614895200170675992,,62403,,1614895200,231938661,"""0""",12.0,1.0,12.3500003815,0.0
1614895200170912027,,62404,,1614895200,281919181,"""0""",12.0,1.0,12.3000001907,0.0
1614895200215338945,,62405,,1614895200,332130692,"""0""",12.0,1.375,12.3000001907,0.0
1614895200260633945,,62406,,1614895200,381943973,"""0""",12.0,2.75,12.3000001907,0.0
1614895200291109085,,62407,,1614895200,432658036,"""0""",12.0,5.125,12.1499996185,0.0
1614895200400479078,,62408,,1614895200,481962931,"""0""",12.0,6.75,12.1499996185,0.0
1614895200400605916,,62409,,1614895200,531989390,"""0""",12.0,6.875,12.1499996185,0.0
1614895200465863943,,62410,,1614895200,581967202,"""0""",12.0,7.0,12.0,0.0
1614895200544853925,,62411,,1614895200,632012879,"""0""",12.0,7.0,12.0,0.0
1614895200545080900,,62412,,1614895200,681916160,"""0""",12.0,7.5,12.0,0.0
1614895200590930938,,62413,,1614895200,731933765,"""0""",11.0,7.625,11.9499998093,0.0
1614895200650806903,,62414,,1614895200,781913973,"""0""",11.0,7.0,11.9499998093,0.0
1614895200698030948,,62415,,1614895200,831983296,"""0""",11.0,6.875,11.9499998093,0.0
1614895200760210990,,62416,,1614895200,882004598,"""0""",11.0,7.5,11.9499998093,0.0
1614895200820128917,,62417,,1614895200,931916212,"""0""",12.0,7.75,12.0,0.0
1614895200820255994,,62418,,1614895200,981941525,"""0""",12.0,8.0,12.0,0.0
1614895200893559932,,62419,,1614895201,31934650,"""0""",12.0,7.625,12.0,0.0
1614895200953763961,,62420,,1614895201,81968035,"""0""",12.0,7.625,11.9499998093,0.0
1614895201018529891,,62421,,1614895201,131990119,"""0""",12.0,7.75,11.9499998093,0.0
1614895201070116996,,62422,,1614895201,181928608,"""0""",12.0,7.75,11.9499998093,0.0
1614895201149856090,,62423,,1614895201,231971264,"""0""",11.0,8.125,11.8500003815,0.0
1614895201149992942,,62424,,1614895201,281962983,"""0""",11.0,7.75,11.8500003815,0.0
1614895201182190895,,62425,,1614895201,331989546,"""0""",11.0,7.625,11.8500003815,0.0
1614895201257339954,,62426,,1614895201,381911056,"""0""",12.0,7.5,11.9499998093,0.0
1614895201318229913,,62427,,1614895201,431921733,"""0""",12.0,7.25,11.9499998093,0.0
1614895201318336009,,62428,,1614895201,481953921,"""0""",12.0,7.625,11.9499998093,0.0
1614895201377365112,,62429,,1614895201,531929129,"""0""",12.0,7.625,12.0,0.0
1614895201434750080,,62430,,1614895201,582126108,"""0""",12.0,7.125,12.0,0.0
1614895201482547044,,62431,,1614895201,631937827,"""0""",12.0,7.125,12.0,0.0
1614895201550096035,,62432,,1614895201,681971056,"""0""",12.0,6.875,12.0,0.0
1614895201609781026,,62433,,1614895201,731982618,"""0""",12.0,6.75,12.0500001907,0.0
1614895201679292917,,62434,,1614895201,781941108,"""0""",12.0,6.875,12.0500001907,0.0
1614895201679394006,,62435,,1614895201,831945014,"""0""",12.0,6.75,12.0500001907,0.0
1614895201719064950,,62436,,1614895201,882371264,"""0""",12.0,6.75,12.1000003815,0.0
1614895201789680957,,62437,,1614895201,932018504,"""0""",12.0,6.875,12.1000003815,0.0
1614895201834780931,,62438,,1614895201,981928764,"""0""",12.0,6.875,12.1000003815,0.0
1614895201895565032,,62439,,1614895202,31943087,"""0""",12.0,6.875,12.0500001907,0.0
1614895201950886011,,62440,,1614895202,81941368,"""0""",12.0,6.75,12.0500001907,0.0
1614895201988207101,,62441,,1614895202,131958452,"""0""",12.0,6.75,12.0500001907,0.0
1614895202026864051,,62442,,1614895202,181918191,"""0""",11.0,6.75,12.0500001907,0.0
1614895202082660913,,62443,,1614895202,231954441,"""0""",11.0,6.875,12.0500001907,0.0
1614895202144433975,,62444,,1614895202,281928608,"""0""",11.0,7.0,12.0500001907,0.0
1614895202271609067,,62445,,1614895202,331976629,"""0""",12.0,6.875,12.0500001907,0.0
1614895202272080898,,62446,,1614895202,381919545,"""0""",12.0,6.875,12.0500001907,0.0
1614895202341398000,,62447,,1614895202,431921785,"""0""",12.0,6.875,12.0500001907,0.0
1614895202346169948,,62448,,1614895202,482013868,"""0""",12.0,6.75,12.0500001907,0.0
1614895202385375976,,62449,,1614895202,532027514,"""0""",12.0,7.0,12.0,0.0
1614895202441898107,,62450,,1614895202,582066524,"""0""",12.0,7.0,12.0,0.0
1614895202514576911,,62451,,1614895202,632005118,"""0""",12.0,6.875,12.0,0.0
1614895202561539888,,62452,,1614895202,681942410,"""0""",11.0,7.0,12.0,0.0
1614895202641868114,,62453,,1614895202,731930743,"""0""",11.0,7.125,12.0,0.0
1614895202641901016,,62454,,1614895202,781935170,"""0""",11.0,7.125,12.0,0.0
1614895202717020034,,62455,,1614895202,831946003,"""0""",12.0,6.75,12.0500001907,0.0
1614895202817872047,,62456,,1614895202,881908503,"""0""",12.0,6.875,12.0500001907,0.0
1614895202818356990,,62457,,1614895202,932068451,"""0""",12.0,6.75,12.0500001907,0.0
1614895202871519088,,62458,,1614895202,981936420,"""0""",12.0,6.625,12.0500001907,0.0
1614895202918085098,,62459,,1614895203,32858816,"""0""",12.0,6.875,12.0500001907,0.0
1614895202994920969,,62460,,1614895203,81955274,"""0""",12.0,6.75,12.0500001907,0.0
1614895202995383024,,62461,,1614895203,131937826,"""0""",11.0,6.625,12.0500001907,0.0
1614895203041476964,,62462,,1614895203,181934493,"""0""",11.0,6.875,12.0500001907,0.0
1614895203081810951,,62463,,1614895203,231926524,"""0""",11.0,6.75,12.0500001907,0.0
1614895203122148036,,62464,,1614895203,282002670,"""0""",12.0,7.125,12.0,0.0
1614895203177165031,,62465,,1614895203,331917566,"""0""",12.0,7.125,12.0,0.0
1614895203237823009,,62466,,1614895203,381928139,"""0""",12.0,7.0,12.0,0.0
1614895203282413959,,62467,,1614895203,432021576,"""0""",12.0,7.0,12.0,0.0
1614895203353607892,,62468,,1614895203,481940222,"""0""",12.0,7.0,12.0500001907,0.0
1614895203411808013,,62469,,1614895203,531940691,"""0""",12.0,7.125,12.0500001907,0.0
1614895203461491107,,62470,,1614895203,581941420,"""0""",12.0,7.0,12.0500001907,0.0
1614895203519794940,,62471,,1614895203,631925274,"""0""",11.0,6.875,12.0,0.0
1614895203556266069,,62472,,1614895203,683028138,"""0""",11.0,6.75,12.0,0.0
1614895203625521898,,62473,,1614895203,731989857,"""0""",11.0,6.75,12.0,0.0
1614895203660181045,,62474,,1614895203,781939441,"""0""",11.0,7.25,12.0,0.0
1614895203721412897,,62475,,1614895203,831918451,"""0""",11.0,7.125,12.0,0.0
1614895203777690887,,62476,,1614895203,881987826,"""0""",11.0,6.75,12.0,0.0
1614895203777796030,,62477,,1614895203,931918607,"""0""",12.0,6.75,12.0500001907,0.0
1614895203860158920,,62478,,1614895203,981924232,"""0""",12.0,6.75,12.0500001907,0.0
1614895203941562891,,62479,,1614895204,31922201,"""0""",12.0,7.125,12.0500001907,0.0
1614895203941751003,,62480,,1614895204,82419128,"""0""",12.0,7.125,12.0,0.0
1614895204010291099,,62481,,1614895204,131974232,"""0""",12.0,7.0,12.0,0.0
1614895204121879100,,62482,,1614895204,181902878,"""0""",12.0,7.125,12.0,0.0
1614895204122031927,,62483,,1614895204,231925742,"""0""",12.0,7.0,12.0,0.0
1614895204278775930,,62484,,1614895204,281921419,"""0""",12.0,7.0,12.0,0.0
1614895204278886079,,62485,,1614895204,331922409,"""0""",12.0,7.0,12.0,0.0
1614895204278908014,,62486,,1614895204,381972097,"""0""",12.0,6.75,12.0,0.0
1614895204311572074,,62487,,1614895204,431913399,"""0""",11.0,6.75,12.0500001907,0.0
1614895204372746944,,62488,,1614895204,481921836,"""0""",11.0,6.75,12.0500001907,0.0
1614895204431078910,,62489,,1614895204,534178086,"""0""",11.0,6.875,12.0500001907,0.0
1614895204431209087,,62490,,1614895204,581930378,"""0""",11.0,6.75,12.0500001907,0.0
1614895204485151052,,62491,,1614895204,631958867,"""0""",11.0,6.625,12.0500001907,0.0
1614895204590205907,,62492,,1614895204,681939961,"""0""",11.0,6.875,12.0500001907,0.0
1614895204615648984,,62493,,1614895204,731916471,"""0""",12.0,6.75,12.0500001907,0.0
1614895204658308982,,62494,,1614895204,781945898,"""0""",12.0,6.875,12.0500001907,0.0
1614895204690299034,,62495,,1614895204,831922096,"""0""",12.0,7.125,12.0500001907,0.0
1614895204741151094,,62496,,1614895204,882027148,"""0""",12.0,7.0,12.0500001907,0.0
1614895204801552057,,62497,,1614895204,931986159,"""0""",12.0,7.0,12.0,0.0
1614895204849725961,,62498,,1614895204,981935273,"""0""",12.0,6.875,12.0,0.0
1614895204914191961,,62499,,1614895205,31928919,"""0""",12.0,6.875,12.0,0.0
1614895204969772100,,62500,,1614895205,81926523,"""0""",11.0,7.0,12.0,0.0
1614895205025145053,,62501,,1614895205,131925534,"""0""",11.0,6.75,12.0,0.0
1614895205117007017,,62502,,1614895205,183354805,"""0""",11.0,6.125,12.0,0.0
1614895205117106914,,62503,,1614895205,231950065,"""0""",12.0,5.125,12.1000003815,0.0
1614895205117127895,,62504,,1614895205,282584180,"""0""",12.0,5.5,12.1000003815,0.0
1614895205170618057,,62505,,1614895205,331946992,"""0""",12.0,5.75,12.1000003815,0.0
1614895205222994089,,62506,,1614895205,381925013,"""0""",12.0,4.125,12.1000003815,0.0
1614895205271493911,,62507,,1614895205,432026732,"""0""",12.0,3.75,12.1000003815,0.0
1614895205317392110,,62508,,1614895205,481944284,"""0""",12.0,2.375,12.1000003815,0.0
1614895205370191097,,62509,,1614895205,531980325,"""0""",12.0,1.75,12.25,0.0
1614895205416687011,,62510,,1614895205,581935898,"""0""",12.0,1.75,12.25,0.0
1614895205472603082,,62511,,1614895205,631907773,"""0""",12.0,1.375,12.25,0.0
1614895205517250061,,62512,,1614895205,681967461,"""0""",12.0,1.0,12.25,0.0
1614895205569817066,,62513,,1614895205,731928190,"""0""",12.0,0.625,12.25,0.0
1614895205629229068,,62514,,1614895205,782753919,"""0""",12.0,0.625,12.25,0.0
1614895205670156002,,62515,,1614895205,831927825,"""0""",12.0,1.0,12.25,0.0
1614895205745788097,,62516,,1614895205,881953815,"""0""",12.0,1.375,12.25,0.0
1614895205864275932,,62517,,1614895205,931956158,"""0""",12.0,1.0,12.25,0.0
1614895205864494085,,62518,,1614895205,982313763,"""0""",12.0,1.0,12.25,0.0
1614895205907197952,,62519,,1614895206,31973242,"""0""",12.0,1.75,12.25,0.0
1614895205944160938,,62520,,1614895206,81956158,"""0""",12.0,3.75,12.25,0.0
1614895205975326061,,62521,,1614895206,131967825,"""0""",12.0,2.375,12.25,0.0
1614895206019998073,,62522,,1614895206,181934335,"""0""",12.0,2.75,12.1999998093,0.0
1614895206068053960,,62523,,1614895206,231915065,"""0""",12.0,6.875,12.1999998093,0.0
1614895206137734889,,62524,,1614895206,281987565,"""0""",12.0,6.5,12.1999998093,0.0
1614895206190191984,,62525,,1614895206,331964179,"""0""",12.0,4.75,12.1000003815,0.0
1614895206223397016,,62526,,1614895206,382535742,"""0""",12.0,3.75,12.1000003815,0.0
1614895206299580097,,62527,,1614895206,431963242,"""0""",12.0,3.375,12.1000003815,0.0
1614895206341495990,,62528,,1614895206,482037044,"""0""",12.0,3.75,12.1000003815,0.0
1614895206384738922,,62529,,1614895206,531932773,"""0""",11.0,3.75,12.1499996185,0.0
1614895206433593034,,62530,,1614895206,582338189,"""0""",11.0,2.0,12.1499996185,0.0
1614895206490995883,,62531,,1614895206,631920585,"""0""",11.0,2.0,12.1499996185,0.0
1614895206533556938,,62532,,1614895206,681986106,"""0""",11.0,3.75,12.1999998093,0.0
1614895206577147006,,62533,,1614895206,731959648,"""0""",11.0,4.375,12.1999998093,0.0
1614895206619091987,,62534,,1614895206,781948085,"""0""",11.0,2.75,12.1999998093,0.0
1614895206669991016,,62535,,1614895206,831967825,"""0""",12.0,2.375,12.1999998093,0.0
1614895206733118057,,62536,,1614895206,881958606,"""0""",12.0,2.375,12.1999998093,0.0
1614895206764197111,,62537,,1614895206,931946991,"""0""",12.0,2.75,12.1999998093,0.0
1614895206821990013,,62538,,1614895206,981928346,"""0""",11.0,5.125,12.0500001907,0.0
1614895206871403932,,62539,,1614895207,31905012,"""0""",11.0,4.125,12.0500001907,0.0
1614895206918440103,,62540,,1614895207,81920064,"""0""",11.0,2.75,12.0500001907,0.0
1614895206967024087,,62541,,1614895207,131948085,"""0""",12.0,3.0,12.1000003815,0.0
1614895207025535106,,62542,,1614895207,181928970,"""0""",12.0,6.875,12.1000003815,0.0
1614895207073390960,,62543,,1614895207,231921627,"""0""",12.0,5.5,12.1000003815,0.0
1614895207118510007,,62544,,1614895207,282151939,"""0""",12.0,2.0,12.1000003815,0.0
1614895207170841932,,62545,,1614895207,331915533,"""0""",12.0,2.0,12.1999998093,0.0
1614895207217431068,,62546,,1614895207,381944335,"""0""",12.0,2.375,12.1999998093,0.0
1614895207272495985,,62547,,1614895207,431912616,"""0""",12.0,3.375,12.1999998093,0.0
1614895207325320005,,62548,,1614895207,481917460,"""0""",12.0,3.75,12.1499996185,0.0
1614895207376218080,,62549,,1614895207,531996887,"""0""",12.0,5.75,12.1499996185,0.0
1614895207429383039,,62550,,1614895207,581998241,"""0""",12.0,6.125,12.1499996185,0.0
1614895207472208023,,62551,,1614895207,631899856,"""0""",12.0,3.375,12.1499996185,0.0
1614895207515363931,,62552,,1614895207,681923345,"""0""",12.0,5.5,12.1499996185,0.0
1614895207576411962,,62553,,1614895207,731925220,"""0""",12.0,6.5,12.1499996185,0.0
1614895207623217105,,62554,,1614895207,781958189,"""0""",11.0,4.125,12.1499996185,0.0
1614895207684743881,,62555,,1614895207,831962616,"""0""",11.0,5.75,12.1499996185,0.0
1614895207724653005,,62556,,1614895207,881922356,"""0""",11.0,6.625,12.1499996185,0.0
1614895207775599002,,62557,,1614895207,931911835,"""0""",12.0,3.375,12.1499996185,0.0
1614895207901258945,,62558,,1614895207,981922929,"""0""",12.0,4.75,12.1499996185,0.0
1614895207901367902,,62559,,1614895208,32124751,"""0""",12.0,5.75,12.1499996185,0.0
1614895207964870929,,62560,,1614895208,83016887,"""0""",12.0,2.375,12.1999998093,0.0
1614895207997165918,,62561,,1614895208,131925845,"""0""",12.0,4.75,12.1999998093,0.0
1614895208025165081,,62562,,1614895208,182175585,"""0""",12.0,6.75,12.1999998093,0.0
1614895208071022987,,62563,,1614895208,231891887,"""0""",12.0,3.375,12.1999998093,0.0
1614895208119668006,,62564,,1614895208,281951991,"""0""",12.0,3.75,12.1499996185,0.0
1614895208172462940,,62565,,1614895208,331954283,"""0""",12.0,3.375,12.1499996185,0.0
1614895208223407030,,62566,,1614895208,383209126,"""0""",12.0,4.75,12.1499996185,0.0
1614895208271693944,,62567,,1614895208,431948970,"""0""",11.0,7.75,11.8999996185,0.0
1614895208321171045,,62568,,1614895208,481941105,"""0""",11.0,7.5,11.8999996185,0.0
1614895208374320983,,62569,,1614895208,531962095,"""0""",11.0,6.875,11.8999996185,0.0
1614895208423969030,,62570,,1614895208,581933085,"""0""",11.0,7.625,11.8999996185,0.0
1614895208476911067,,62571,,1614895208,631927616,"""0""",11.0,8.5,11.8999996185,0.0
1614895208519040107,,62572,,1614895208,681931105,"""0""",11.0,8.0,11.8999996185,0.0
1614895208571000099,,62573,,1614895208,731922824,"""0""",11.0,7.875,11.8999996185,0.0
1614895208624140024,,62574,,1614895208,781953605,"""0""",11.0,8.125,11.8999996185,0.0
1614895208674953937,,62575,,1614895208,831922772,"""0""",11.0,8.5,11.8999996185,0.0
1614895208735800027,,62576,,1614895208,881939751,"""0""",11.0,8.875,11.75,0.0
1614895208767515897,,62577,,1614895208,931921782,"""0""",11.0,8.875,11.75,0.0
1614895208826376914,,62578,,1614895208,981908449,"""0""",11.0,8.0,11.75,0.0
1614895208894491910,,62579,,1614895209,32027824,"""0""",11.0,8.0,11.75,0.0
1614895208936841011,,62580,,1614895209,82118084,"""0""",11.0,8.625,11.8000001907,0.0
1614895208967493057,,62581,,1614895209,131951574,"""0""",11.0,8.25,11.8000001907,0.0
1614895209026518106,,62582,,1614895209,181907303,"""0""",11.0,9.5,11.8000001907,0.0
1614895209070199966,,62583,,1614895209,231896209,"""0""",11.0,10.125,11.75,0.0
1614895209124533891,,62584,,1614895209,282499334,"""0""",11.0,9.0,11.75,0.0
1614895209172661066,,62585,,1614895209,331902407,"""0""",11.0,8.875,11.75,0.0
1614895209219923973,,62586,,1614895209,381920532,"""0""",12.0,8.75,11.8500003815,0.0
1614895209271441936,,62587,,1614895209,431934699,"""0""",12.0,8.375,11.8500003815,0.0
1614895209319822072,,62588,,1614895209,482043761,"""0""",12.0,7.375,11.8500003815,0.0
1614895209364742040,,62589,,1614895209,531974126,"""0""",12.0,4.375,12.1999998093,0.0
1614895209421391010,,62590,,1614895209,581917928,"""0""",12.0,7.125,12.1999998093,0.0
1614895209465711116,,62591,,1614895209,631932459,"""0""",12.0,8.625,12.1999998093,0.0
1614895209522690057,,62592,,1614895209,682008657,"""0""",12.0,5.75,12.1000003815,0.0
1614895209570162057,,62593,,1614895209,731935740,"""0""",12.0,1.75,12.1000003815,0.0
1614895209623589992,,62594,,1614895209,781942303,"""0""",12.0,1.0,12.1000003815,0.0
1614895209664881944,,62595,,1614895209,831928657,"""0""",12.0,0.625,12.1000003815,0.0
1614895209721175909,,62596,,1614895209,881900063,"""0""",12.0,0.625,12.25,0.0
1614895209771908998,,62597,,1614895209,931924751,"""0""",12.0,0.375,12.25,0.0
1614895209821938991,,62598,,1614895209,981949490,"""0""",12.0,0.375,12.25,0.0
1614895209867243051,,62599,,1614895210,31962928,"""0""",12.0,0.0,12.3500003815,0.0
1614895209920200109,,62600,,1614895210,81914126,"""0""",12.0,0.0,12.3500003815,0.0
1614895209971410989,,62601,,1614895210,132574178,"""0""",12.0,0.0,12.3500003815,0.0
1614895210035907030,,62602,,1614895210,181900323,"""0""",12.0,0.0,12.3999996185,0.0
1614895210069344997,,62603,,1614895210,231939334,"""0""",12.0,0.0,12.3999996185,0.0
1614895210126424074,,62604,,1614895210,281931886,"""0""",12.0,0.375,12.3999996185,0.0
1614895210170820951,,62605,,1614895210,331932719,"""0""",12.0,0.375,12.3500003815,0.0
1614895210225277900,,62606,,1614895210,381932563,"""0""",12.0,0.625,12.3500003815,0.0
1614895210279267072,,62607,,1614895210,431934542,"""0""",12.0,0.625,12.3500003815,0.0
1614895210321928024,,62608,,1614895210,481900115,"""0""",12.0,0.375,12.3500003815,0.0
1614895210393717050,,62609,,1614895210,531991105,"""0""",12.0,0.375,12.3500003815,0.0
1614895210429218053,,62610,,1614895210,581930844,"""0""",12.0,0.375,12.3500003815,0.0
1614895210465818881,,62611,,1614895210,631989959,"""0""",12.0,1.0,12.3500003815,0.0
1614895210524847984,,62612,,1614895210,681925740,"""0""",12.0,4.375,12.1000003815,0.0
1614895210572740077,,62613,,1614895210,731936782,"""0""",12.0,3.375,12.1000003815,0.0
1614895210627209901,,62614,,1614895210,781925011,"""0""",12.0,2.75,12.1000003815,0.0
1614895210674176931,,62615,,1614895210,831962563,"""0""",12.0,6.125,12.1000003815,0.0
1614895210728266000,,62616,,1614895210,881906313,"""0""",12.0,5.75,12.1000003815,0.0
1614895210764178037,,62617,,1614895210,931941938,"""0""",12.0,3.75,12.1000003815,0.0
1614895210829046010,,62618,,1614895210,981938552,"""0""",12.0,4.125,12.1000003815,0.0
1614895210878895044,,62619,,1614895211,31953448,"""0""",12.0,3.75,12.1000003815,0.0
1614895210926733970,,62620,,1614895211,81919750,"""0""",12.0,4.375,12.1000003815,0.0
1614895210974596977,,62621,,1614895211,131947667,"""0""",12.0,3.75,12.1000003815,0.0
1614895211027771949,,62622,,1614895211,182113396,"""0""",12.0,6.75,12.1000003815,0.0
1614895211071154117,,62623,,1614895211,231943709,"""0""",12.0,7.0,12.1000003815,0.0
1614895211119519948,,62624,,1614895211,281929438,"""0""",12.0,6.625,12.1000003815,0.0
1614895211174819946,,62625,,1614895211,331948552,"""0""",11.0,7.25,12.0,0.0
1614895211236093044,,62626,,1614895211,381926729,"""0""",11.0,7.75,12.0,0.0
1614895211269948005,,62627,,1614895211,431953188,"""0""",11.0,7.625,12.0,0.0
1614895211366159915,,62628,,1614895211,481916313,"""0""",11.0,8.125,11.8999996185,0.0
1614895211413209915,,62629,,1614895211,532436052,"""0""",11.0,8.125,11.8999996185,0.0
1614895211446079969,,62630,,1614895211,581904385,"""0""",11.0,8.25,11.8999996185,0.0
1614895211474311113,,62631,,1614895211,631981833,"""0""",12.0,8.125,11.8500003815,0.0
1614895211524365901,,62632,,1614895211,681952406,"""0""",12.0,7.875,11.8500003815,0.0
1614895211583846092,,62633,,1614895211,731931677,"""0""",12.0,8.0,11.8500003815,0.0
1614895211620292901,,62634,,1614895211,782107667,"""0""",11.0,7.875,11.8500003815,0.0
1614895211669296026,,62635,,1614895211,833800167,"""0""",11.0,7.875,11.8500003815,0.0
1614895211721862077,,62636,,1614895211,881903344,"""0""",11.0,8.0,11.8500003815,0.0
1614895211766098976,,62637,,1614895211,931980375,"""0""",12.0,7.875,11.8500003815,0.0
1614895211830316066,,62638,,1614895211,981922354,"""0""",12.0,7.625,11.8500003815,0.0
1614895211867141962,,62639,,1614895212,33119750,"""0""",12.0,7.625,11.8500003815,0.0
1614895211924710035,,62640,,1614895212,81906469,"""0""",12.0,7.25,11.8999996185,0.0
1614895211975547075,,62641,,1614895212,131958656,"""0""",12.0,7.375,11.8999996185,0.0
1614895212020370006,,62642,,1614895212,181924281,"""0""",12.0,7.875,11.8999996185,0.0
1614895212075889110,,62643,,1614895212,231953500,"""0""",12.0,7.875,11.8999996185,0.0
1614895212160427093,,62644,,1614895212,281917562,"""0""",12.0,7.875,11.8500003815,0.0
1614895212193216085,,62645,,1614895212,331933552,"""0""",12.0,7.625,11.8500003815,0.0
1614895212227164030,,62646,,1614895212,381922614,"""0""",12.0,7.875,11.8500003815,0.0
1614895212276237964,,62647,,1614895212,432135010,"""0""",11.0,8.125,11.8500003815,0.0
1614895212324676990,,62648,,1614895212,481918604,"""0""",11.0,8.0,11.8500003815,0.0
1614895212370043039,,62649,,1614895212,531963760,"""0""",11.0,8.0,11.8500003815,0.0
1614895212426610946,,62650,,1614895212,582013343,"""0""",11.0,8.0,11.8500003815,0.0
1614895212486140012,,62651,,1614895212,632165687,"""0""",11.0,8.25,11.8500003815,0.0
1614895212538670063,,62652,,1614895212,681915583,"""0""",11.0,8.625,11.8500003815,0.0
1614895212581513881,,62653,,1614895212,731951208,"""0""",11.0,8.25,11.8500003815,0.0
1614895212729795932,,62654,,1614895212,781917770,"""0""",11.0,8.625,11.8500003815,0.0
1614895212730472087,,62655,,1614895212,831960947,"""0""",11.0,8.625,11.8500003815,0.0
1614895212730611085,,62656,,1614895212,881921104,"""0""",11.0,8.125,11.8500003815,0.0
1614895212833122014,,62657,,1614895212,931950322,"""0""",11.0,8.625,11.8500003815,0.0
1614895212833376884,,62658,,1614895212,981960947,"""0""",11.0,8.875,11.8500003815,0.0
1614895212892385959,,62659,,1614895213,31959697,"""0""",11.0,8.5,11.8500003815,0.0
1614895212938674926,,62660,,1614895213,81955479,"""0""",11.0,8.5,11.8500003815,0.0
1614895212990576982,,62661,,1614895213,131930947,"""0""",11.0,8.125,11.8500003815,0.0
1614895213050481081,,62662,,1614895213,181919749,"""0""",11.0,8.0,11.8500003815,0.0
1614895213087891101,,62663,,1614895213,232006468,"""0""",11.0,8.0,11.8500003815,0.0
1614895213135454893,,62664,,1614895213,281921624,"""0""",11.0,7.625,11.8500003815,0.0
1614895213173130035,,62665,,1614895213,332346364,"""0""",11.0,7.375,11.8500003815,0.0
1614895213222176074,,62666,,1614895213,381971729,"""0""",11.0,7.125,11.9499998093,0.0
1614895213288124084,,62667,,1614895213,431989801,"""0""",11.0,7.0,11.9499998093,0.0
1614895213365221023,,62668,,1614895213,481958916,"""0""",11.0,7.0,11.9499998093,0.0
1614895213401053905,,62669,,1614895213,532020322,"""0""",11.0,6.875,12.0,0.0
1614895213449801921,,62670,,1614895213,581973760,"""0""",11.0,6.5,12.0,0.0
1614895213500082969,,62671,,1614895213,631957926,"""0""",11.0,5.5,12.0,0.0
1614895213534668922,,62672,,1614895213,681925114,"""0""",11.0,4.125,12.0,0.0
1614895213567714929,,62673,,1614895213,731965687,"""0""",11.0,3.75,12.1000003815,0.0
1614895213628082036,,62674,,1614895213,781903655,"""0""",11.0,3.0,12.1000003815,0.0
1614895213700614929,,62675,,1614895213,831961572,"""0""",11.0,2.75,12.1000003815,0.0
1614895213728087902,,62676,,1614895213,881920530,"""0""",11.0,2.0,12.1499996185,0.0
1614895213771552085,,62677,,1614895213,932117562,"""0""",11.0,1.375,12.1499996185,0.0
1614895213826410055,,62678,,1614895213,981933395,"""0""",11.0,1.0,12.1499996185,0.0
1614895213870312929,,62679,,1614895214,31956780,"""0""",12.0,1.0,12.25,0.0
1614895213913285017,,62680,,1614895214,81921103,"""0""",12.0,1.0,12.25,0.0
1614895213967133998,,62681,,1614895214,133045947,"""0""",12.0,1.375,12.25,0.0
1614895214026669979,,62682,,1614895214,181978812,"""0""",12.0,1.0,12.25,0.0
1614895214067430973,,62683,,1614895214,231950426,"""0""",12.0,2.0,12.25,0.0
1614895214120007038,,62684,,1614895214,281916207,"""0""",12.0,3.0,12.25,0.0
1614895214176134109,,62685,,1614895214,332540582,"""0""",12.0,2.0,12.1999998093,0.0
1614895214252552986,,62686,,1614895214,382019749,"""0""",12.0,5.75,12.1999998093,0.0
1614895214283924102,,62687,,1614895214,431933655,"""0""",12.0,6.625,12.1999998093,0.0
1614895214326531887,,62688,,1614895214,481940999,"""0""",12.0,4.125,12.1999998093,0.0
1614895214376683950,,62689,,1614895214,531967457,"""0""",11.0,4.75,12.0500001907,0.0
1614895214429127931,,62690,,1614895214,581919488,"""0""",11.0,3.0,12.0500001907,0.0
1614895214472470045,,62691,,1614895214,631964853,"""0""",11.0,1.75,12.0500001907,0.0
1614895214521823883,,62692,,1614895214,681913082,"""0""",11.0,2.375,12.25,0.0
1614895214573026895,,62693,,1614895214,731907613,"""0""",11.0,6.875,12.25,0.0
1614895214627476930,,62694,,1614895214,781939593,"""0""",11.0,6.75,12.25,0.0
1614895214669559955,,62695,,1614895214,831926207,"""0""",11.0,3.0,12.1499996185,0.0
1614895214719681978,,62696,,1614895214,882017457,"""0""",11.0,0.125,12.1499996185,0.0
1614895214775253057,,62697,,1614895214,931940790,"""0""",11.0,0.0,12.1499996185,0.0
1614895214850454092,,62698,,1614895214,981897978,"""0""",12.0,0.0,12.3500003815,0.0
1614895214880592107,,62699,,1614895215,32017822,"""0""",12.0,0.0,12.3500003815,0.0
1614895214932751893,,62700,,1614895215,81922145,"""0""",12.0,0.0,12.3500003815,0.0
1614895214994719982,,62701,,1614895215,132010530,"""0""",12.0,0.0,12.3999996185,0.0
1614895215068900108,,62702,,1614895215,181922874,"""0""",12.0,0.0,12.3999996185,0.0
1614895215133730888,,62703,,1614895215,232888811,"""0""",12.0,0.0,12.3999996185,0.0
1614895215170835971,,62704,,1614895215,281897561,"""0""",12.0,0.0,12.3999996185,0.0
1614895215206747055,,62705,,1614895215,331932717,"""0""",12.0,0.0,12.3999996185,0.0
1614895215242300033,,62706,,1614895215,381978394,"""0""",12.0,0.0,12.3999996185,0.0
1614895215278553962,,62707,,1614895215,431958707,"""0""",12.0,0.0,12.3999996185,0.0
1614895215320185899,,62708,,1614895215,481932196,"""0""",12.0,0.0,12.3999996185,0.0
1614895215381689071,,62709,,1614895215,531937926,"""0""",12.0,0.0,12.3999996185,0.0
1614895215446955919,,62710,,1614895215,581943967,"""0""",12.0,0.0,12.3999996185,0.0
1614895215481544971,,62711,,1614895215,631938134,"""0""",12.0,0.0,12.3999996185,0.0
1614895215519771099,,62712,,1614895215,681958915,"""0""",12.0,0.0,12.3999996185,0.0
1614895215575498104,,62713,,1614895215,732161311,"""0""",12.0,0.0,12.3999996185,0.0
1614895215621160030,,62714,,1614895215,781914228,"""0""",12.0,0.0,12.3999996185,0.0
1614895215683120012,,62715,,1614895215,831964696,"""0""",12.0,0.0,12.3999996185,0.0
1614895215770915985,,62716,,1614895215,881922092,"""0""",12.0,0.0,12.3999996185,0.0
1614895215801194906,,62717,,1614895215,931915425,"""0""",12.0,0.0,12.3999996185,0.0
1614895215843847990,,62718,,1614895215,981954436,"""0""",12.0,0.0,12.3999996185,0.0
1614895215883150100,,62719,,1614895216,31937092,"""0""",12.0,0.0,12.3999996185,0.0
1614895215920136928,,62720,,1614895216,81928967,"""0""",12.0,0.0,12.3999996185,0.0
1614895215970582008,,62721,,1614895216,131933811,"""0""",12.0,0.0,12.3999996185,0.0
1614895216034447908,,62722,,1614895216,181949540,"""0""",12.0,0.0,12.3999996185,0.0
1614895216065781116,,62723,,1614895216,231983707,"""0""",12.0,0.0,12.3999996185,0.0
1614895216129672050,,62724,,1614895216,282057769,"""0""",12.0,0.0,12.3999996185,0.0
1614895216172734975,,62725,,1614895216,332316415,"""0""",12.0,0.0,12.3999996185,0.0
1614895216218049049,,62726,,1614895216,381946154,"""0""",12.0,0.0,12.3999996185,0.0
1614895216272151947,,62727,,1614895216,431927300,"""0""",12.0,0.0,12.3999996185,0.0
1614895216365509986,,62728,,1614895216,482182665,"""0""",12.0,0.0,12.3999996185,0.0
1614895216404357910,,62729,,1614895216,531947040,"""0""",12.0,0.0,12.3999996185,0.0
1614895216438079118,,62730,,1614895216,582172040,"""0""",12.0,0.0,12.3999996185,0.0
1614895216487351894,,62731,,1614895216,631940217,"""0""",12.0,0.0,12.3999996185,0.0
1614895216528125047,,62732,,1614895216,681931206,"""0""",12.0,0.0,12.3999996185,0.0
1614895216587600946,,62733,,1614895216,731952248,"""0""",12.0,0.0,12.3999996185,0.0
1614895216677787065,,62734,,1614895216,781950113,"""0""",12.0,0.0,12.3999996185,0.0
1614895216677825927,,62735,,1614895216,833412404,"""0""",12.0,0.0,12.3999996185,0.0
1614895216724888086,,62736,,1614895216,882792665,"""0""",12.0,0.0,12.3999996185,0.0
1614895216775999069,,62737,,1614895216,931942300,"""0""",12.0,0.0,12.3999996185,0.0
1614895216822103023,,62738,,1614895216,981932977,"""0""",12.0,0.0,12.3999996185,0.0
1614895216884124040,,62739,,1614895217,31927560,"""0""",12.0,0.0,12.3999996185,0.0
1614895216956602096,,62740,,1614895217,81939644,"""0""",12.0,0.0,12.3999996185,0.0
1614895216990717887,,62741,,1614895217,132641623,"""0""",12.0,0.0,12.3999996185,0.0
1614895217036216020,,62742,,1614895217,181940790,"""0""",12.0,0.0,12.3999996185,0.0
1614895217084208965,,62743,,1614895217,232006519,"""0""",12.0,0.0,12.3999996185,0.0
1614895217126384019,,62744,,1614895217,282001362,"""0""",12.0,0.0,12.3999996185,0.0
1614895217177815914,,62745,,1614895217,331934904,"""0""",12.0,0.0,12.3999996185,0.0
1614895217232870101,,62746,,1614895217,381897508,"""0""",12.0,0.0,12.3999996185,0.0
1614895217265506029,,62747,,1614895217,431938133,"""0""",12.0,0.0,12.3999996185,0.0
1614895217321050882,,62748,,1614895217,481922560,"""0""",12.0,0.0,12.3999996185,0.0
1614895217365287065,,62749,,1614895217,531957092,"""0""",12.0,0.0,12.3999996185,0.0
1614895217420720100,,62750,,1614895217,581930789,"""0""",12.0,0.0,12.3999996185,0.0
1614895217472915887,,62751,,1614895217,631947039,"""0""",12.0,0.0,12.3999996185,0.0
1614895217523869037,,62752,,1614895217,681893550,"""0""",12.0,0.0,12.3999996185,0.0
1614895217566984891,,62753,,1614895217,731938862,"""0""",12.0,0.0,12.3999996185,0.0
1614895217621479988,,62754,,1614895217,781978185,"""0""",12.0,0.0,12.3999996185,0.0
1614895217676450967,,62755,,1614895217,831991571,"""0""",12.0,0.0,12.3999996185,0.0
1614895217720140933,,62756,,1614895217,881972143,"""0""",12.0,0.0,12.3999996185,0.0
1614895217767638921,,62757,,1614895217,931960998,"""0""",12.0,0.0,12.3999996185,0.0
1614895217818568944,,62758,,1614895217,982144696,"""0""",12.0,0.0,12.3999996185,0.0
1614895217871047019,,62759,,1614895218,31923706,"""0""",12.0,0.0,12.3999996185,0.0
1614895217927365064,,62760,,1614895218,81943914,"""0""",12.0,0.0,12.3999996185,0.0
1614895217965827941,,62761,,1614895218,131961362,"""0""",12.0,0.0,12.3999996185,0.0
1614895218025312900,,62762,,1614895218,181924539,"""0""",12.0,0.0,12.3999996185,0.0
1614895218081911087,,62763,,1614895218,231951414,"""0""",12.0,0.0,12.3999996185,0.0
1614895218169935941,,62764,,1614895218,281934018,"""0""",12.0,0.0,12.3999996185,0.0
1614895218210705041,,62765,,1614895218,331995997,"""0""",12.0,0.0,12.3999996185,0.0
1614895218276592016,,62766,,1614895218,381931987,"""0""",12.0,0.0,12.3999996185,0.0
1614895218319667100,,62767,,1614895218,433345268,"""0""",12.0,0.0,12.3999996185,0.0
1614895218355006933,,62768,,1614895218,481913602,"""0""",12.0,0.0,12.3999996185,0.0
1614895218403302907,,62769,,1614895218,531928810,"""0""",12.0,0.0,12.3999996185,0.0
