rosbagTimestamp,header,seq,stamp,secs,nsecs,frame_id,Temperature,OutputCurrent,BusVoltage,ClosedLoopError
1614894817897555112,,54760,,1614894818,81949119,"""0""",13.0,0.0,12.5,0.0
1614894817952661991,,54761,,1614894818,131959848,"""0""",13.0,0.0,12.5,0.0
1614894817994549036,,54762,,1614894818,181941671,"""0""",13.0,0.0,12.5,0.0
1614894818053978919,,54763,,1614894818,232020265,"""0""",13.0,0.0,12.5,0.0
1614894818100199937,,54764,,1614894818,285331723,"""0""",13.0,0.0,12.5,0.0
1614894818154686927,,54765,,1614894818,331906098,"""0""",13.0,0.0,12.5,0.0
1614894818201347112,,54766,,1614894818,381945942,"""0""",13.0,0.0,12.5,0.0
1614894818260303020,,54767,,1614894818,432190838,"""0""",13.0,0.0,12.5,0.0
1614894818303757905,,54768,,1614894818,481979015,"""0""",13.0,0.0,12.5,0.0
1614894818367360115,,54769,,1614894818,532064015,"""0""",13.0,0.0,12.5,0.0
1614894818423084020,,54770,,1614894818,581992608,"""0""",13.0,0.0,12.5,0.0
1614894818458945035,,54771,,1614894818,631935890,"""0""",13.0,0.0,12.5,0.0
1614894818500643968,,54772,,1614894818,682123702,"""0""",13.0,0.0,12.5,0.0
1614894818558696985,,54773,,1614894818,731948598,"""0""",13.0,0.0,12.5,0.0
1614894818603797912,,54774,,1614894818,782017764,"""0""",13.0,0.0,12.5,0.0
1614894818669816970,,54775,,1614894818,831934431,"""0""",13.0,0.0,12.5,0.0
1614894818710009098,,54776,,1614894818,881959431,"""0""",13.0,0.0,12.5,0.0
1614894818759651899,,54777,,1614894818,931907139,"""0""",13.0,0.0,12.5,0.0
1614894818806901931,,54778,,1614894818,981954587,"""0""",13.0,0.0,12.5,0.0
1614894818865123987,,54779,,1614894819,31926931,"""0""",13.0,0.0,12.5,0.0
1614894818901377916,,54780,,1614894819,82194223,"""0""",13.0,0.0,12.5,0.0
1614894818967974901,,54781,,1614894819,132125889,"""0""",12.0,0.0,12.5,0.0
1614894819014457941,,54782,,1614894819,181958025,"""0""",12.0,0.0,12.5,0.0
1614894819062125921,,54783,,1614894819,231925004,"""0""",12.0,0.0,12.5,0.0
1614894819106715917,,54784,,1614894819,282421566,"""0""",12.0,0.0,12.5,0.0
1614894819162898063,,54785,,1614894819,331932504,"""0""",13.0,0.0,12.5,0.0
1614894819211647033,,54786,,1614894819,381952452,"""0""",13.0,0.0,12.5,0.0
1614894819293703079,,54787,,1614894819,431945056,"""0""",13.0,0.0,12.5,0.0
1614894819324600934,,54788,,1614894819,481942816,"""0""",13.0,0.0,12.5,0.0
1614894819361031055,,54789,,1614894819,531986306,"""0""",13.0,0.0,12.5,0.0
1614894819405705928,,54790,,1614894819,581988441,"""0""",13.0,0.0,12.5,0.0
1614894819464654922,,54791,,1614894819,632559066,"""0""",13.0,0.0,12.5,0.0
1614894819508661031,,54792,,1614894819,681942608,"""0""",13.0,0.0,12.5,0.0
1614894819564124107,,54793,,1614894819,731936566,"""0""",13.0,0.0,12.5,0.0
1614894819619313955,,54794,,1614894819,782012347,"""0""",13.0,0.0,12.5,0.0
1614894819664592027,,54795,,1614894819,832405056,"""0""",13.0,0.0,12.5,0.0
1614894819716859102,,54796,,1614894819,881985889,"""0""",13.0,0.0,12.5,0.0
1614894819766786098,,54797,,1614894819,931968649,"""0""",13.0,0.0,12.5,0.0
1614894819807353019,,54798,,1614894819,982301983,"""0""",13.0,0.0,12.5,0.0
1614894819869981050,,54799,,1614894820,31938285,"""0""",13.0,0.0,12.5,0.0
1614894819934537887,,54800,,1614894820,82020212,"""0""",13.0,0.0,12.5,0.0
1614894819973525047,,54801,,1614894820,131985889,"""0""",13.0,0.0,12.5,0.0
1614894820006108999,,54802,,1614894820,181945316,"""0""",13.0,0.0,12.5,0.0
1614894820066010951,,54803,,1614894820,231939587,"""0""",13.0,0.0,12.5,0.0
1614894820107355117,,54804,,1614894820,282527608,"""0""",13.0,0.0,12.5,0.0
1614894820167627096,,54805,,1614894820,331946670,"""0""",13.0,0.0,12.5,0.0
1614894820225764036,,54806,,1614894820,382023181,"""0""",13.0,0.0,12.5,0.0
1614894820262564897,,54807,,1614894820,431965785,"""0""",13.0,0.0,12.5,0.0
1614894820307403087,,54808,,1614894820,481943597,"""0""",13.0,0.0,12.5,0.0
1614894820362668037,,54809,,1614894820,532022972,"""0""",13.0,0.0,12.5,0.0
1614894820405529975,,54810,,1614894820,582002243,"""0""",13.0,0.0,12.5,0.0
1614894820510983943,,54811,,1614894820,631953910,"""0""",13.0,0.0,12.5,0.0
1614894820529653072,,54812,,1614894820,681943232,"""0""",13.0,0.0,12.5,0.0
1614894820568531036,,54813,,1614894820,731911045,"""0""",13.0,0.0,12.5,0.0
1614894820606703996,,54814,,1614894820,781982451,"""0""",13.0,0.0,12.5,0.0
1614894820661310911,,54815,,1614894820,831931149,"""0""",13.0,0.0,12.5,0.0
1614894820707416057,,54816,,1614894820,881959691,"""0""",13.0,0.0,12.5,0.0
1614894820765873908,,54817,,1614894820,931928909,"""0""",13.0,0.0,12.5,0.0
1614894820810597896,,54818,,1614894820,983149847,"""0""",13.0,0.0,12.5,0.0
1614894820879256963,,54819,,1614894821,32623857,"""0""",13.0,0.0,12.5,0.0
1614894820905385971,,54820,,1614894821,81941097,"""0""",13.0,0.0,12.5,0.0
1614894820970312118,,54821,,1614894821,131934170,"""0""",13.0,0.0,12.5,0.0
1614894821007369995,,54822,,1614894821,182059014,"""0""",13.0,0.0,12.5,0.0
1614894821061520099,,54823,,1614894821,231927764,"""0""",13.0,0.0,12.5,0.0
1614894821105781078,,54824,,1614894821,282843701,"""0""",13.0,0.0,12.5,0.0
1614894821171345949,,54825,,1614894821,331923805,"""0""",13.0,0.0,12.5,0.0
1614894821205244064,,54826,,1614894821,381940420,"""0""",12.0,0.0,12.5,0.0
1614894821261251926,,54827,,1614894821,432065472,"""0""",12.0,0.0,12.5,0.0
1614894821305883884,,54828,,1614894821,482091253,"""0""",12.0,0.0,12.5,0.0
1614894821360806941,,54829,,1614894821,531925836,"""0""",13.0,0.0,12.5,0.0
1614894821407255887,,54830,,1614894821,582019482,"""0""",13.0,0.0,12.5,0.0
1614894821477718114,,54831,,1614894821,632155055,"""0""",13.0,0.0,12.5,0.0
1614894821506800889,,54832,,1614894821,681960107,"""0""",13.0,0.0,12.5,0.0
1614894821569720029,,54833,,1614894821,731977711,"""0""",13.0,0.0,12.5,0.0
1614894821612147092,,54834,,1614894821,781954378,"""0""",13.0,0.0,12.5,0.0
1614894821675792932,,54835,,1614894821,831937295,"""0""",13.0,0.0,12.5,0.0
1614894821717456102,,54836,,1614894821,881994117,"""0""",13.0,0.0,12.5,0.0
1614894821773960113,,54837,,1614894821,931924638,"""0""",13.0,0.0,12.5,0.0
1614894821810473918,,54838,,1614894821,982003597,"""0""",13.0,0.0,12.5,0.0
1614894821869381904,,54839,,1614894822,31945940,"""0""",13.0,0.0,12.5,0.0
1614894821908862113,,54840,,1614894822,81998961,"""0""",13.0,0.0,12.5,0.0
1614894821973738908,,54841,,1614894822,132089222,"""0""",13.0,0.0,12.5,0.0
1614894822034574985,,54842,,1614894822,182043701,"""0""",13.0,0.0,12.5,0.0
1614894822075885057,,54843,,1614894822,231921774,"""0""",13.0,0.0,12.5,0.0
1614894822106728076,,54844,,1614894822,281939378,"""0""",13.0,0.0,12.5,0.0
1614894822166555881,,54845,,1614894822,331914951,"""0""",13.0,0.0,12.5,0.0
1614894822209989070,,54846,,1614894822,381947242,"""0""",13.0,0.0,12.5,0.0
1614894822273322105,,54847,,1614894822,431997867,"""0""",13.0,0.0,12.5,0.0
1614894822310614109,,54848,,1614894822,482000940,"""0""",13.0,0.0,12.5,0.0
1614894822363317012,,54849,,1614894822,532350940,"""0""",13.0,0.0,12.5,0.0
1614894822410221099,,54850,,1614894822,581928128,"""0""",13.0,0.0,12.5,0.0
1614894822465801954,,54851,,1614894822,631966878,"""0""",13.0,0.0,12.5,0.0
1614894822509367942,,54852,,1614894822,681948805,"""0""",13.0,0.0,12.5,0.0
1614894822567679882,,54853,,1614894822,731969117,"""0""",13.0,0.0,12.5,0.0
1614894822610162019,,54854,,1614894822,781928753,"""0""",13.0,0.0,12.5,0.0
1614894822661767959,,54855,,1614894822,831983596,"""0""",13.0,0.0,12.5,0.0
1614894822703272104,,54856,,1614894822,882037502,"""0""",13.0,0.0,12.5,0.0
1614894822766021013,,54857,,1614894822,931979013,"""0""",13.0,0.0,12.5,0.0
1614894822804130077,,54858,,1614894822,981994221,"""0""",13.0,0.0,12.5,0.0
1614894822888706922,,54859,,1614894823,31981773,"""0""",13.0,0.0,12.5,0.0
1614894822938230037,,54860,,1614894823,82171409,"""0""",13.0,0.0,12.5,0.0
1614894822966806888,,54861,,1614894823,131913127,"""0""",13.0,0.0,12.5,0.0
1614894823009229898,,54862,,1614894823,181954482,"""0""",13.0,0.0,12.5,0.0
1614894823064287900,,54863,,1614894823,231938179,"""0""",13.0,0.0,12.5,0.0
1614894823107003927,,54864,,1614894823,281942815,"""0""",13.0,0.0,12.5,0.0
1614894823164319038,,54865,,1614894823,331941929,"""0""",12.0,0.0,12.5,0.0
1614894823220282077,,54866,,1614894823,381904898,"""0""",12.0,0.0,12.5,0.0
1614894823270922899,,54867,,1614894823,431945315,"""0""",12.0,0.0,12.5,0.0
1614894823346466064,,54868,,1614894823,482016929,"""0""",13.0,0.0,12.5,0.0
1614894823373661041,,54869,,1614894823,531925419,"""0""",13.0,0.0,12.5,0.0
1614894823411520957,,54870,,1614894823,582413283,"""0""",13.0,0.0,12.5,0.0
1614894823462771892,,54871,,1614894823,632010575,"""0""",12.0,0.0,12.5,0.0
1614894823508296966,,54872,,1614894823,681949533,"""0""",12.0,0.0,12.5,0.0
1614894823565836906,,54873,,1614894823,731933908,"""0""",12.0,0.0,12.5,0.0
1614894823612703084,,54874,,1614894823,781944950,"""0""",13.0,0.0,12.5,0.0
1614894823667314052,,54875,,1614894823,832079638,"""0""",13.0,5.875,12.5,0.0
1614894823707348108,,54876,,1614894823,881977450,"""0""",13.0,4.75,12.5,0.0
1614894823767036914,,54877,,1614894823,931901565,"""0""",12.0,4.625,12.1499996185,0.0
1614894823815814971,,54878,,1614894823,981939117,"""0""",12.0,4.75,12.1499996185,0.0
1614894823862181901,,54879,,1614894824,32055783,"""0""",12.0,4.625,12.1499996185,0.0
1614894823917124032,,54880,,1614894824,81945262,"""0""",12.0,4.25,12.1499996185,0.0
1614894823978964090,,54881,,1614894824,131976096,"""0""",13.0,4.0,12.25,0.0
1614894824033709049,,54882,,1614894824,181958856,"""0""",13.0,3.375,12.25,0.0
1614894824067399978,,54883,,1614894824,231965054,"""0""",13.0,1.75,12.25,0.0
1614894824105071067,,54884,,1614894824,281971044,"""0""",12.0,1.375,12.3500003815,0.0
1614894824165676116,,54885,,1614894824,331926564,"""0""",12.0,0.625,12.3500003815,0.0
1614894824219476938,,54886,,1614894824,381940731,"""0""",12.0,0.375,12.3500003815,0.0
1614894824265945911,,54887,,1614894824,431933960,"""0""",12.0,0.375,12.3999996185,0.0
1614894824311017990,,54888,,1614894824,483098127,"""0""",12.0,1.0,12.3999996185,0.0
1614894824365837097,,54889,,1614894824,531940106,"""0""",12.0,1.375,12.3999996185,0.0
1614894824419466972,,54890,,1614894824,583012294,"""0""",12.0,1.0,12.3999996185,0.0
1614894824463037967,,54891,,1614894824,631920002,"""0""",12.0,3.0,12.3999996185,0.0
1614894824512798070,,54892,,1614894824,681936200,"""0""",12.0,3.875,12.3999996185,0.0
1614894824568564891,,54893,,1614894824,731967918,"""0""",12.0,3.0,12.3000001907,0.0
1614894824611304044,,54894,,1614894824,782015835,"""0""",12.0,2.75,12.3000001907,0.0
1614894824657131910,,54895,,1614894824,831947866,"""0""",12.0,1.75,12.3000001907,0.0
1614894824711206912,,54896,,1614894824,882489064,"""0""",12.0,2.75,12.3000001907,0.0
1614894824754163980,,54897,,1614894824,931953960,"""0""",12.0,4.0,12.3000001907,0.0
1614894824810895919,,54898,,1614894824,981932241,"""0""",12.0,3.0,12.3000001907,0.0
1614894824861701011,,54899,,1614894825,31937658,"""0""",12.0,1.375,12.3000001907,0.0
1614894824906775951,,54900,,1614894825,81925470,"""0""",12.0,2.0,12.3500003815,0.0
1614894824961576938,,54901,,1614894825,131990210,"""0""",12.0,1.75,12.3500003815,0.0
1614894825011773109,,54902,,1614894825,182087033,"""0""",12.0,1.0,12.3500003815,0.0
1614894825074991941,,54903,,1614894825,231937189,"""0""",12.0,1.375,12.3999996185,0.0
1614894825105307102,,54904,,1614894825,281973856,"""0""",12.0,2.0,12.3999996185,0.0
1614894825158262014,,54905,,1614894825,331938387,"""0""",12.0,1.375,12.3999996185,0.0
1614894825213917016,,54906,,1614894825,381967918,"""0""",12.0,1.375,12.3500003815,0.0
1614894825256381034,,54907,,1614894825,432025679,"""0""",12.0,1.375,12.3500003815,0.0
1614894825334945917,,54908,,1614894825,481950001,"""0""",12.0,1.375,12.3500003815,0.0
1614894825354780912,,54909,,1614894825,531921304,"""0""",12.0,0.625,12.3999996185,0.0
1614894825405662059,,54910,,1614894825,581933908,"""0""",12.0,0.625,12.3999996185,0.0
1614894825459577083,,54911,,1614894825,632002345,"""0""",12.0,1.375,12.3999996185,0.0
1614894825509165048,,54912,,1614894825,681959324,"""0""",12.0,1.0,12.3999996185,0.0
1614894825558583974,,54913,,1614894825,731926616,"""0""",12.0,0.625,12.3999996185,0.0
1614894825611468076,,54914,,1614894825,781997137,"""0""",12.0,0.375,12.3999996185,0.0
1614894825657614946,,54915,,1614894825,831939533,"""0""",12.0,0.375,12.3999996185,0.0
1614894825710892915,,54916,,1614894825,881999845,"""0""",12.0,0.375,12.4499998093,0.0
1614894825759279012,,54917,,1614894825,931955158,"""0""",12.0,0.375,12.4499998093,0.0
1614894825809350967,,54918,,1614894825,982034376,"""0""",12.0,0.375,12.4499998093,0.0
1614894825863517999,,54919,,1614894826,31965522,"""0""",12.0,0.375,12.4499998093,0.0
1614894825908126115,,54920,,1614894826,81943230,"""0""",12.0,0.375,12.4499998093,0.0
1614894825965220928,,54921,,1614894826,131992032,"""0""",12.0,0.375,12.4499998093,0.0
1614894826013406038,,54922,,1614894826,181952345,"""0""",12.0,0.375,12.3999996185,0.0
1614894826065821886,,54923,,1614894826,232555053,"""0""",12.0,0.625,12.3999996185,0.0
1614894826115226030,,54924,,1614894826,281923282,"""0""",12.0,0.625,12.3999996185,0.0
1614894826164252996,,54925,,1614894826,331910210,"""0""",12.0,2.375,12.3000001907,0.0
1614894826226470947,,54926,,1614894826,381946668,"""0""",12.0,2.0,12.3000001907,0.0
1614894826303457021,,54927,,1614894826,431951824,"""0""",12.0,1.375,12.3000001907,0.0
1614894826340912103,,54928,,1614894826,483606824,"""0""",12.0,1.375,12.3000001907,0.0
1614894826391480922,,54929,,1614894826,532993126,"""0""",12.0,1.75,12.3500003815,0.0
1614894826430567979,,54930,,1614894826,581936511,"""0""",12.0,2.0,12.3500003815,0.0
1614894826507508993,,54931,,1614894826,631937293,"""0""",12.0,1.75,12.3500003815,0.0
1614894826539051055,,54932,,1614894826,681940939,"""0""",12.0,1.375,12.3999996185,0.0
1614894826581640005,,54933,,1614894826,731986303,"""0""",12.0,1.75,12.3999996185,0.0
1614894826643028974,,54934,,1614894826,781994480,"""0""",12.0,0.625,12.3999996185,0.0
1614894826679156064,,54935,,1614894826,832004688,"""0""",12.0,0.625,12.3999996185,0.0
1614894826713237047,,54936,,1614894826,882009480,"""0""",12.0,1.75,12.3999996185,0.0
1614894826761204957,,54937,,1614894826,931947813,"""0""",12.0,1.375,12.3999996185,0.0
1614894826845015048,,54938,,1614894826,981941876,"""0""",12.0,1.0,12.3999996185,0.0
1614894826881474018,,54939,,1614894827,31944220,"""0""",12.0,1.375,12.3999996185,0.0
1614894826911024093,,54940,,1614894827,81961772,"""0""",12.0,1.375,12.3999996185,0.0
1614894826983884096,,54941,,1614894827,131905313,"""0""",12.0,1.75,12.3500003815,0.0
1614894827010411977,,54942,,1614894827,181945522,"""0""",12.0,2.0,12.3500003815,0.0
1614894827060188055,,54943,,1614894827,231938907,"""0""",12.0,2.0,12.3500003815,0.0
1614894827134785890,,54944,,1614894827,281955001,"""0""",12.0,2.0,12.3500003815,0.0
1614894827162671089,,54945,,1614894827,332025730,"""0""",12.0,2.0,12.3500003815,0.0
1614894827212012052,,54946,,1614894827,381959115,"""0""",12.0,1.375,12.3500003815,0.0
1614894827261482000,,54947,,1614894827,431922970,"""0""",12.0,2.0,12.3500003815,0.0
1614894827307104110,,54948,,1614894827,482400990,"""0""",12.0,3.375,12.25,0.0
1614894827359095096,,54949,,1614894827,531937813,"""0""",12.0,2.375,12.25,0.0
1614894827435559034,,54950,,1614894827,581984844,"""0""",12.0,2.375,12.25,0.0
1614894827463851928,,54951,,1614894827,631925730,"""0""",12.0,3.0,12.25,0.0
1614894827512554883,,54952,,1614894827,682010574,"""0""",12.0,2.75,12.25,0.0
1614894827572407007,,54953,,1614894827,731960105,"""0""",12.0,2.75,12.25,0.0
1614894827607191085,,54954,,1614894827,781937449,"""0""",12.0,2.375,12.3500003815,0.0
1614894827663475036,,54955,,1614894827,831964844,"""0""",12.0,1.0,12.3500003815,0.0
1614894827741115093,,54956,,1614894827,881937657,"""0""",12.0,1.375,12.3500003815,0.0
1614894827770253896,,54957,,1614894827,931928490,"""0""",12.0,2.0,12.3000001907,0.0
1614894827809976100,,54958,,1614894827,982111303,"""0""",12.0,2.375,12.3000001907,0.0
1614894827863167047,,54959,,1614894828,32364063,"""0""",12.0,2.0,12.3000001907,0.0
1614894827912172079,,54960,,1614894828,83078334,"""0""",12.0,1.75,12.3000001907,0.0
1614894827964628934,,54961,,1614894828,131922969,"""0""",12.0,1.75,12.3500003815,0.0
1614894828005470991,,54962,,1614894828,182480417,"""0""",12.0,2.0,12.3500003815,0.0
1614894828065145969,,54963,,1614894828,231965521,"""0""",12.0,2.0,12.3500003815,0.0
1614894828104470014,,54964,,1614894828,281947292,"""0""",12.0,1.375,12.3500003815,0.0
1614894828163652896,,54965,,1614894828,331935677,"""0""",12.0,1.75,12.3500003815,0.0
1614894828213363885,,54966,,1614894828,382007813,"""0""",12.0,3.375,12.3500003815,0.0
1614894828263560056,,54967,,1614894828,432027761,"""0""",12.0,2.75,12.3500003815,0.0
1614894828323630094,,54968,,1614894828,482018438,"""0""",12.0,2.0,12.3500003815,0.0
1614894828362600088,,54969,,1614894828,531983698,"""0""",12.0,2.0,12.3500003815,0.0
1614894828411125898,,54970,,1614894828,582065052,"""0""",12.0,1.75,12.3500003815,0.0
1614894828462666988,,54971,,1614894828,631926979,"""0""",12.0,1.375,12.3500003815,0.0
1614894828509918928,,54972,,1614894828,681988386,"""0""",12.0,1.75,12.3500003815,0.0
1614894828567068099,,54973,,1614894828,731909792,"""0""",12.0,2.0,12.3000001907,0.0
1614894828636358976,,54974,,1614894828,781931511,"""0""",12.0,2.375,12.3000001907,0.0
1614894828672099113,,54975,,1614894828,831945625,"""0""",12.0,3.0,12.3000001907,0.0
1614894828708065032,,54976,,1614894828,882033802,"""0""",12.0,3.75,12.3000001907,0.0
1614894828764209985,,54977,,1614894828,931926875,"""0""",12.0,3.0,12.25,0.0
1614894828806732892,,54978,,1614894828,981971302,"""0""",12.0,2.375,12.25,0.0
1614894828868211030,,54979,,1614894829,32053177,"""0""",12.0,2.0,12.25,0.0
1614894828930054903,,54980,,1614894829,82634167,"""0""",12.0,1.375,12.3500003815,0.0
1614894828969505071,,54981,,1614894829,131932396,"""0""",12.0,1.0,12.3500003815,0.0
1614894829010139942,,54982,,1614894829,182085573,"""0""",12.0,1.375,12.3500003815,0.0
1614894829067061901,,54983,,1614894829,231927604,"""0""",12.0,1.375,12.3500003815,0.0
1614894829110296010,,54984,,1614894829,281980833,"""0""",12.0,1.375,12.3500003815,0.0
1614894829163899898,,54985,,1614894829,331942969,"""0""",12.0,1.75,12.3500003815,0.0
1614894829209395885,,54986,,1614894829,381982708,"""0""",12.0,2.0,12.3000001907,0.0
1614894829259814023,,54987,,1614894829,432183750,"""0""",12.0,2.375,12.3000001907,0.0
1614894829307038068,,54988,,1614894829,481964427,"""0""",12.0,3.875,12.3000001907,0.0
1614894829357532024,,54989,,1614894829,531962552,"""0""",12.0,4.0,12.25,0.0
1614894829408040046,,54990,,1614894829,581968542,"""0""",12.0,3.75,12.25,0.0
1614894829458420038,,54991,,1614894829,631922552,"""0""",12.0,3.75,12.25,0.0
1614894829535406112,,54992,,1614894829,681967708,"""0""",12.0,3.75,12.25,0.0
1614894829569371938,,54993,,1614894829,731950885,"""0""",12.0,2.0,12.3000001907,0.0
1614894829607748985,,54994,,1614894829,781963229,"""0""",12.0,2.0,12.3000001907,0.0
1614894829660867929,,54995,,1614894829,831948385,"""0""",12.0,2.0,12.3000001907,0.0
1614894829717454910,,54996,,1614894829,882881510,"""0""",12.0,1.75,12.3500003815,0.0
1614894829767383098,,54997,,1614894829,931929844,"""0""",12.0,1.75,12.3500003815,0.0
1614894829827986955,,54998,,1614894829,981963177,"""0""",12.0,2.0,12.3500003815,0.0
1614894829861594915,,54999,,1614894830,32032916,"""0""",12.0,1.75,12.3500003815,0.0
1614894829909337997,,55000,,1614894830,81960312,"""0""",12.0,1.375,12.3500003815,0.0
1614894829960755109,,55001,,1614894830,131920521,"""0""",12.0,2.375,12.3500003815,0.0
1614894830010721921,,55002,,1614894830,181971562,"""0""",12.0,2.75,12.3000001907,0.0
1614894830055816888,,55003,,1614894830,231923333,"""0""",12.0,1.75,12.3000001907,0.0
1614894830123116970,,55004,,1614894830,281956354,"""0""",12.0,1.375,12.3000001907,0.0
1614894830212093114,,55005,,1614894830,332004010,"""0""",12.0,1.0,12.3500003815,0.0
1614894830237075090,,55006,,1614894830,384312604,"""0""",12.0,0.625,12.3500003815,0.0
1614894830263111114,,55007,,1614894830,431925677,"""0""",12.0,0.625,12.3500003815,0.0
1614894830318423032,,55008,,1614894830,481965000,"""0""",12.0,0.625,12.3500003815,0.0
1614894830359591007,,55009,,1614894830,531932291,"""0""",12.0,1.0,12.3999996185,0.0
1614894830413767099,,55010,,1614894830,581963645,"""0""",12.0,1.0,12.3999996185,0.0
1614894830463340997,,55011,,1614894830,631971093,"""0""",12.0,1.75,12.3999996185,0.0
1614894830517402887,,55012,,1614894830,683018697,"""0""",12.0,1.75,12.3500003815,0.0
1614894830557940006,,55013,,1614894830,731917447,"""0""",12.0,1.375,12.3500003815,0.0
1614894830616437911,,55014,,1614894830,781959999,"""0""",12.0,1.0,12.3500003815,0.0
1614894830723426103,,55015,,1614894830,832075208,"""0""",12.0,1.0,12.3500003815,0.0
1614894830723459959,,55016,,1614894830,881923333,"""0""",12.0,1.375,12.3500003815,0.0
1614894830762537002,,55017,,1614894830,931971458,"""0""",12.0,1.0,12.3500003815,0.0
1614894830816479921,,55018,,1614894830,981955051,"""0""",12.0,1.0,12.3500003815,0.0
1614894830866931915,,55019,,1614894831,31919843,"""0""",12.0,1.375,12.3500003815,0.0
1614894831038178920,,55020,,1614894831,81962395,"""0""",12.0,1.75,12.3500003815,0.0
1614894831038290023,,55021,,1614894831,131919426,"""0""",12.0,1.75,12.3000001907,0.0
1614894831038311958,,55022,,1614894831,181921614,"""0""",12.0,2.0,12.3000001907,0.0
1614894831061280965,,55023,,1614894831,231995364,"""0""",12.0,3.375,12.3000001907,0.0
1614894831114947080,,55024,,1614894831,281994426,"""0""",12.0,3.0,12.3000001907,0.0
1614894831155832052,,55025,,1614894831,331932343,"""0""",12.0,2.375,12.3000001907,0.0
1614894831223114967,,55026,,1614894831,381984010,"""0""",12.0,1.75,12.3000001907,0.0
1614894831260725975,,55027,,1614894831,431924583,"""0""",12.0,2.375,12.3000001907,0.0
1614894831324491977,,55028,,1614894831,481948905,"""0""",12.0,3.375,12.25,0.0
1614894831400383949,,55029,,1614894831,531916353,"""0""",12.0,2.375,12.25,0.0
1614894831429442882,,55030,,1614894831,581953124,"""0""",12.0,3.0,12.25,0.0
1614894831469146013,,55031,,1614894831,631957812,"""0""",12.0,3.375,12.25,0.0
1614894831517993927,,55032,,1614894831,681959322,"""0""",12.0,2.375,12.25,0.0
1614894831560043096,,55033,,1614894831,731920989,"""0""",12.0,1.375,12.25,0.0
1614894831618974924,,55034,,1614894831,781951405,"""0""",12.0,1.0,12.3500003815,0.0
1614894831661283016,,55035,,1614894831,831902603,"""0""",12.0,1.375,12.3500003815,0.0
1614894831712513923,,55036,,1614894831,882027239,"""0""",12.0,1.375,12.3500003815,0.0
1614894831757713079,,55037,,1614894831,931899739,"""0""",12.0,1.0,12.3500003815,0.0
1614894831815402984,,55038,,1614894831,981947551,"""0""",12.0,1.0,12.3500003815,0.0
1614894831887669086,,55039,,1614894832,31916561,"""0""",12.0,0.625,12.3500003815,0.0
1614894831927309989,,55040,,1614894832,81942603,"""0""",12.0,0.625,12.3500003815,0.0
1614894831959711074,,55041,,1614894832,131959634,"""0""",12.0,1.75,12.3500003815,0.0
1614894832014241933,,55042,,1614894832,181939582,"""0""",12.0,2.75,12.3500003815,0.0
1614894832065998077,,55043,,1614894832,231924843,"""0""",12.0,1.75,12.3500003815,0.0
1614894832118585109,,55044,,1614894832,281945624,"""0""",12.0,1.375,12.3500003815,0.0
1614894832160690069,,55045,,1614894832,331926249,"""0""",12.0,3.875,12.3500003815,0.0
1614894832225053071,,55046,,1614894832,382002134,"""0""",12.0,3.875,12.3500003815,0.0
1614894832269356012,,55047,,1614894832,431961145,"""0""",12.0,4.0,12.1999998093,0.0
1614894832314743995,,55048,,1614894832,481950311,"""0""",12.0,4.375,12.1999998093,0.0
1614894832364653110,,55049,,1614894832,531933593,"""0""",12.0,4.375,12.1999998093,0.0
1614894832420234918,,55050,,1614894832,581944009,"""0""",12.0,4.125,12.1999998093,0.0
1614894832466243982,,55051,,1614894832,631973280,"""0""",12.0,4.25,12.1999998093,0.0
1614894832543143987,,55052,,1614894832,681952030,"""0""",12.0,4.25,12.1999998093,0.0
1614894832572117090,,55053,,1614894832,731992811,"""0""",12.0,4.375,12.1999998093,0.0
1614894832621942043,,55054,,1614894832,781952499,"""0""",12.0,4.25,12.1999998093,0.0
1614894832734853029,,55055,,1614894832,831971092,"""0""",12.0,4.375,12.1999998093,0.0
1614894832734946966,,55056,,1614894832,881940467,"""0""",12.0,4.375,12.1999998093,0.0
1614894832774372100,,55057,,1614894832,931916665,"""0""",12.0,4.375,12.1999998093,0.0
1614894832821577072,,55058,,1614894832,981944530,"""0""",12.0,4.375,12.1999998093,0.0
1614894832865322113,,55059,,1614894833,32114790,"""0""",12.0,4.5,12.1999998093,0.0
1614894832915047883,,55060,,1614894833,81945207,"""0""",12.0,4.375,12.1499996185,0.0
1614894832963985919,,55061,,1614894833,131934582,"""0""",12.0,4.25,12.1499996185,0.0
1614894833017537117,,55062,,1614894833,181955207,"""0""",12.0,4.25,12.1499996185,0.0
1614894833067780017,,55063,,1614894833,231961040,"""0""",12.0,4.375,12.1999998093,0.0
1614894833156208992,,55064,,1614894833,282013071,"""0""",12.0,4.5,12.1999998093,0.0
1614894833194610118,,55065,,1614894833,331912863,"""0""",12.0,4.5,12.1999998093,0.0
1614894833235763072,,55066,,1614894833,381944790,"""0""",12.0,4.375,12.1499996185,0.0
1614894833286195993,,55067,,1614894833,431992759,"""0""",12.0,4.5,12.1499996185,0.0
1614894833322562932,,55068,,1614894833,481934217,"""0""",12.0,4.5,12.1499996185,0.0
1614894833375783920,,55069,,1614894833,531948071,"""0""",12.0,4.625,12.1000003815,0.0
1614894833421046972,,55070,,1614894833,582379113,"""0""",12.0,4.75,12.1000003815,0.0
1614894833464792013,,55071,,1614894833,631909425,"""0""",12.0,4.875,12.1000003815,0.0
1614894833514920949,,55072,,1614894833,681930675,"""0""",12.0,4.875,12.1000003815,0.0
1614894833562566995,,55073,,1614894833,731947082,"""0""",12.0,4.875,12.1000003815,0.0
1614894833617640972,,55074,,1614894833,781945675,"""0""",12.0,4.875,12.1000003815,0.0
1614894833662619113,,55075,,1614894833,832048436,"""0""",12.0,4.25,12.1000003815,0.0
1614894833720449924,,55076,,1614894833,881934113,"""0""",12.0,4.25,12.1499996185,0.0
1614894833790688991,,55077,,1614894833,931969790,"""0""",12.0,4.625,12.1499996185,0.0
1614894833822251081,,55078,,1614894833,981943592,"""0""",12.0,4.875,12.1499996185,0.0
1614894833862394094,,55079,,1614894834,31984529,"""0""",12.0,4.625,12.1499996185,0.0
1614894833913219928,,55080,,1614894834,81969894,"""0""",12.0,4.5,12.1499996185,0.0
1614894833963185071,,55081,,1614894834,131934738,"""0""",12.0,4.5,12.1499996185,0.0
1614894834019046068,,55082,,1614894834,181940571,"""0""",12.0,4.625,12.1000003815,0.0
1614894834063515901,,55083,,1614894834,231945779,"""0""",12.0,4.5,12.1000003815,0.0
1614894834116146087,,55084,,1614894834,281949842,"""0""",12.0,4.375,12.1000003815,0.0
1614894834162893056,,55085,,1614894834,331912706,"""0""",12.0,4.625,12.1000003815,0.0
1614894834213551044,,55086,,1614894834,382035467,"""0""",12.0,4.625,12.1000003815,0.0
1614894834257191896,,55087,,1614894834,431915779,"""0""",12.0,5.125,12.1000003815,0.0
1614894834314260005,,55088,,1614894834,481935363,"""0""",12.0,4.875,12.1000003815,0.0
1614894834365318059,,55089,,1614894834,531968852,"""0""",11.0,5.125,12.0500001907,0.0
1614894834417376995,,55090,,1614894834,582036769,"""0""",11.0,4.625,12.0500001907,0.0
1614894834463541984,,55091,,1614894834,631934425,"""0""",11.0,4.5,12.0500001907,0.0
1614894834513941049,,55092,,1614894834,681972029,"""0""",12.0,4.625,12.0500001907,0.0
1614894834579456090,,55093,,1614894834,731928123,"""0""",12.0,4.5,12.0500001907,0.0
1614894834617270946,,55094,,1614894834,785366300,"""0""",12.0,4.5,12.0500001907,0.0
1614894834668512105,,55095,,1614894834,831984946,"""0""",12.0,4.375,12.1999998093,0.0
1614894834716206073,,55096,,1614894834,882022810,"""0""",12.0,4.375,12.1999998093,0.0
1614894834764568090,,55097,,1614894834,931942602,"""0""",12.0,4.375,12.1999998093,0.0
1614894834820394039,,55098,,1614894834,981944269,"""0""",12.0,4.5,12.1000003815,0.0
1614894834868221044,,55099,,1614894835,31943175,"""0""",12.0,4.375,12.1000003815,0.0
1614894834923950910,,55100,,1614894835,81941977,"""0""",12.0,4.5,12.1000003815,0.0
1614894834985956907,,55101,,1614894835,131911612,"""0""",12.0,4.375,12.1499996185,0.0
1614894835063188076,,55102,,1614894835,182007967,"""0""",12.0,4.5,12.1499996185,0.0
1614894835063297986,,55103,,1614894835,234045987,"""0""",12.0,4.375,12.1499996185,0.0
1614894835117646932,,55104,,1614894835,281945935,"""0""",12.0,4.25,12.1499996185,0.0
1614894835163388967,,55105,,1614894835,332021925,"""0""",12.0,4.125,12.1499996185,0.0
1614894835220782041,,55106,,1614894835,384590310,"""0""",12.0,4.0,12.1499996185,0.0
1614894835259139060,,55107,,1614894835,431978852,"""0""",12.0,3.875,12.1499996185,0.0
1614894835314975023,,55108,,1614894835,481933956,"""0""",12.0,3.375,12.25,0.0
1614894835369919061,,55109,,1614894835,531943956,"""0""",12.0,3.0,12.25,0.0
1614894835422085046,,55110,,1614894835,582018435,"""0""",12.0,3.375,12.25,0.0
1614894835466669082,,55111,,1614894835,631916977,"""0""",12.0,3.75,12.25,0.0
1614894835524842977,,55112,,1614894835,681951612,"""0""",12.0,2.375,12.25,0.0
1614894835563638925,,55113,,1614894835,731931456,"""0""",12.0,1.375,12.25,0.0
1614894835616072893,,55114,,1614894835,781946560,"""0""",12.0,1.375,12.3000001907,0.0
1614894835687046051,,55115,,1614894835,831989216,"""0""",12.0,1.375,12.3000001907,0.0
1614894835767837047,,55116,,1614894835,881955258,"""0""",12.0,1.0,12.3000001907,0.0
1614894835811623096,,55117,,1614894835,931966143,"""0""",12.0,0.375,12.3500003815,0.0
1614894835845477104,,55118,,1614894835,982006716,"""0""",12.0,0.375,12.3500003815,0.0
1614894835892088890,,55119,,1614894836,31954060,"""0""",12.0,0.375,12.3500003815,0.0
1614894835930563926,,55120,,1614894836,81934529,"""0""",12.0,0.375,12.3500003815,0.0
1614894835971012115,,55121,,1614894836,131997810,"""0""",12.0,0.375,12.3500003815,0.0
1614894836019679069,,55122,,1614894836,181975727,"""0""",12.0,0.375,12.3500003815,0.0
1614894836063165903,,55123,,1614894836,232069685,"""0""",12.0,0.0,12.3500003815,0.0
1614894836117928981,,55124,,1614894836,281968539,"""0""",12.0,0.375,12.3999996185,0.0
1614894836185733079,,55125,,1614894836,331952862,"""0""",12.0,0.375,12.3999996185,0.0
1614894836219634056,,55126,,1614894836,381934893,"""0""",12.0,0.0,12.3999996185,0.0
1614894836261244058,,55127,,1614894836,432030674,"""0""",12.0,0.0,12.3999996185,0.0
1614894836312827110,,55128,,1614894836,481940414,"""0""",12.0,0.0,12.3999996185,0.0
1614894836362919092,,55129,,1614894836,531954997,"""0""",12.0,0.375,12.3999996185,0.0
1614894836417779922,,55130,,1614894836,586028279,"""0""",12.0,0.375,12.3999996185,0.0
1614894836464514970,,55131,,1614894836,631940987,"""0""",12.0,0.625,12.3999996185,0.0
1614894836517260074,,55132,,1614894836,682129164,"""0""",12.0,0.625,12.3999996185,0.0
1614894836561503887,,55133,,1614894836,731988747,"""0""",12.0,0.375,12.3999996185,0.0
1614894836615482091,,55134,,1614894836,781931403,"""0""",12.0,0.375,12.3999996185,0.0
1614894836663254976,,55135,,1614894836,831938747,"""0""",12.0,1.0,12.3999996185,0.0
1614894836715779066,,55136,,1614894836,881938330,"""0""",12.0,1.375,12.3999996185,0.0
1614894836762036085,,55137,,1614894836,931975362,"""0""",12.0,1.75,12.3500003815,0.0
1614894836816433906,,55138,,1614894836,982020414,"""0""",12.0,3.0,12.3500003815,0.0
1614894836865211009,,55139,,1614894837,32886508,"""0""",12.0,2.0,12.3500003815,0.0
1614894836912831068,,55140,,1614894837,81934216,"""0""",12.0,1.375,12.3500003815,0.0
1614894837022368907,,55141,,1614894837,131932028,"""0""",12.0,1.0,12.3500003815,0.0
1614894837022481918,,55142,,1614894837,182008955,"""0""",12.0,1.0,12.3500003815,0.0
1614894837066821098,,55143,,1614894837,231952080,"""0""",12.0,0.625,12.3500003815,0.0
1614894837127074956,,55144,,1614894837,281949945,"""0""",12.0,0.375,12.3500003815,0.0
1614894837162718057,,55145,,1614894837,331940309,"""0""",12.0,0.375,12.3500003815,0.0
1614894837221108913,,55146,,1614894837,381941559,"""0""",12.0,0.375,12.3999996185,0.0
1614894837288644075,,55147,,1614894837,432315101,"""0""",12.0,0.375,12.3999996185,0.0
1614894837317527055,,55148,,1614894837,481941351,"""0""",12.0,0.625,12.3999996185,0.0
1614894837362582921,,55149,,1614894837,531934476,"""0""",12.0,3.0,12.25,0.0
1614894837440488100,,55150,,1614894837,581926976,"""0""",12.0,3.875,12.25,0.0
1614894837471172094,,55151,,1614894837,631943226,"""0""",12.0,2.375,12.25,0.0
1614894837516657114,,55152,,1614894837,681981716,"""0""",12.0,3.875,12.25,0.0
1614894837566659927,,55153,,1614894837,731937705,"""0""",12.0,4.125,12.1999998093,0.0
1614894837633025884,,55154,,1614894837,781929945,"""0""",12.0,4.25,12.1999998093,0.0
1614894837656821966,,55155,,1614894837,831930778,"""0""",12.0,4.375,12.1999998093,0.0
1614894837713810920,,55156,,1614894837,881952653,"""0""",12.0,4.375,12.1000003815,0.0
1614894837765103101,,55157,,1614894837,931958486,"""0""",12.0,4.125,12.1000003815,0.0
1614894837819514036,,55158,,1614894837,981959111,"""0""",12.0,4.125,12.1000003815,0.0
1614894837863249063,,55159,,1614894838,31958799,"""0""",12.0,4.125,12.1999998093,0.0
1614894837930397987,,55160,,1614894838,82016820,"""0""",12.0,4.125,12.1999998093,0.0
1614894837959904909,,55161,,1614894838,131952497,"""0""",12.0,4.125,12.1999998093,0.0
1614894838015297889,,55162,,1614894838,181962549,"""0""",12.0,4.125,12.1999998093,0.0
1614894838063627004,,55163,,1614894838,231993330,"""0""",12.0,4.0,12.1999998093,0.0
1614894838112602949,,55164,,1614894838,281939059,"""0""",12.0,4.0,12.1999998093,0.0
1614894838193571090,,55165,,1614894838,331934840,"""0""",12.0,4.0,12.1999998093,0.0
1614894838253397941,,55166,,1614894838,381951559,"""0""",12.0,4.125,12.1999998093,0.0
1614894838293304920,,55167,,1614894838,431943955,"""0""",12.0,3.875,12.1999998093,0.0
1614894838352071046,,55168,,1614894838,481945674,"""0""",12.0,3.875,12.1999998093,0.0
1614894838387255907,,55169,,1614894838,531940986,"""0""",12.0,3.875,12.25,0.0
1614894838411309957,,55170,,1614894838,581948955,"""0""",12.0,4.0,12.25,0.0
1614894838473697900,,55171,,1614894838,631937653,"""0""",12.0,4.0,12.25,0.0
1614894838515449047,,55172,,1614894838,682157705,"""0""",12.0,4.0,12.1999998093,0.0
1614894838563440084,,55173,,1614894838,731932080,"""0""",12.0,4.0,12.1999998093,0.0
1614894838611076116,,55174,,1614894838,781941038,"""0""",12.0,4.0,12.1999998093,0.0
1614894838666523933,,55175,,1614894838,831939059,"""0""",12.0,4.0,12.1999998093,0.0
1614894838717612981,,55176,,1614894838,881947496,"""0""",12.0,4.0,12.1999998093,0.0
1614894838761106014,,55177,,1614894838,931946611,"""0""",12.0,4.0,12.1999998093,0.0
1614894838823231935,,55178,,1614894838,982018694,"""0""",12.0,4.0,12.1999998093,0.0
1614894838868798017,,55179,,1614894839,31936975,"""0""",12.0,4.0,12.1999998093,0.0
1614894838915174007,,55180,,1614894839,81964944,"""0""",12.0,4.0,12.1999998093,0.0
1614894838963967084,,55181,,1614894839,131966298,"""0""",12.0,4.0,12.1999998093,0.0
1614894839023303985,,55182,,1614894839,182017392,"""0""",12.0,4.0,12.1999998093,0.0
1614894839064330101,,55183,,1614894839,231952132,"""0""",12.0,3.875,12.1999998093,0.0
1614894839122885942,,55184,,1614894839,282001090,"""0""",12.0,4.0,12.1999998093,0.0
1614894839160517930,,55185,,1614894839,331941871,"""0""",12.0,4.0,12.25,0.0
1614894839223298072,,55186,,1614894839,381987705,"""0""",12.0,4.0,12.25,0.0
1614894839259562015,,55187,,1614894839,431945309,"""0""",12.0,3.375,12.25,0.0
1614894839322010040,,55188,,1614894839,481950465,"""0""",12.0,3.0,12.25,0.0
1614894839363487005,,55189,,1614894839,531969527,"""0""",12.0,3.375,12.25,0.0
1614894839428745031,,55190,,1614894839,581944527,"""0""",12.0,3.75,12.25,0.0
1614894839459610939,,55191,,1614894839,631954007,"""0""",12.0,3.875,12.1999998093,0.0
1614894839521152973,,55192,,1614894839,682021819,"""0""",12.0,3.75,12.1999998093,0.0
1614894839558409929,,55193,,1614894839,732490777,"""0""",12.0,3.375,12.1999998093,0.0
1614894839619267940,,55194,,1614894839,782045048,"""0""",12.0,3.0,12.25,0.0
1614894839660216093,,55195,,1614894839,831940569,"""0""",12.0,3.0,12.25,0.0
1614894839711534023,,55196,,1614894839,881932392,"""0""",12.0,2.75,12.25,0.0
1614894839764808893,,55197,,1614894839,931919475,"""0""",12.0,2.0,12.25,0.0
1614894839815036058,,55198,,1614894839,982041142,"""0""",12.0,2.0,12.25,0.0
1614894839859561920,,55199,,1614894840,31964527,"""0""",12.0,2.375,12.25,0.0
1614894839915762901,,55200,,1614894840,81973538,"""0""",12.0,2.375,12.25,0.0
1614894839959681034,,55201,,1614894840,131956246,"""0""",12.0,2.0,12.25,0.0
1614894840015264034,,55202,,1614894840,181986246,"""0""",12.0,2.0,12.25,0.0
1614894840067065000,,55203,,1614894840,232001923,"""0""",12.0,2.0,12.25,0.0
1614894840117562055,,55204,,1614894840,281937183,"""0""",12.0,2.0,12.25,0.0
1614894840162121057,,55205,,1614894840,331948850,"""0""",12.0,2.0,12.25,0.0
1614894840212553024,,55206,,1614894840,381947079,"""0""",12.0,2.0,12.25,0.0
1614894840264205932,,55207,,1614894840,431937860,"""0""",12.0,2.75,12.25,0.0
1614894840313874006,,55208,,1614894840,481985204,"""0""",12.0,2.75,12.25,0.0
1614894840356750011,,55209,,1614894840,531938485,"""0""",12.0,3.375,12.25,0.0
1614894840412204027,,55210,,1614894840,581920308,"""0""",12.0,3.375,12.25,0.0
1614894840466012954,,55211,,1614894840,632109267,"""0""",12.0,3.0,12.25,0.0
1614894840519277095,,55212,,1614894840,681997756,"""0""",12.0,3.375,12.25,0.0
1614894840555984020,,55213,,1614894840,731926298,"""0""",12.0,3.875,12.1999998093,0.0
1614894840609184980,,55214,,1614894840,781937548,"""0""",12.0,3.375,12.1999998093,0.0
1614894840662322044,,55215,,1614894840,832026923,"""0""",12.0,3.375,12.1999998093,0.0
1614894840710464000,,55216,,1614894840,881930256,"""0""",12.0,2.75,12.1999998093,0.0
1614894840761939048,,55217,,1614894840,931954371,"""0""",12.0,2.75,12.25,0.0
1614894840824702978,,55218,,1614894840,981921714,"""0""",12.0,2.375,12.25,0.0
1614894840894439935,,55219,,1614894841,31938537,"""0""",12.0,2.375,12.25,0.0
1614894840926908969,,55220,,1614894841,81907600,"""0""",12.0,2.0,12.25,0.0
1614894840966360092,,55221,,1614894841,131948277,"""0""",12.0,2.375,12.25,0.0
1614894841015997886,,55222,,1614894841,182005204,"""0""",12.0,2.375,12.25,0.0
1614894841057578086,,55223,,1614894841,231973120,"""0""",12.0,2.375,12.25,0.0
1614894841113627910,,55224,,1614894841,282073954,"""0""",12.0,2.375,12.25,0.0
1614894841159817934,,55225,,1614894841,331956298,"""0""",12.0,2.0,12.25,0.0
1614894841220803022,,55226,,1614894841,382010777,"""0""",12.0,2.375,12.25,0.0
1614894841263048887,,55227,,1614894841,432012652,"""0""",12.0,3.0,12.25,0.0
1614894841316462039,,55228,,1614894841,481934006,"""0""",12.0,3.75,12.25,0.0
1614894841371192932,,55229,,1614894841,532146089,"""0""",12.0,3.875,12.1999998093,0.0
1614894841416639089,,55230,,1614894841,581969318,"""0""",12.0,3.875,12.1999998093,0.0
1614894841461127042,,55231,,1614894841,632007547,"""0""",12.0,2.75,12.1999998093,0.0
1614894841507318973,,55232,,1614894841,681959631,"""0""",12.0,2.375,12.1999998093,0.0
1614894841561386108,,55233,,1614894841,731954891,"""0""",12.0,2.0,12.25,0.0
1614894841617813110,,55234,,1614894841,781929891,"""0""",12.0,2.375,12.25,0.0
1614894841663260936,,55235,,1614894841,831955516,"""0""",12.0,3.75,12.25,0.0
1614894841713578939,,55236,,1614894841,881986610,"""0""",12.0,3.75,12.1999998093,0.0
1614894841783363103,,55237,,1614894841,931973901,"""0""",12.0,3.75,12.1999998093,0.0
1614894841811809062,,55238,,1614894841,981989370,"""0""",12.0,3.0,12.1999998093,0.0
1614894841862145900,,55239,,1614894842,31965985,"""0""",12.0,3.375,12.25,0.0
1614894841912314891,,55240,,1614894842,81933589,"""0""",12.0,3.375,12.25,0.0
1614894841960386037,,55241,,1614894842,131968172,"""0""",12.0,3.75,12.25,0.0
1614894842010035991,,55242,,1614894842,181976558,"""0""",12.0,3.375,12.25,0.0
1614894842108740091,,55243,,1614894842,231967078,"""0""",12.0,2.75,12.25,0.0
1614894842138601064,,55244,,1614894842,281919162,"""0""",12.0,2.75,12.25,0.0
1614894842175856113,,55245,,1614894842,331921610,"""0""",12.0,3.0,12.25,0.0
1614894842210858106,,55246,,1614894842,381991818,"""0""",12.0,3.375,12.25,0.0
1614894842262064933,,55247,,1614894842,432002339,"""0""",12.0,3.0,12.25,0.0
1614894842318885087,,55248,,1614894842,482001922,"""0""",12.0,2.375,12.25,0.0
1614894842358763933,,55249,,1614894842,531974578,"""0""",12.0,2.375,12.25,0.0
1614894842410734891,,55250,,1614894842,581928589,"""0""",12.0,2.375,12.25,0.0
1614894842461802005,,55251,,1614894842,631967547,"""0""",12.0,2.375,12.25,0.0
1614894842510922908,,55252,,1614894842,681933641,"""0""",12.0,2.0,12.25,0.0
1614894842564584970,,55253,,1614894842,731952235,"""0""",12.0,2.75,12.25,0.0
1614894842612349987,,55254,,1614894842,781941037,"""0""",12.0,3.375,12.25,0.0
1614894842777928113,,55255,,1614894842,831940151,"""0""",12.0,3.0,12.25,0.0
1614894842778032064,,55256,,1614894842,881969578,"""0""",12.0,3.375,12.25,0.0
1614894842778054952,,55257,,1614894842,931986245,"""0""",12.0,3.0,12.25,0.0
1614894842809268951,,55258,,1614894842,981914109,"""0""",12.0,3.0,12.25,0.0
1614894842866672039,,55259,,1614894843,31971297,"""0""",12.0,2.75,12.25,0.0
1614894842916239976,,55260,,1614894843,81919318,"""0""",12.0,2.375,12.25,0.0
1614894842967609882,,55261,,1614894843,131922443,"""0""",12.0,2.75,12.25,0.0
1614894843013313055,,55262,,1614894843,182006245,"""0""",12.0,3.0,12.25,0.0
1614894843062674999,,55263,,1614894843,231948328,"""0""",12.0,3.875,12.25,0.0
1614894843119913101,,55264,,1614894843,281935620,"""0""",12.0,3.375,12.25,0.0
1614894843161910057,,55265,,1614894843,331987651,"""0""",12.0,2.75,12.25,0.0
1614894843214027881,,55266,,1614894843,382011870,"""0""",12.0,2.375,12.25,0.0
1614894843263339042,,55267,,1614894843,432072755,"""0""",12.0,2.75,12.25,0.0
1614894843312422990,,55268,,1614894843,482012338,"""0""",12.0,3.0,12.25,0.0
1614894843361099004,,55269,,1614894843,531946505,"""0""",12.0,3.75,12.25,0.0
1614894843422544956,,55270,,1614894843,582044057,"""0""",12.0,3.375,12.25,0.0
1614894843463953018,,55271,,1614894843,632176922,"""0""",12.0,3.0,12.25,0.0
1614894843514111042,,55272,,1614894843,681943588,"""0""",12.0,3.375,12.25,0.0
1614894843564116954,,55273,,1614894843,732038745,"""0""",12.0,3.75,12.25,0.0
1614894843612343072,,55274,,1614894843,781955307,"""0""",12.0,3.875,12.1999998093,0.0
1614894843661789894,,55275,,1614894843,832005047,"""0""",12.0,3.375,12.1999998093,0.0
1614894843712563991,,55276,,1614894843,881930619,"""0""",12.0,3.375,12.1999998093,0.0
1614894843765314102,,55277,,1614894843,931917911,"""0""",12.0,3.0,12.1999998093,0.0
1614894843817516088,,55278,,1614894843,982000724,"""0""",12.0,2.75,12.25,0.0
1614894843859483957,,55279,,1614894844,31958015,"""0""",12.0,2.375,12.25,0.0
1614894843915498971,,55280,,1614894844,82068744,"""0""",12.0,2.0,12.25,0.0
1614894843972779989,,55281,,1614894844,131938119,"""0""",12.0,2.375,12.25,0.0
1614894844013530015,,55282,,1614894844,182139161,"""0""",12.0,2.75,12.25,0.0
1614894844063831090,,55283,,1614894844,232011713,"""0""",12.0,3.0,12.25,0.0
1614894844109535932,,55284,,1614894844,281944526,"""0""",12.0,2.375,12.25,0.0
1614894844168884038,,55285,,1614894844,331939526,"""0""",12.0,2.375,12.25,0.0
1614894844207139015,,55286,,1614894844,382006036,"""0""",12.0,2.375,12.25,0.0
1614894844265100955,,55287,,1614894844,432036296,"""0""",12.0,2.0,12.25,0.0
1614894844311917066,,55288,,1614894844,481953380,"""0""",12.0,2.0,12.25,0.0
1614894844367016077,,55289,,1614894844,531986713,"""0""",12.0,2.375,12.25,0.0
1614894844410573005,,55290,,1614894844,581971244,"""0""",12.0,2.375,12.25,0.0
1614894844465394973,,55291,,1614894844,632076036,"""0""",12.0,2.75,12.25,0.0
1614894844507204055,,55292,,1614894844,681928328,"""0""",12.0,2.75,12.25,0.0
1614894844564083099,,55293,,1614894844,732152494,"""0""",12.0,2.375,12.25,0.0
1614894844607376098,,55294,,1614894844,781986296,"""0""",12.0,2.375,12.25,0.0
1614894844662301063,,55295,,1614894844,832052546,"""0""",12.0,3.0,12.25,0.0
1614894844710089921,,55296,,1614894844,881915671,"""0""",12.0,3.375,12.25,0.0
1614894844764657974,,55297,,1614894844,932015307,"""0""",12.0,3.375,12.25,0.0
1614894844809799909,,55298,,1614894844,982461661,"""0""",12.0,3.0,12.25,0.0
1614894844864057064,,55299,,1614894845,31944421,"""0""",12.0,3.0,12.25,0.0
1614894844910372972,,55300,,1614894845,81988171,"""0""",12.0,3.375,12.1999998093,0.0
1614894845098146915,,55301,,1614894845,131936504,"""0""",12.0,3.375,12.1999998093,0.0
1614894845098299980,,55302,,1614894845,181945931,"""0""",12.0,3.75,12.1999998093,0.0
1614894845098345994,,55303,,1614894845,232000515,"""0""",12.0,3.0,12.25,0.0
1614894845162894964,,55304,,1614894845,284163431,"""0""",12.0,3.0,12.25,0.0
1614894845205306053,,55305,,1614894845,331998640,"""0""",12.0,3.375,12.25,0.0
1614894845237318992,,55306,,1614894845,382926452,"""0""",12.0,3.0,12.25,0.0
1614894845289060115,,55307,,1614894845,432016973,"""0""",12.0,2.375,12.25,0.0
1614894845326735019,,55308,,1614894845,482560827,"""0""",12.0,2.0,12.25,0.0
1614894845367583036,,55309,,1614894845,531904108,"""0""",12.0,2.375,12.25,0.0
1614894845420274019,,55310,,1614894845,581937754,"""0""",12.0,2.75,12.25,0.0
1614894845473447084,,55311,,1614894845,631977910,"""0""",12.0,3.375,12.25,0.0
1614894845517420053,,55312,,1614894845,681947390,"""0""",12.0,3.0,12.25,0.0
1614894845569336891,,55313,,1614894845,732541504,"""0""",12.0,3.375,12.25,0.0
1614894845617284059,,55314,,1614894845,781996452,"""0""",12.0,2.75,12.25,0.0
1614894845667257070,,55315,,1614894845,831926035,"""0""",12.0,2.75,12.25,0.0
1614894845717061996,,55316,,1614894845,881974942,"""0""",12.0,2.375,12.25,0.0
1614894845946003913,,55317,,1614894845,931920619,"""0""",12.0,2.375,12.25,0.0
1614894845946125984,,55318,,1614894845,981960827,"""0""",12.0,2.75,12.25,0.0
1614894845946161031,,55319,,1614894846,31923119,"""0""",12.0,2.75,12.25,0.0
1614894845946284055,,55320,,1614894846,81970775,"""0""",12.0,2.375,12.25,0.0
1614894845946310997,,55321,,1614894846,131958014,"""0""",12.0,1.75,12.25,0.0
1614894846020812034,,55322,,1614894846,181941608,"""0""",12.0,1.75,12.25,0.0
1614894846069668054,,55323,,1614894846,232075931,"""0""",12.0,1.75,12.25,0.0
1614894846121613025,,55324,,1614894846,281951035,"""0""",12.0,2.0,12.25,0.0
1614894846176753044,,55325,,1614894846,331942181,"""0""",12.0,1.75,12.3000001907,0.0
1614894846221334934,,55326,,1614894846,381996191,"""0""",12.0,1.0,12.3000001907,0.0
1614894846260885953,,55327,,1614894846,431917546,"""0""",12.0,1.0,12.3000001907,0.0
1614894846318664073,,55328,,1614894846,481963848,"""0""",12.0,1.0,12.3000001907,0.0
1614894846371686935,,55329,,1614894846,531927650,"""0""",12.0,0.625,12.3500003815,0.0
1614894846415143966,,55330,,1614894846,581993379,"""0""",12.0,0.625,12.3500003815,0.0
1614894846480535984,,55331,,1614894846,632003483,"""0""",12.0,0.625,12.3500003815,0.0
1614894846508013963,,55332,,1614894846,682009264,"""0""",12.0,0.625,12.3500003815,0.0
1614894846590764045,,55333,,1614894846,731965670,"""0""",12.0,0.375,12.3500003815,0.0
1614894846616797924,,55334,,1614894846,782030358,"""0""",12.0,0.375,12.3500003815,0.0
1614894846668205022,,55335,,1614894846,832287910,"""0""",12.0,0.375,12.3500003815,0.0
1614894846719645023,,55336,,1614894846,882005566,"""0""",12.0,0.0,12.3500003815,0.0
1614894846785054922,,55337,,1614894846,931988379,"""0""",12.0,0.375,12.3500003815,0.0
1614894846819019079,,55338,,1614894846,982551764,"""0""",12.0,0.375,12.3500003815,0.0
1614894846870631933,,55339,,1614894847,31932441,"""0""",12.0,0.375,12.3500003815,0.0
1614894846922821998,,55340,,1614894847,82000775,"""0""",12.0,0.375,12.3500003815,0.0
1614894846971817016,,55341,,1614894847,132281399,"""0""",12.0,0.375,12.3500003815,0.0
1614894847025652885,,55342,,1614894847,182746764,"""0""",12.0,0.375,12.3500003815,0.0
1614894847068218946,,55343,,1614894847,231916191,"""0""",12.0,1.0,12.3500003815,0.0
1614894847120225906,,55344,,1614894847,282087337,"""0""",12.0,1.75,12.3500003815,0.0
1614894847169116973,,55345,,1614894847,331963066,"""0""",12.0,2.0,12.25,0.0
1614894847216739892,,55346,,1614894847,382904889,"""0""",12.0,2.375,12.25,0.0
1614894847269248962,,55347,,1614894847,431924681,"""0""",12.0,2.375,12.25,0.0
1614894847323771953,,55348,,1614894847,482047337,"""0""",12.0,2.375,12.25,0.0
1614894847370243072,,55349,,1614894847,531956139,"""0""",12.0,2.0,12.25,0.0
1614894847433166980,,55350,,1614894847,582001139,"""0""",12.0,1.75,12.25,0.0
1614894847476321935,,55351,,1614894847,631931608,"""0""",12.0,1.0,12.3500003815,0.0
1614894847519354104,,55352,,1614894847,681976295,"""0""",12.0,0.625,12.3500003815,0.0
1614894847572762012,,55353,,1614894847,731938587,"""0""",12.0,0.375,12.3500003815,0.0
1614894847625720024,,55354,,1614894847,782014733,"""0""",12.0,1.0,12.3500003815,0.0
1614894847690784931,,55355,,1614894847,831917128,"""0""",12.0,1.75,12.3500003815,0.0
1614894847772576093,,55356,,1614894847,881983847,"""0""",12.0,2.0,12.3500003815,0.0
1614894847772687911,,55357,,1614894847,931914316,"""0""",12.0,2.0,12.25,0.0
1614894847837800979,,55358,,1614894847,982155566,"""0""",12.0,2.0,12.25,0.0
1614894847954387903,,55359,,1614894848,31930774,"""0""",12.0,1.375,12.25,0.0
1614894847954493999,,55360,,1614894848,82067597,"""0""",12.0,2.375,12.25,0.0
1614894847992808103,,55361,,1614894848,131934003,"""0""",12.0,2.75,12.25,0.0
1614894848069312095,,55362,,1614894848,181945618,"""0""",12.0,2.75,12.25,0.0
1614894848103795051,,55363,,1614894848,231916139,"""0""",12.0,2.0,12.25,0.0
1614894848139283895,,55364,,1614894848,282012180,"""0""",12.0,1.75,12.3000001907,0.0
1614894848176593065,,55365,,1614894848,331943951,"""0""",12.0,2.0,12.3000001907,0.0
1614894848218873977,,55366,,1614894848,381943118,"""0""",12.0,1.75,12.3000001907,0.0
1614894848272063970,,55367,,1614894848,431995566,"""0""",12.0,1.0,12.3000001907,0.0
1614894848401156902,,55368,,1614894848,481949107,"""0""",12.0,1.0,12.3000001907,0.0
1614894848401277065,,55369,,1614894848,531933274,"""0""",12.0,1.0,12.3000001907,0.0
1614894848470104932,,55370,,1614894848,582056555,"""0""",12.0,1.75,12.3000001907,0.0
1614894848470794916,,55371,,1614894848,631966086,"""0""",12.0,2.0,12.3000001907,0.0
1614894848517560958,,55372,,1614894848,681955930,"""0""",12.0,1.375,12.3000001907,0.0
1614894848566519021,,55373,,1614894848,731924107,"""0""",12.0,1.375,12.25,0.0
1614894848637413978,,55374,,1614894848,782270982,"""0""",12.0,2.0,12.25,0.0
1614894848663593053,,55375,,1614894848,831960878,"""0""",12.0,2.0,12.25,0.0
1614894848720613002,,55376,,1614894848,882020565,"""0""",12.0,2.375,12.25,0.0
1614894848768491983,,55377,,1614894848,931927805,"""0""",11.0,1.375,12.25,0.0
1614894848821257114,,55378,,1614894848,981956503,"""0""",11.0,1.0,12.25,0.0
1614894848868144035,,55379,,1614894849,31978378,"""0""",11.0,2.0,12.25,0.0
1614894848919454097,,55380,,1614894849,82007180,"""0""",12.0,1.75,12.25,0.0
1614894848973274946,,55381,,1614894849,131953378,"""0""",12.0,1.375,12.25,0.0
1614894849026793003,,55382,,1614894849,181951607,"""0""",12.0,1.375,12.25,0.0
1614894849077445983,,55383,,1614894849,232053274,"""0""",12.0,1.0,12.3500003815,0.0
1614894849114567995,,55384,,1614894849,282020461,"""0""",12.0,1.375,12.3500003815,0.0
1614894849167172908,,55385,,1614894849,331969367,"""0""",12.0,2.0,12.3500003815,0.0
1614894849214695930,,55386,,1614894849,382012232,"""0""",12.0,1.375,12.3000001907,0.0
1614894849276066064,,55387,,1614894849,431972336,"""0""",12.0,1.0,12.3000001907,0.0
1614894849314023971,,55388,,1614894849,481988847,"""0""",12.0,1.75,12.3000001907,0.0
1614894849373943090,,55389,,1614894849,531914003,"""0""",12.0,2.0,12.25,0.0
1614894849415767908,,55390,,1614894849,581934940,"""0""",12.0,2.0,12.25,0.0
1614894849479537010,,55391,,1614894849,632016399,"""0""",12.0,2.375,12.25,0.0
1614894849535963058,,55392,,1614894849,681984784,"""0""",12.0,2.75,12.25,0.0
1614894849575136899,,55393,,1614894849,731968742,"""0""",12.0,1.375,12.25,0.0
1614894849631463050,,55394,,1614894849,781982232,"""0""",12.0,1.0,12.25,0.0
1614894849677144050,,55395,,1614894849,831961659,"""0""",12.0,1.75,12.25,0.0
1614894849772270917,,55396,,1614894849,882043794,"""0""",12.0,1.75,12.25,0.0
1614894849816128969,,55397,,1614894849,931921659,"""0""",12.0,1.375,12.25,0.0
1614894849878803014,,55398,,1614894849,981936346,"""0""",12.0,1.375,12.25,0.0
1614894849878946065,,55399,,1614894850,31969523,"""0""",12.0,1.375,12.3000001907,0.0
1614894849924794912,,55400,,1614894850,81941919,"""0""",12.0,1.0,12.3000001907,0.0
1614894849973443984,,55401,,1614894850,132002961,"""0""",12.0,1.75,12.3000001907,0.0
1614894850023483991,,55402,,1614894850,181933430,"""0""",12.0,2.0,12.25,0.0
1614894850083170890,,55403,,1614894850,231935148,"""0""",12.0,1.75,12.25,0.0
1614894850162148952,,55404,,1614894850,281935669,"""0""",12.0,2.0,12.25,0.0
1614894850213243007,,55405,,1614894850,331921971,"""0""",12.0,3.875,12.1999998093,0.0
1614894850246664047,,55406,,1614894850,381998429,"""0""",12.0,3.75,12.1999998093,0.0
1614894850295681953,,55407,,1614894850,431932075,"""0""",12.0,2.75,12.1999998093,0.0
1614894850340888023,,55408,,1614894850,481946398,"""0""",12.0,3.0,12.1999998093,0.0
1614894850379865884,,55409,,1614894850,531953117,"""0""",12.0,2.0,12.25,0.0
1614894850465306043,,55410,,1614894850,581938846,"""0""",12.0,2.0,12.25,0.0
1614894850496854066,,55411,,1614894850,631995929,"""0""",12.0,2.75,12.25,0.0
1614894850556355953,,55412,,1614894850,681942023,"""0""",12.0,1.75,12.25,0.0
1614894850601110935,,55413,,1614894850,731948742,"""0""",12.0,1.0,12.25,0.0
1614894850634717941,,55414,,1614894850,782151346,"""0""",12.0,2.75,12.25,0.0
1614894850679816007,,55415,,1614894850,832003586,"""0""",12.0,4.0,12.1999998093,0.0
1614894850756819963,,55416,,1614894850,881953690,"""0""",12.0,3.875,12.1999998093,0.0
1614894850784619092,,55417,,1614894850,932383221,"""0""",12.0,2.0,12.1999998093,0.0
1614894850832508087,,55418,,1614894850,981942961,"""0""",12.0,1.0,12.3500003815,0.0
1614894850869959115,,55419,,1614894851,31956242,"""0""",12.0,1.75,12.3500003815,0.0
1614894850916851043,,55420,,1614894851,81986658,"""0""",12.0,3.0,12.3500003815,0.0
1614894850981590032,,55421,,1614894851,131974315,"""0""",12.0,3.0,12.25,0.0
1614894851058177947,,55422,,1614894851,181949731,"""0""",12.0,2.375,12.25,0.0
1614894851109740972,,55423,,1614894851,232179731,"""0""",12.0,1.75,12.25,0.0
1614894851151868104,,55424,,1614894851,281941867,"""0""",12.0,1.75,12.25,0.0
1614894851208633899,,55425,,1614894851,331956085,"""0""",12.0,2.0,12.25,0.0
1614894851270831108,,55426,,1614894851,381948690,"""0""",12.0,2.0,12.25,0.0
1614894851354923963,,55427,,1614894851,431947648,"""0""",12.0,1.375,12.25,0.0
1614894851355074882,,55428,,1614894851,481951033,"""0""",12.0,1.75,12.3000001907,0.0
1614894851393341064,,55429,,1614894851,531927596,"""0""",12.0,1.75,12.3000001907,0.0
1614894851429821014,,55430,,1614894851,581937856,"""0""",12.0,1.75,12.3000001907,0.0
1614894851481745958,,55431,,1614894851,632628481,"""0""",12.0,2.0,12.25,0.0
1614894851525130987,,55432,,1614894851,681953585,"""0""",12.0,1.375,12.25,0.0
1614894851571434974,,55433,,1614894851,731994419,"""0""",12.0,1.375,12.25,0.0
1614894851675098896,,55434,,1614894851,781948481,"""0""",12.0,1.0,12.3500003815,0.0
1614894851675388097,,55435,,1614894851,831932752,"""0""",12.0,1.75,12.3500003815,0.0
1614894851733751058,,55436,,1614894851,881935304,"""0""",12.0,3.375,12.3500003815,0.0
1614894851783302068,,55437,,1614894851,931915408,"""0""",12.0,4.125,12.1999998093,0.0
1614894851827481031,,55438,,1614894851,982032335,"""0""",12.0,4.0,12.1999998093,0.0
1614894851875161886,,55439,,1614894852,31944523,"""0""",12.0,4.125,12.1999998093,0.0
1614894851962512969,,55440,,1614894852,81932596,"""0""",12.0,4.25,12.1999998093,0.0
1614894852022156953,,55441,,1614894852,131942439,"""0""",11.0,4.625,12.1000003815,0.0
1614894852084430932,,55442,,1614894852,181953845,"""0""",11.0,4.5,12.1000003815,0.0
1614894852084537029,,55443,,1614894852,232015720,"""0""",11.0,4.875,12.1000003815,0.0
1614894852137466907,,55444,,1614894852,281939783,"""0""",12.0,4.625,12.0500001907,0.0
1614894852219484090,,55445,,1614894852,331963533,"""0""",12.0,4.625,12.0500001907,0.0
1614894852260596036,,55446,,1614894852,381920043,"""0""",12.0,4.625,12.0500001907,0.0
1614894852315402984,,55447,,1614894852,432520200,"""0""",12.0,4.5,12.1000003815,0.0
1614894852353756904,,55448,,1614894852,481916970,"""0""",12.0,4.5,12.1000003815,0.0
1614894852406450986,,55449,,1614894852,531948741,"""0""",12.0,4.5,12.1000003815,0.0
1614894852438589096,,55450,,1614894852,581921085,"""0""",11.0,4.5,12.1000003815,0.0
1614894852489209890,,55451,,1614894852,632008897,"""0""",11.0,4.625,12.1000003815,0.0
1614894852553133964,,55452,,1614894852,681930772,"""0""",11.0,4.75,12.1000003815,0.0
1614894852604314088,,55453,,1614894852,731930199,"""0""",12.0,4.5,12.0500001907,0.0
1614894852655630111,,55454,,1614894852,782020981,"""0""",12.0,4.875,12.0500001907,0.0
1614894852716670989,,55455,,1614894852,832011866,"""0""",12.0,4.625,12.0500001907,0.0
1614894852752461910,,55456,,1614894852,881940981,"""0""",12.0,4.875,12.0500001907,0.0
1614894852806194067,,55457,,1614894852,931974470,"""0""",11.0,5.0,12.0500001907,0.0
1614894852860069990,,55458,,1614894852,981918220,"""0""",11.0,5.25,12.0500001907,0.0
1614894852909809112,,55459,,1614894853,32004626,"""0""",11.0,5.0,12.0500001907,0.0
1614894852954600095,,55460,,1614894853,81952491,"""0""",11.0,4.625,12.1000003815,0.0
1614894853003329038,,55461,,1614894853,132008324,"""0""",11.0,4.875,12.1000003815,0.0
1614894853057929039,,55462,,1614894853,181930251,"""0""",11.0,4.875,12.1000003815,0.0
1614894853123389959,,55463,,1614894853,232054939,"""0""",12.0,5.375,12.0500001907,0.0
1614894853158251047,,55464,,1614894853,281954418,"""0""",12.0,5.25,12.0500001907,0.0
1614894853205140113,,55465,,1614894853,331959522,"""0""",12.0,5.25,12.0500001907,0.0
1614894853258035898,,55466,,1614894853,381908324,"""0""",11.0,5.25,12.1000003815,0.0
1614894853319396018,,55467,,1614894853,431960408,"""0""",11.0,5.25,12.1000003815,0.0
1614894853365279912,,55468,,1614894853,481975564,"""0""",11.0,5.375,12.1000003815,0.0
1614894853462729930,,55469,,1614894853,531987699,"""0""",11.0,5.25,12.0500001907,0.0
1614894853463087081,,55470,,1614894853,581975980,"""0""",11.0,5.375,12.0500001907,0.0
1614894853498836040,,55471,,1614894853,631960199,"""0""",11.0,4.75,12.0500001907,0.0
1614894853594826936,,55472,,1614894853,681930251,"""0""",11.0,4.875,12.0500001907,0.0
1614894853594985961,,55473,,1614894853,731958637,"""0""",12.0,4.75,12.0500001907,0.0
1614894853634761095,,55474,,1614894853,781993480,"""0""",12.0,5.25,12.0500001907,0.0
1614894853682873010,,55475,,1614894853,832017595,"""0""",12.0,5.125,12.0500001907,0.0
1614894853759560108,,55476,,1614894853,881957386,"""0""",12.0,5.0,12.1000003815,0.0
1614894853799489021,,55477,,1614894853,932913168,"""0""",12.0,4.875,12.1000003815,0.0
1614894853838279008,,55478,,1614894853,982547803,"""0""",12.0,4.5,12.1000003815,0.0
1614894853892527103,,55479,,1614894854,32014157,"""0""",12.0,4.0,12.1499996185,0.0
1614894853936754941,,55480,,1614894854,81935511,"""0""",12.0,3.375,12.1499996185,0.0
1614894853985096931,,55481,,1614894854,131987334,"""0""",12.0,1.0,12.1499996185,0.0
1614894854057523012,,55482,,1614894854,181974782,"""0""",12.0,0.625,12.3500003815,0.0
1614894854093419075,,55483,,1614894854,233090355,"""0""",12.0,3.75,12.3500003815,0.0
1614894854139842033,,55484,,1614894854,281907855,"""0""",12.0,4.875,12.3500003815,0.0
1614894854203651905,,55485,,1614894854,332271970,"""0""",12.0,4.5,12.1999998093,0.0
1614894854237116098,,55486,,1614894854,382041293,"""0""",12.0,3.0,12.1999998093,0.0
1614894854287103891,,55487,,1614894854,432027803,"""0""",12.0,2.0,12.1999998093,0.0
