rosbagTimestamp,header,seq,stamp,secs,nsecs,frame_id,Temperature,OutputCurrent,BusVoltage,ClosedLoopError
1614972070161889076,,167920,,1614900042,788770427,"""0""",13.0,0.0,12.3999996185,0.0
1614972070477852106,,167921,,1614900042,838767563,"""0""",13.0,0.0,12.3999996185,0.0
1614972070478285074,,167922,,1614900042,888834594,"""0""",13.0,0.0,12.3999996185,0.0
1614972070478317975,,167923,,1614900042,938822198,"""0""",13.0,0.0,12.3999996185,0.0
1614972070478338956,,167924,,1614900042,988800531,"""0""",13.0,0.0,12.3999996185,0.0
1614972070478358030,,167925,,1614900043,38803136,"""0""",13.0,0.0,12.3999996185,0.0
1614972070493242979,,167926,,1614900043,88769698,"""0""",13.0,0.0,12.3999996185,0.0
1614972070504579067,,167927,,1614900043,138964490,"""0""",13.0,0.0,12.3999996185,0.0
1614972070559026956,,167928,,1614900043,188833448,"""0""",13.0,0.0,12.3999996185,0.0
1614972070600352048,,167929,,1614900043,238775219,"""0""",13.0,0.0,12.3999996185,0.0
1614972070654354095,,167930,,1614900043,288783761,"""0""",13.0,0.0,12.3999996185,0.0
1614972070701998949,,167931,,1614900043,338830427,"""0""",13.0,0.0,12.3999996185,0.0
1614972071014580011,,167932,,1614900043,388834281,"""0""",13.0,0.0,12.3999996185,0.0
1614972071041115999,,167933,,1614900043,438778500,"""0""",13.0,0.0,12.3999996185,0.0
1614972071041220903,,167934,,1614900043,488762927,"""0""",13.0,0.0,12.3999996185,0.0
1614972071041241884,,167935,,1614900043,538770531,"""0""",13.0,0.0,12.3999996185,0.0
1614972071041261911,,167936,,1614900043,588769437,"""0""",13.0,0.0,12.3999996185,0.0
1614972071041280984,,167937,,1614900043,638813083,"""0""",13.0,0.0,12.3999996185,0.0
1614972071076359987,,167938,,1614900043,688768917,"""0""",13.0,0.0,12.3999996185,0.0
1614972071104047060,,167939,,1614900043,738918031,"""0""",13.0,0.0,12.3999996185,0.0
1614972071164242982,,167940,,1614900043,788781573,"""0""",13.0,0.0,12.3999996185,0.0
1614972071209809064,,167941,,1614900043,839501052,"""0""",13.0,0.0,12.3999996185,0.0
1614972071529293060,,167942,,1614900043,888811469,"""0""",13.0,0.0,12.3999996185,0.0
1614972071534061908,,167943,,1614900043,938987354,"""0""",13.0,0.0,12.3999996185,0.0
1614972071534178972,,167944,,1614900043,988884125,"""0""",13.0,0.0,12.3999996185,0.0
1614972071534204006,,167945,,1614900044,38907614,"""0""",13.0,0.0,12.3999996185,0.0
1614972071534229040,,167946,,1614900044,88790114,"""0""",13.0,0.0,12.3999996185,0.0
1614972071534396886,,167947,,1614900044,138845166,"""0""",13.0,0.0,12.3999996185,0.0
1614972071546946048,,167948,,1614900044,188823291,"""0""",13.0,0.0,12.3999996185,0.0
1614972071603758096,,167949,,1614900044,238894021,"""0""",13.0,0.0,12.3999996185,0.0
1614972071663002014,,167950,,1614900044,288791885,"""0""",13.0,0.0,12.3999996185,0.0
1614972071704279899,,167951,,1614900044,338800739,"""0""",13.0,0.0,12.3999996185,0.0
1614972071751214027,,167952,,1614900044,388771937,"""0""",13.0,0.0,12.3999996185,0.0
1614972071984988927,,167953,,1614900044,438898864,"""0""",13.0,0.0,12.3999996185,0.0
1614972071999021053,,167954,,1614900044,488952614,"""0""",13.0,0.0,12.3999996185,0.0
1614972071999238014,,167955,,1614900044,538861625,"""0""",13.0,0.0,12.3999996185,0.0
1614972071999314069,,167956,,1614900044,588885895,"""0""",13.0,0.0,12.3999996185,0.0
1614972072014298915,,167957,,1614900044,638785427,"""0""",13.0,0.0,12.3999996185,0.0
1614972072055382013,,167958,,1614900044,688852354,"""0""",13.0,0.0,12.3999996185,0.0
1614972072105606079,,167959,,1614900044,738818656,"""0""",13.0,0.0,12.3999996185,0.0
1614972072156887054,,167960,,1614900044,788850791,"""0""",13.0,0.0,12.3999996185,0.0
1614972072198504924,,167961,,1614900044,838810895,"""0""",13.0,0.0,12.3999996185,0.0
1614972072249789953,,167962,,1614900044,888822927,"""0""",13.0,0.0,12.3999996185,0.0
1614972072515747070,,167963,,1614900044,938876937,"""0""",13.0,0.0,12.3999996185,0.0
1614972072535339117,,167964,,1614900044,988801260,"""0""",13.0,0.0,12.3999996185,0.0
1614972072535454034,,167965,,1614900045,38844072,"""0""",13.0,0.0,12.3999996185,0.0
1614972072535476922,,167966,,1614900045,89040166,"""0""",13.0,0.0,12.3999996185,0.0
1614972072535497903,,167967,,1614900045,138917249,"""0""",13.0,0.0,12.3999996185,0.0
1614972072560662031,,167968,,1614900045,189091833,"""0""",13.0,0.0,12.3999996185,0.0
1614972072609668970,,167969,,1614900045,238842614,"""0""",13.0,0.0,12.3999996185,0.0
1614972072650245904,,167970,,1614900045,288887301,"""0""",13.0,0.0,12.3999996185,0.0
1614972072704298019,,167971,,1614900045,339058031,"""0""",13.0,0.0,12.3999996185,0.0
1614972072751009941,,167972,,1614900045,389251208,"""0""",13.0,0.0,12.3999996185,0.0
1614972073012048006,,167973,,1614900045,438949281,"""0""",13.0,0.0,12.3999996185,0.0
1614972073038285017,,167974,,1614900045,488892822,"""0""",13.0,0.0,12.3999996185,0.0
1614972073038403987,,167975,,1614900045,539061260,"""0""",13.0,0.0,12.3999996185,0.0
1614972073038429021,,167976,,1614900045,588905530,"""0""",13.0,0.0,12.3999996185,0.0
1614972073038450002,,167977,,1614900045,638809280,"""0""",13.0,0.0,12.3999996185,0.0
1614972073061763048,,167978,,1614900045,688770114,"""0""",13.0,0.0,12.3999996185,0.0
1614972073105758905,,167979,,1614900045,738856885,"""0""",13.0,0.0,12.3999996185,0.0
1614972073164836883,,167980,,1614900045,789539020,"""0""",13.0,0.0,12.3999996185,0.0
1614972073212382078,,167981,,1614900045,839025374,"""0""",13.0,0.0,12.3999996185,0.0
1614972073257631063,,167982,,1614900045,888788239,"""0""",13.0,0.0,12.3999996185,0.0
1614972073316235065,,167983,,1614900045,938779645,"""0""",13.0,0.0,12.3999996185,0.0
1614972073357459068,,167984,,1614900045,989088447,"""0""",13.0,0.0,12.3999996185,0.0
1614972073431272029,,167985,,1614900046,38807718,"""0""",13.0,0.0,12.3999996185,0.0
1614972073467897891,,167986,,1614900046,89049489,"""0""",13.0,0.0,12.3999996185,0.0
1614972073511187076,,167987,,1614900046,139342718,"""0""",13.0,0.0,12.3999996185,0.0
1614972073559957981,,167988,,1614900046,188785791,"""0""",13.0,0.0,12.3999996185,0.0
1614972073608146905,,167989,,1614900046,238811468,"""0""",13.0,0.0,12.3999996185,0.0
1614972073661968946,,167990,,1614900046,288831832,"""0""",13.0,0.0,12.3999996185,0.0
1614972073701342105,,167991,,1614900046,338801989,"""0""",13.0,0.0,12.3999996185,0.0
1614972073766007900,,167992,,1614900046,388807249,"""0""",13.0,0.0,12.3999996185,0.0
1614972073814326047,,167993,,1614900046,438852666,"""0""",13.0,0.0,12.3999996185,0.0
1614972073858576059,,167994,,1614900046,489204697,"""0""",13.0,0.0,12.3999996185,0.0
1614972073899877071,,167995,,1614900046,538894072,"""0""",13.0,0.0,12.3999996185,0.0
1614972073957215070,,167996,,1614900046,588815166,"""0""",13.0,0.0,12.3999996185,0.0
1614972074006078958,,167997,,1614900046,638837249,"""0""",13.0,0.0,12.3999996185,0.0
1614972074047945976,,167998,,1614900046,688769540,"""0""",13.0,0.0,12.3999996185,0.0
1614972074106278896,,167999,,1614900046,738815165,"""0""",13.0,0.0,12.3999996185,0.0
1614972074156580924,,168000,,1614900046,788788915,"""0""",13.0,0.0,12.3999996185,0.0
1614972074210391044,,168001,,1614900046,838793707,"""0""",13.0,0.0,12.3999996185,0.0
1614972074265091896,,168002,,1614900046,888835686,"""0""",13.0,0.0,12.3999996185,0.0
1614972074304327964,,168003,,1614900046,938942717,"""0""",13.0,0.0,12.3999996185,0.0
1614972074367824077,,168004,,1614900046,988771988,"""0""",13.0,0.0,12.3999996185,0.0
1614972074403763055,,168005,,1614900047,38792613,"""0""",13.0,0.0,12.3999996185,0.0
1614972074453286886,,168006,,1614900047,88793915,"""0""",13.0,0.0,12.3999996185,0.0
1614972074509640932,,168007,,1614900047,138801624,"""0""",13.0,0.0,12.3999996185,0.0
1614972074563685894,,168008,,1614900047,188808134,"""0""",13.0,0.0,12.3999996185,0.0
1614972074606165885,,168009,,1614900047,238782926,"""0""",13.0,0.0,12.3999996185,0.0
1614972074660579919,,168010,,1614900047,288879592,"""0""",13.0,0.0,12.3999996185,0.0
1614972074710761070,,168011,,1614900047,338776728,"""0""",13.0,0.0,12.3999996185,0.0
1614972074758114099,,168012,,1614900047,388735321,"""0""",13.0,0.0,12.3999996185,0.0
1614972074811808109,,168013,,1614900047,438872821,"""0""",13.0,0.0,12.3999996185,0.0
1614972074863446950,,168014,,1614900047,488865998,"""0""",13.0,0.0,12.3999996185,0.0
1614972074902878999,,168015,,1614900047,541034019,"""0""",13.0,0.0,12.3999996185,0.0
1614972074964375019,,168016,,1614900047,589255113,"""0""",13.0,0.0,12.3999996185,0.0
1614972075011714935,,168017,,1614900047,638782509,"""0""",13.0,0.0,12.3999996185,0.0
1614972075066309928,,168018,,1614900047,688810009,"""0""",13.0,0.0,12.3999996185,0.0
1614972075117010116,,168019,,1614900047,738791415,"""0""",13.0,0.0,12.3999996185,0.0
1614972075155194044,,168020,,1614900047,788816988,"""0""",13.0,0.0,12.3999996185,0.0
1614972075209829092,,168021,,1614900047,838798707,"""0""",13.0,0.0,12.3999996185,0.0
1614972075261317014,,168022,,1614900047,888814019,"""0""",13.0,0.0,12.3999996185,0.0
1614972075315561056,,168023,,1614900047,940096102,"""0""",13.0,0.0,12.3999996185,0.0
1614972075362970113,,168024,,1614900047,988774748,"""0""",13.0,0.0,12.3999996185,0.0
1614972075416743040,,168025,,1614900048,38822769,"""0""",13.0,0.0,12.3999996185,0.0
1614972075466319084,,168026,,1614900048,88793394,"""0""",13.0,0.0,12.3999996185,0.0
1614972075506875038,,168027,,1614900048,138790894,"""0""",13.0,0.0,12.3999996185,0.0
1614972075561780929,,168028,,1614900048,188787457,"""0""",13.0,0.125,12.3999996185,0.0
1614972075613934040,,168029,,1614900048,238811467,"""0""",13.0,0.0,12.3999996185,0.0
1614972075671838045,,168030,,1614900048,288871050,"""0""",13.0,0.0,12.3999996185,0.0
1614972075718164920,,168031,,1614900048,339396415,"""0""",13.0,0.0,12.3999996185,0.0
1614972075769094944,,168032,,1614900048,388861102,"""0""",13.0,0.0,12.3999996185,0.0
1614972075812799930,,168033,,1614900048,438909436,"""0""",13.0,0.0,12.3999996185,0.0
1614972075867475032,,168034,,1614900048,488894331,"""0""",13.0,0.0,12.3999996185,0.0
1614972075920322895,,168035,,1614900048,538800321,"""0""",13.0,0.0,12.3999996185,0.0
1614972075960140943,,168036,,1614900048,589061936,"""0""",13.0,0.0,12.3999996185,0.0
1614972076014739990,,168037,,1614900048,638836727,"""0""",13.0,0.0,12.3999996185,0.0
1614972076055861949,,168038,,1614900048,688875061,"""0""",13.0,0.0,12.3999996185,0.0
1614972076114257097,,168039,,1614900048,738815738,"""0""",13.0,0.0,12.3999996185,0.0
1614972076152762889,,168040,,1614900048,788959435,"""0""",13.0,0.0,12.3999996185,0.0
1614972076219336032,,168041,,1614900048,839465113,"""0""",13.0,0.0,12.3999996185,0.0
1614972076264692068,,168042,,1614900048,888781310,"""0""",13.0,0.0,12.3999996185,0.0
1614972076316791057,,168043,,1614900048,938877717,"""0""",13.0,0.0,12.3999996185,0.0
1614972076361988067,,168044,,1614900048,988756727,"""0""",13.0,0.0,12.3999996185,0.0
1614972076415028095,,168045,,1614900049,38908394,"""0""",13.0,0.0,12.3999996185,0.0
1614972076461735010,,168046,,1614900049,88786623,"""0""",13.0,0.0,12.3999996185,0.0
1614972076515033006,,168047,,1614900049,138798081,"""0""",13.0,0.0,12.3999996185,0.0
1614972076571414947,,168048,,1614900049,188842769,"""0""",13.0,0.0,12.3999996185,0.0
1614972076618757963,,168049,,1614900049,238797977,"""0""",13.0,0.0,12.3999996185,0.0
1614972076669920921,,168050,,1614900049,288955842,"""0""",13.0,0.0,12.3999996185,0.0
1614972076727984905,,168051,,1614900049,338851623,"""0""",13.0,0.0,12.3999996185,0.0
1614972076763000965,,168052,,1614900049,388785581,"""0""",13.0,0.0,12.3999996185,0.0
1614972076812495946,,168053,,1614900049,438820112,"""0""",13.0,0.0,12.3999996185,0.0
1614972076869252920,,168054,,1614900049,488850216,"""0""",13.0,0.0,12.3999996185,0.0
1614972076911679029,,168055,,1614900049,538984331,"""0""",13.0,0.0,12.3999996185,0.0
1614972076956177949,,168056,,1614900049,588897664,"""0""",13.0,0.0,12.3999996185,0.0
1614972077007085084,,168057,,1614900049,638762300,"""0""",13.0,0.0,12.3999996185,0.0
1614972077066998004,,168058,,1614900049,689202248,"""0""",13.0,0.0,12.3999996185,0.0
1614972077111042022,,168059,,1614900049,738755529,"""0""",13.0,0.0,12.3999996185,0.0
1614972077164524078,,168060,,1614900049,788812925,"""0""",13.0,0.0,12.3999996185,0.0
1614972077212863922,,168061,,1614900049,838867716,"""0""",13.0,0.0,12.3999996185,0.0
1614972077265187978,,168062,,1614900049,888797248,"""0""",13.0,0.0,12.3999996185,0.0
1614972077330071926,,168063,,1614900049,938771362,"""0""",13.0,0.0,12.3999996185,0.0
1614972077363596916,,168064,,1614900049,988837091,"""0""",13.0,0.0,12.3999996185,0.0
1614972077419688940,,168065,,1614900050,38812300,"""0""",13.0,0.0,12.3999996185,0.0
1614972077465990066,,168066,,1614900050,88782560,"""0""",13.0,0.0,12.3999996185,0.0
1614972077517069101,,168067,,1614900050,138862508,"""0""",13.0,0.0,12.3999996185,0.0
1614972077565346956,,168068,,1614900050,188786518,"""0""",13.0,0.0,12.3999996185,0.0
1614972077613790035,,168069,,1614900050,240029435,"""0""",13.0,5.5,12.3999996185,0.0
1614972077665623903,,168070,,1614900050,288782508,"""0""",13.0,5.5,12.3999996185,0.0
1614972077710998058,,168071,,1614900050,339837195,"""0""",13.0,4.5,12.1000003815,0.0
1614972077763869047,,168072,,1614900050,388885841,"""0""",13.0,4.25,12.1000003815,0.0
1614972077813102006,,168073,,1614900050,438897664,"""0""",13.0,4.375,12.1000003815,0.0
1614972077866199970,,168074,,1614900050,488920008,"""0""",13.0,4.25,12.1499996185,0.0
1614972077917154073,,168075,,1614900050,538814591,"""0""",13.0,3.75,12.1499996185,0.0
1614972077970103979,,168076,,1614900050,588877716,"""0""",13.0,2.375,12.1499996185,0.0
1614972078016151905,,168077,,1614900050,638964383,"""0""",13.0,1.0,12.25,0.0
1614972078067878007,,168078,,1614900050,688833862,"""0""",13.0,0.625,12.25,0.0
1614972078115734100,,168079,,1614900050,738795633,"""0""",13.0,0.375,12.25,0.0
1614972078160901069,,168080,,1614900050,788793185,"""0""",13.0,0.375,12.25,0.0
1614972078210443973,,168081,,1614900050,838837403,"""0""",13.0,0.375,12.3500003815,0.0
1614972078263225078,,168082,,1614900050,888856049,"""0""",13.0,0.625,12.3500003815,0.0
1614972078306934118,,168083,,1614900050,938802768,"""0""",13.0,0.625,12.3500003815,0.0
1614972078356194019,,168084,,1614900050,988804330,"""0""",13.0,0.625,12.25,0.0
1614972078412436008,,168085,,1614900051,38802820,"""0""",13.0,0.625,12.25,0.0
1614972078456713914,,168086,,1614900051,88799695,"""0""",13.0,1.0,12.25,0.0
1614972078515067100,,168087,,1614900051,138817768,"""0""",13.0,3.75,12.1000003815,0.0
1614972078562268972,,168088,,1614900051,188784851,"""0""",13.0,3.375,12.1000003815,0.0
1614972078614561080,,168089,,1614900051,238786674,"""0""",13.0,3.0,12.1000003815,0.0
1614972078662570953,,168090,,1614900051,288785268,"""0""",13.0,2.75,12.1999998093,0.0
1614972078716365098,,168091,,1614900051,338874070,"""0""",13.0,2.375,12.1999998093,0.0
1614972078788176059,,168092,,1614900051,389110528,"""0""",13.0,1.75,12.1999998093,0.0
1614972078820086002,,168093,,1614900051,438799539,"""0""",13.0,1.0,12.25,0.0
1614972078861768007,,168094,,1614900051,488902612,"""0""",13.0,1.375,12.25,0.0
1614972078920263051,,168095,,1614900051,538841830,"""0""",13.0,1.0,12.25,0.0
1614972078963632106,,168096,,1614900051,589126570,"""0""",13.0,0.625,12.25,0.0
1614972079012137889,,168097,,1614900051,639006778,"""0""",13.0,0.375,12.3000001907,0.0
1614972079072355031,,168098,,1614900051,688784330,"""0""",13.0,0.375,12.3000001907,0.0
1614972079118556976,,168099,,1614900051,738809382,"""0""",13.0,0.375,12.3000001907,0.0
1614972079162271976,,168100,,1614900051,788793132,"""0""",13.0,0.375,12.3000001907,0.0
1614972079219568014,,168101,,1614900051,838865476,"""0""",13.0,0.0,12.3000001907,0.0
1614972079257756948,,168102,,1614900051,888812038,"""0""",13.0,0.0,12.3000001907,0.0
1614972079316574096,,168103,,1614900051,938778393,"""0""",13.0,0.0,12.3500003815,0.0
1614972079363794088,,168104,,1614900051,988979591,"""0""",13.0,0.375,12.3500003815,0.0
1614972079413543939,,168105,,1614900052,38763861,"""0""",13.0,0.375,12.3500003815,0.0
1614972079468981027,,168106,,1614900052,88885580,"""0""",13.0,0.375,12.3500003815,0.0
1614972079513935089,,168107,,1614900052,138993393,"""0""",13.0,0.375,12.3500003815,0.0
1614972079564496994,,168108,,1614900052,188790684,"""0""",13.0,0.375,12.3500003815,0.0
1614972079620409965,,168109,,1614900052,238770372,"""0""",13.0,0.375,12.3000001907,0.0
1614972079665817975,,168110,,1614900052,288771153,"""0""",13.0,0.625,12.3000001907,0.0
1614972079705693006,,168111,,1614900052,338789382,"""0""",13.0,0.375,12.3000001907,0.0
1614972079762609958,,168112,,1614900052,388845788,"""0""",13.0,0.625,12.3000001907,0.0
1614972079818305969,,168113,,1614900052,438872924,"""0""",13.0,0.625,12.3000001907,0.0
1614972079859344005,,168114,,1614900052,488779695,"""0""",13.0,1.0,12.3000001907,0.0
1614972079915510892,,168115,,1614900052,538768497,"""0""",13.0,1.375,12.3000001907,0.0
1614972079969898939,,168116,,1614900052,588790528,"""0""",12.0,1.375,12.25,0.0
1614972080008941888,,168117,,1614900052,638777872,"""0""",12.0,1.0,12.25,0.0
1614972080063769102,,168118,,1614900052,688782976,"""0""",12.0,1.375,12.25,0.0
1614972080114197015,,168119,,1614900052,738859069,"""0""",12.0,1.75,12.25,0.0
1614972080166310071,,168120,,1614900052,788784226,"""0""",12.0,1.375,12.25,0.0
1614972080214600086,,168121,,1614900052,838760007,"""0""",12.0,1.375,12.25,0.0
1614972080288094997,,168122,,1614900052,888805163,"""0""",13.0,1.75,12.25,0.0
1614972080317456960,,168123,,1614900052,938791986,"""0""",13.0,1.0,12.25,0.0
1614972080362508058,,168124,,1614900052,988804121,"""0""",13.0,1.0,12.25,0.0
1614972080425219058,,168125,,1614900053,38770059,"""0""",12.0,1.375,12.25,0.0
1614972080519280910,,168126,,1614900053,89394955,"""0""",12.0,1.75,12.25,0.0
1614972080600737094,,168127,,1614900053,138821830,"""0""",12.0,2.75,12.25,0.0
1614972080600903987,,168128,,1614900053,188823392,"""0""",12.0,2.0,12.25,0.0
1614972080644185066,,168129,,1614900053,238822923,"""0""",12.0,2.375,12.1999998093,0.0
1614972080670481920,,168130,,1614900053,289115267,"""0""",12.0,2.75,12.1999998093,0.0
1614972080719320058,,168131,,1614900053,338778809,"""0""",12.0,2.0,12.1999998093,0.0
1614972080766074895,,168132,,1614900053,389168288,"""0""",12.0,1.375,12.25,0.0
1614972080817893981,,168133,,1614900053,439131725,"""0""",12.0,1.0,12.25,0.0
1614972080894131898,,168134,,1614900053,488826621,"""0""",12.0,1.75,12.25,0.0
1614972080921782016,,168135,,1614900053,538768340,"""0""",12.0,2.0,12.1999998093,0.0
1614972080966357946,,168136,,1614900053,588835840,"""0""",12.0,1.375,12.1999998093,0.0
1614972081018227100,,168137,,1614900053,638771257,"""0""",12.0,1.0,12.1999998093,0.0
1614972081065296888,,168138,,1614900053,688843288,"""0""",12.0,1.375,12.25,0.0
1614972081126590013,,168139,,1614900053,738773548,"""0""",12.0,1.0,12.25,0.0
1614972081201584100,,168140,,1614900053,789667611,"""0""",12.0,1.0,12.25,0.0
1614972081220736980,,168141,,1614900053,838826204,"""0""",12.0,2.375,12.1999998093,0.0
1614972081265927076,,168142,,1614900053,889037923,"""0""",12.0,2.75,12.1999998093,0.0
1614972081314874887,,168143,,1614900053,938783392,"""0""",12.0,1.375,12.1999998093,0.0
1614972081366333961,,168144,,1614900053,989719017,"""0""",12.0,1.375,12.1999998093,0.0
1614972081424202919,,168145,,1614900054,38763340,"""0""",12.0,1.375,12.25,0.0
1614972081471788883,,168146,,1614900054,88823496,"""0""",12.0,2.375,12.25,0.0
1614972081514951944,,168147,,1614900054,138971152,"""0""",12.0,3.0,12.25,0.0
1614972081566370010,,168148,,1614900054,188849329,"""0""",12.0,2.375,12.1999998093,0.0
1614972081627691984,,168149,,1614900054,238782975,"""0""",12.0,2.0,12.1999998093,0.0
1614972081666815042,,168150,,1614900054,288957558,"""0""",12.0,1.75,12.1999998093,0.0
1614972081714164972,,168151,,1614900054,338795527,"""0""",12.0,1.75,12.1999998093,0.0
1614972081830110073,,168152,,1614900054,388897038,"""0""",12.0,1.375,12.1999998093,0.0
1614972081861808061,,168153,,1614900054,438795944,"""0""",12.0,1.0,12.1999998093,0.0
1614972081883301973,,168154,,1614900054,489594173,"""0""",12.0,1.75,12.25,0.0
1614972081922470092,,168155,,1614900054,538839954,"""0""",12.0,1.0,12.25,0.0
1614972081969284057,,168156,,1614900054,588785996,"""0""",12.0,1.0,12.25,0.0
1614972082016285896,,168157,,1614900054,638780110,"""0""",12.0,2.375,12.1999998093,0.0
1614972082070213079,,168158,,1614900054,688836308,"""0""",12.0,3.0,12.1999998093,0.0
1614972082133321046,,168159,,1614900054,738915319,"""0""",12.0,2.375,12.1999998093,0.0
1614972082171843051,,168160,,1614900054,788768756,"""0""",12.0,3.0,12.1999998093,0.0
1614972082220422983,,168161,,1614900054,838829642,"""0""",12.0,2.75,12.1999998093,0.0
1614972082272391080,,168162,,1614900054,889126517,"""0""",12.0,2.0,12.1999998093,0.0
1614972082318895101,,168163,,1614900054,938824798,"""0""",12.0,2.0,12.1999998093,0.0
1614972082385626077,,168164,,1614900054,989055631,"""0""",12.0,2.0,12.1999998093,0.0
1614972082426392078,,168165,,1614900055,38910683,"""0""",12.0,2.0,12.1999998093,0.0
1614972082509959936,,168166,,1614900055,88860058,"""0""",12.0,1.75,12.1999998093,0.0
1614972082538244009,,168167,,1614900055,138857193,"""0""",12.0,1.0,12.25,0.0
1614972082572544097,,168168,,1614900055,188884016,"""0""",12.0,1.0,12.25,0.0
1614972082619560003,,168169,,1614900055,238793808,"""0""",12.0,1.75,12.25,0.0
1614972082700809955,,168170,,1614900055,288789537,"""0""",12.0,1.375,12.25,0.0
1614972082731843948,,168171,,1614900055,338786725,"""0""",12.0,0.625,12.25,0.0
1614972082762192010,,168172,,1614900055,388789173,"""0""",12.0,1.375,12.25,0.0
1614972082819848060,,168173,,1614900055,438815891,"""0""",12.0,1.375,12.25,0.0
1614972082871493101,,168174,,1614900055,488793495,"""0""",12.0,0.625,12.25,0.0
1614972082913229942,,168175,,1614900055,538855423,"""0""",12.0,0.625,12.25,0.0
1614972082990691900,,168176,,1614900055,588983339,"""0""",12.0,0.625,12.25,0.0
1614972083100667953,,168177,,1614900055,638762350,"""0""",12.0,1.0,12.25,0.0
1614972083125816106,,168178,,1614900055,689432975,"""0""",12.0,0.625,12.25,0.0
1614972083126369953,,168179,,1614900055,738777558,"""0""",12.0,0.625,12.25,0.0
1614972083188932895,,168180,,1614900055,788884381,"""0""",12.0,0.625,12.25,0.0
1614972083221597909,,168181,,1614900055,838887349,"""0""",12.0,0.625,12.25,0.0
1614972083324457883,,168182,,1614900055,888780110,"""0""",12.0,1.0,12.25,0.0
1614972083355505943,,168183,,1614900055,938780839,"""0""",12.0,1.0,12.25,0.0
1614972083404159069,,168184,,1614900055,988900370,"""0""",12.0,1.0,12.25,0.0
1614972083466996908,,168185,,1614900056,38832922,"""0""",12.0,1.375,12.25,0.0
1614972083535469055,,168186,,1614900056,88929745,"""0""",12.0,1.75,12.1999998093,0.0
1614972083535583972,,168187,,1614900056,138780318,"""0""",12.0,2.375,12.1999998093,0.0
1614972083607002019,,168188,,1614900056,188818339,"""0""",12.0,2.75,12.1999998093,0.0
1614972083651029109,,168189,,1614900056,238963443,"""0""",12.0,1.75,12.1999998093,0.0
1614972083706116914,,168190,,1614900056,289096464,"""0""",12.0,1.75,12.1999998093,0.0
1614972083777542114,,168191,,1614900056,338774068,"""0""",12.0,1.0,12.1999998093,0.0
1614972083777693986,,168192,,1614900056,388837714,"""0""",12.0,0.625,12.1999998093,0.0
1614972083817034959,,168193,,1614900056,438890683,"""0""",12.0,1.375,12.25,0.0
1614972083895467996,,168194,,1614900056,488949485,"""0""",12.0,1.375,12.25,0.0
1614972083925348043,,168195,,1614900056,538797870,"""0""",12.0,0.625,12.25,0.0
1614972083988270998,,168196,,1614900056,588820110,"""0""",12.0,0.625,12.25,0.0
1614972084020703077,,168197,,1614900056,639011203,"""0""",12.0,1.0,12.25,0.0
1614972084071428060,,168198,,1614900056,688829641,"""0""",12.0,1.0,12.25,0.0
1614972084119182109,,168199,,1614900056,738908599,"""0""",12.0,1.75,12.1999998093,0.0
1614972084227197885,,168200,,1614900056,788930839,"""0""",12.0,1.375,12.1999998093,0.0
1614972084254581928,,168201,,1614900056,838785735,"""0""",12.0,4.0,12.1999998093,0.0
1614972084282197952,,168202,,1614900056,888854276,"""0""",12.0,4.125,12.1000003815,0.0
1614972084320053100,,168203,,1614900056,939238182,"""0""",12.0,4.125,12.1000003815,0.0
1614972084373874902,,168204,,1614900056,988968078,"""0""",12.0,4.125,12.1000003815,0.0
1614972084418845891,,168205,,1614900057,38868651,"""0""",12.0,4.5,12.0500001907,0.0
1614972084479757070,,168206,,1614900057,88790370,"""0""",12.0,4.5,12.0500001907,0.0
1614972084529599905,,168207,,1614900057,138922401,"""0""",12.0,4.125,12.0500001907,0.0
1614972084569567918,,168208,,1614900057,188835839,"""0""",12.0,3.875,12.0500001907,0.0
1614972084625828981,,168209,,1614900057,238796984,"""0""",12.0,4.25,12.1000003815,0.0
1614972084694154024,,168210,,1614900057,288730786,"""0""",12.0,4.25,12.1000003815,0.0
1614972084750106096,,168211,,1614900057,338789224,"""0""",12.0,4.0,12.1000003815,0.0
1614972084827382087,,168212,,1614900057,388848495,"""0""",12.0,3.875,12.1499996185,0.0
1614972084947844982,,168213,,1614900057,438860734,"""0""",12.0,4.125,12.1499996185,0.0
1614972084948780059,,168214,,1614900057,489103807,"""0""",12.0,4.0,12.1499996185,0.0
1614972085017438888,,168215,,1614900057,538801151,"""0""",12.0,4.125,12.1000003815,0.0
1614972085017606973,,168216,,1614900057,588850734,"""0""",12.0,4.125,12.1000003815,0.0
1614972085047333955,,168217,,1614900057,638816411,"""0""",12.0,4.25,12.1000003815,0.0
1614972085086421966,,168218,,1614900057,688768599,"""0""",12.0,4.375,12.0,0.0
1614972085137789964,,168219,,1614900057,738972557,"""0""",12.0,4.625,12.0,0.0
1614972085197693109,,168220,,1614900057,788797453,"""0""",12.0,4.625,12.0,0.0
1614972085249774932,,168221,,1614900057,838949328,"""0""",12.0,4.5,12.0,0.0
1614972085282494068,,168222,,1614900057,888795942,"""0""",12.0,4.5,12.0,0.0
1614972085315355062,,168223,,1614900057,938812453,"""0""",12.0,4.5,12.0,0.0
1614972085366710901,,168224,,1614900057,988781099,"""0""",12.0,4.625,12.0,0.0
1614972085450620889,,168225,,1614900058,40900422,"""0""",12.0,4.5,12.0500001907,0.0
1614972085480982065,,168226,,1614900058,88790369,"""0""",12.0,4.875,12.0500001907,0.0
1614972085522800922,,168227,,1614900058,138891099,"""0""",12.0,4.5,12.0500001907,0.0
1614972085579967021,,168228,,1614900058,188920786,"""0""",12.0,4.25,12.1000003815,0.0
1614972085632831096,,168229,,1614900058,238783234,"""0""",12.0,4.5,12.1000003815,0.0
1614972085707357883,,168230,,1614900058,288811671,"""0""",12.0,4.75,12.1000003815,0.0
1614972085771080017,,168231,,1614900058,339259536,"""0""",12.0,4.375,12.0,0.0
1614972085815738916,,168232,,1614900058,388919119,"""0""",12.0,4.5,12.0,0.0
1614972085848772048,,168233,,1614900058,438900421,"""0""",12.0,4.625,12.0,0.0
1614972085882283926,,168234,,1614900058,488801619,"""0""",12.0,4.5,12.0500001907,0.0
1614972085928194999,,168235,,1614900058,538787817,"""0""",12.0,4.625,12.0500001907,0.0
1614972085966068029,,168236,,1614900058,588764953,"""0""",12.0,4.5,12.0500001907,0.0
1614972086047349929,,168237,,1614900058,638992661,"""0""",12.0,4.75,12.0500001907,0.0
1614972086089452028,,168238,,1614900058,689132557,"""0""",12.0,4.75,12.0500001907,0.0
1614972086130068063,,168239,,1614900058,738809067,"""0""",12.0,4.375,12.0500001907,0.0
1614972086171966075,,168240,,1614900058,788785109,"""0""",12.0,4.25,12.0500001907,0.0
1614972086224858999,,168241,,1614900058,838794848,"""0""",12.0,4.375,12.1000003815,0.0
1614972086283466100,,168242,,1614900058,888829275,"""0""",12.0,4.375,12.1000003815,0.0
1614972086334147930,,168243,,1614900058,938803859,"""0""",12.0,4.125,12.1000003815,0.0
1614972086381546974,,168244,,1614900058,988852661,"""0""",12.0,4.0,12.1000003815,0.0
1614972086427052021,,168245,,1614900059,38798755,"""0""",12.0,3.75,12.1000003815,0.0
1614972086498341083,,168246,,1614900059,88914900,"""0""",12.0,3.75,12.1000003815,0.0
1614972086534209966,,168247,,1614900059,138786359,"""0""",12.0,3.875,12.1000003815,0.0
1614972086601732015,,168248,,1614900059,189210734,"""0""",12.0,3.875,12.1000003815,0.0
1614972086645750999,,168249,,1614900059,238989484,"""0""",12.0,2.75,12.1000003815,0.0
1614972086728140115,,168250,,1614900059,288785369,"""0""",12.0,2.375,12.1999998093,0.0
1614972086728374958,,168251,,1614900059,338814327,"""0""",12.0,1.75,12.1999998093,0.0
1614972086766128063,,168252,,1614900059,388765473,"""0""",12.0,1.0,12.1999998093,0.0
1614972086852344989,,168253,,1614900059,438772244,"""0""",12.0,0.625,12.25,0.0
1614972086880072116,,168254,,1614900059,488792400,"""0""",12.0,0.625,12.25,0.0
1614972086941740989,,168255,,1614900059,538917296,"""0""",12.0,0.625,12.25,0.0
1614972086997493028,,168256,,1614900059,588772400,"""0""",12.0,0.625,12.25,0.0
1614972087026942968,,168257,,1614900059,638818077,"""0""",12.0,0.375,12.25,0.0
1614972087068641901,,168258,,1614900059,688780108,"""0""",12.0,0.625,12.25,0.0
1614972087118197917,,168259,,1614900059,739262192,"""0""",12.0,0.375,12.25,0.0
1614972087193623065,,168260,,1614900059,788777765,"""0""",12.0,0.0,12.3500003815,0.0
1614972087231549024,,168261,,1614900059,838966827,"""0""",12.0,0.0,12.3500003815,0.0
1614972087263864994,,168262,,1614900059,888949535,"""0""",12.0,0.375,12.3500003815,0.0
1614972087321223020,,168263,,1614900059,938922244,"""0""",12.0,0.0,12.3500003815,0.0
1614972087370603084,,168264,,1614900059,988774744,"""0""",12.0,0.0,12.3500003815,0.0
1614972087422837972,,168265,,1614900060,38751619,"""0""",12.0,0.0,12.3500003815,0.0
1614972087472220897,,168266,,1614900060,88812608,"""0""",12.0,0.0,12.3500003815,0.0
1614972087530277967,,168267,,1614900060,138770942,"""0""",12.0,0.0,12.3500003815,0.0
1614972087576224088,,168268,,1614900060,188882764,"""0""",12.0,0.0,12.3500003815,0.0
1614972087631525993,,168269,,1614900060,238853754,"""0""",12.0,0.375,12.25,0.0
1614972087689086914,,168270,,1614900060,288824587,"""0""",12.0,0.375,12.25,0.0
1614972087727155923,,168271,,1614900060,339495733,"""0""",12.0,0.375,12.25,0.0
1614972087815784931,,168272,,1614900060,388784587,"""0""",12.0,0.375,12.25,0.0
1614972087848727941,,168273,,1614900060,438875733,"""0""",12.0,0.375,12.25,0.0
1614972087889820098,,168274,,1614900060,489007660,"""0""",12.0,0.375,12.25,0.0
1614972087921878099,,168275,,1614900060,538804014,"""0""",12.0,0.375,12.25,0.0
1614972087969130039,,168276,,1614900060,588802035,"""0""",12.0,0.375,12.25,0.0
1614972088016997098,,168277,,1614900060,638800108,"""0""",12.0,0.375,12.25,0.0
1614972088066606998,,168278,,1614900060,688787504,"""0""",12.0,0.375,12.25,0.0
1614972088118546009,,168279,,1614900060,738808233,"""0""",12.0,1.75,12.25,0.0
1614972088166800022,,168280,,1614900060,788866879,"""0""",12.0,2.375,12.25,0.0
1614972088222842931,,168281,,1614900060,838865212,"""0""",12.0,1.0,12.25,0.0
1614972088272151947,,168282,,1614900060,888781879,"""0""",12.0,2.75,12.1000003815,0.0
1614972088335306882,,168283,,1614900060,938886150,"""0""",12.0,4.375,12.1000003815,0.0
1614972088391516923,,168284,,1614900060,988825212,"""0""",12.0,4.75,12.1000003815,0.0
1614972088426192045,,168285,,1614900061,38812452,"""0""",12.0,4.625,12.0500001907,0.0
1614972088466854095,,168286,,1614900061,89041462,"""0""",12.0,4.625,12.0500001907,0.0
1614972088522449016,,168287,,1614900061,138871514,"""0""",12.0,5.125,12.0500001907,0.0
1614972088571237087,,168288,,1614900061,188779847,"""0""",12.0,4.625,12.0500001907,0.0
1614972088618899106,,168289,,1614900061,238801618,"""0""",12.0,5.25,12.0,0.0
1614972088702344894,,168290,,1614900061,288855889,"""0""",12.0,4.75,12.0,0.0
1614972088769679069,,168291,,1614900061,338805212,"""0""",12.0,4.5,12.0,0.0
1614972088807418107,,168292,,1614900061,388788858,"""0""",12.0,4.5,12.0,0.0
1614972088835632085,,168293,,1614900061,438800785,"""0""",12.0,4.375,12.0,0.0
1614972088869997024,,168294,,1614900061,488832087,"""0""",12.0,4.375,12.0,0.0
1614972088917180061,,168295,,1614900061,538771254,"""0""",12.0,4.375,12.1000003815,0.0
1614972088999365091,,168296,,1614900061,588788024,"""0""",12.0,4.375,12.1000003815,0.0
1614972089036288022,,168297,,1614900061,638824691,"""0""",12.0,4.25,12.1000003815,0.0
1614972089087958097,,168298,,1614900061,688816045,"""0""",12.0,4.25,12.0500001907,0.0
1614972089118597030,,168299,,1614900061,738970108,"""0""",12.0,4.25,12.0500001907,0.0
1614972089168163061,,168300,,1614900061,789230681,"""0""",12.0,4.25,12.0500001907,0.0
1614972089220664978,,168301,,1614900061,838796462,"""0""",12.0,4.125,12.1000003815,0.0
1614972089287730932,,168302,,1614900061,888898545,"""0""",12.0,4.25,12.1000003815,0.0
1614972089324896097,,168303,,1614900061,939235680,"""0""",12.0,4.25,12.1000003815,0.0
1614972089370748043,,168304,,1614900061,988818233,"""0""",12.0,4.25,12.1000003815,0.0
1614972089414845943,,168305,,1614900062,38894639,"""0""",12.0,4.25,12.0500001907,0.0
1614972089470798969,,168306,,1614900062,88800993,"""0""",12.0,4.125,12.0500001907,0.0
1614972089520081043,,168307,,1614900062,138780889,"""0""",12.0,4.125,12.0500001907,0.0
1614972089600466966,,168308,,1614900062,188891826,"""0""",12.0,4.125,12.0500001907,0.0
1614972089640165090,,168309,,1614900062,238800055,"""0""",12.0,4.25,12.0500001907,0.0
1614972089676182985,,168310,,1614900062,288803024,"""0""",12.0,4.25,12.0500001907,0.0
1614972089726326942,,168311,,1614900062,339088180,"""0""",12.0,4.25,12.0500001907,0.0
1614972089772907018,,168312,,1614900062,388862399,"""0""",12.0,4.25,12.0500001907,0.0
1614972089817696094,,168313,,1614900062,438771201,"""0""",12.0,4.25,12.0500001907,0.0
1614972089910962104,,168314,,1614900062,488796930,"""0""",12.0,4.25,12.0500001907,0.0
1614972089945204973,,168315,,1614900062,538898128,"""0""",12.0,4.25,12.0500001907,0.0
1614972089982083082,,168316,,1614900062,589285055,"""0""",12.0,4.25,12.0500001907,0.0
1614972090024930000,,168317,,1614900062,638814118,"""0""",12.0,4.125,12.0500001907,0.0
1614972090070099115,,168318,,1614900062,688856982,"""0""",12.0,4.125,12.0500001907,0.0
1614972090120214939,,168319,,1614900062,738788389,"""0""",12.0,4.125,12.0500001907,0.0
1614972090164807081,,168320,,1614900062,789001670,"""0""",12.0,4.125,12.0500001907,0.0
1614972090215611934,,168321,,1614900062,838785524,"""0""",12.0,4.125,12.1000003815,0.0
1614972090276144981,,168322,,1614900062,888879430,"""0""",12.0,4.125,12.1000003815,0.0
1614972090342633008,,168323,,1614900062,938902347,"""0""",12.0,4.0,12.1000003815,0.0
1614972090447756052,,168324,,1614900062,988800263,"""0""",12.0,4.0,12.1000003815,0.0
1614972090447865962,,168325,,1614900063,38862503,"""0""",12.0,3.875,12.1000003815,0.0
1614972090498733043,,168326,,1614900063,88850107,"""0""",12.0,3.875,12.1000003815,0.0
1614972090524487972,,168327,,1614900063,138898076,"""0""",12.0,3.875,12.1000003815,0.0
1614972090570672035,,168328,,1614900063,188958336,"""0""",12.0,3.875,12.1000003815,0.0
1614972090618642091,,168329,,1614900063,238793649,"""0""",12.0,4.0,12.1000003815,0.0
1614972090689326047,,168330,,1614900063,288759899,"""0""",12.0,4.0,12.1000003815,0.0
1614972090744431972,,168331,,1614900063,338783649,"""0""",12.0,3.875,12.1000003815,0.0
1614972090795744895,,168332,,1614900063,388939482,"""0""",12.0,4.0,12.1000003815,0.0
1614972090839732885,,168333,,1614900063,438797659,"""0""",12.0,4.0,12.1000003815,0.0
1614972090869788885,,168334,,1614900063,488806617,"""0""",12.0,4.0,12.1000003815,0.0
1614972090939284086,,168335,,1614900063,538829169,"""0""",12.0,3.875,12.1000003815,0.0
1614972091018356084,,168336,,1614900063,588804586,"""0""",12.0,3.875,12.1000003815,0.0
1614972091093041896,,168337,,1614900063,638782294,"""0""",12.0,3.875,12.1000003815,0.0
1614972091093158006,,168338,,1614900063,688939899,"""0""",12.0,3.875,12.1000003815,0.0
1614972091128921985,,168339,,1614900063,738816565,"""0""",12.0,4.0,12.1000003815,0.0
1614972091170383930,,168340,,1614900063,788856357,"""0""",12.0,3.875,12.1000003815,0.0
1614972091222986936,,168341,,1614900063,838781669,"""0""",12.0,4.0,12.1000003815,0.0
1614972091268657922,,168342,,1614900063,888826513,"""0""",12.0,4.125,12.1000003815,0.0
1614972091322766065,,168343,,1614900063,938849690,"""0""",12.0,4.25,12.0500001907,0.0
1614972091377690076,,168344,,1614900063,988813128,"""0""",12.0,4.125,12.0500001907,0.0
1614972091452935934,,168345,,1614900064,38838023,"""0""",12.0,4.5,12.0500001907,0.0
1614972091496961116,,168346,,1614900064,88791044,"""0""",12.0,4.375,12.1000003815,0.0
1614972091535324096,,168347,,1614900064,138755732,"""0""",12.0,4.0,12.1000003815,0.0
1614972091567476034,,168348,,1614900064,188942294,"""0""",12.0,4.0,12.1000003815,0.0
1614972091624912023,,168349,,1614900064,238770159,"""0""",12.0,4.0,12.1000003815,0.0
1614972091720977067,,168350,,1614900064,288785315,"""0""",12.0,4.0,12.1000003815,0.0
1614972091721235036,,168351,,1614900064,338780992,"""0""",12.0,4.0,12.1000003815,0.0
1614972091769778013,,168352,,1614900064,388830419,"""0""",12.0,4.125,12.1000003815,0.0
1614972091827517032,,168353,,1614900064,438764221,"""0""",12.0,4.0,12.1000003815,0.0
1614972091866983890,,168354,,1614900064,488775575,"""0""",12.0,4.0,12.1000003815,0.0
1614972091917222976,,168355,,1614900064,538801565,"""0""",12.0,4.0,12.1000003815,0.0
1614972091970546960,,168356,,1614900064,588828909,"""0""",12.0,4.0,12.1000003815,0.0
1614972092013931989,,168357,,1614900064,639028700,"""0""",12.0,4.0,12.1000003815,0.0
1614972092063544988,,168358,,1614900064,688873492,"""0""",12.0,4.0,12.1000003815,0.0
1614972092126682043,,168359,,1614900064,738776721,"""0""",12.0,3.875,12.1000003815,0.0
1614972092168560981,,168360,,1614900064,789134898,"""0""",12.0,3.875,12.1000003815,0.0
1614972092221185922,,168361,,1614900064,839003596,"""0""",12.0,3.875,12.1000003815,0.0
1614972092287992954,,168362,,1614900064,889978231,"""0""",12.0,3.875,12.0500001907,0.0
1614972092324095010,,168363,,1614900064,938870523,"""0""",12.0,3.875,12.0500001907,0.0
1614972092366462945,,168364,,1614900064,991240367,"""0""",12.0,3.875,12.0500001907,0.0
1614972092419435977,,168365,,1614900065,38786252,"""0""",12.0,4.0,12.0500001907,0.0
1614972092474211931,,168366,,1614900065,88874742,"""0""",12.0,4.0,12.0500001907,0.0
1614972092518747091,,168367,,1614900065,138823492,"""0""",12.0,3.875,12.0500001907,0.0
1614972092594413042,,168368,,1614900065,190330002,"""0""",12.0,3.875,12.0500001907,0.0
1614972092633203029,,168369,,1614900065,238765106,"""0""",12.0,3.875,12.1000003815,0.0
1614972092680665016,,168370,,1614900065,288917085,"""0""",12.0,4.0,12.1000003815,0.0
1614972092723294019,,168371,,1614900065,338786565,"""0""",12.0,3.875,12.1000003815,0.0
1614972092771584987,,168372,,1614900065,389243752,"""0""",12.0,3.875,12.1000003815,0.0
1614972092852828979,,168373,,1614900065,438795419,"""0""",12.0,3.875,12.1000003815,0.0
1614972092894831895,,168374,,1614900065,488830158,"""0""",12.0,4.0,12.1000003815,0.0
1614972092929907083,,168375,,1614900065,538768960,"""0""",12.0,4.0,12.0500001907,0.0
1614972092971151113,,168376,,1614900065,589747919,"""0""",12.0,4.0,12.0500001907,0.0
1614972093026818037,,168377,,1614900065,638793179,"""0""",12.0,4.0,12.0500001907,0.0
1614972093072789907,,168378,,1614900065,688894585,"""0""",12.0,4.0,12.1000003815,0.0
1614972093136822938,,168379,,1614900065,738811564,"""0""",12.0,4.0,12.1000003815,0.0
1614972093191920042,,168380,,1614900065,788793179,"""0""",12.0,4.125,12.1000003815,0.0
1614972093229022979,,168381,,1614900065,838799533,"""0""",12.0,4.0,12.0500001907,0.0
1614972093288902997,,168382,,1614900065,889010731,"""0""",12.0,4.25,12.0500001907,0.0
1614972093353702068,,168383,,1614900065,938815106,"""0""",12.0,4.25,12.0500001907,0.0
1614972093394530057,,168384,,1614900065,988829794,"""0""",12.0,4.125,12.0500001907,0.0
1614972093442601919,,168385,,1614900066,38768179,"""0""",12.0,4.0,12.0500001907,0.0
1614972093507582902,,168386,,1614900066,88959533,"""0""",12.0,3.875,12.0500001907,0.0
1614972093552727937,,168387,,1614900066,138796825,"""0""",12.0,3.75,12.0500001907,0.0
1614972093585690975,,168388,,1614900066,188818856,"""0""",12.0,3.875,12.1000003815,0.0
1614972093638658046,,168389,,1614900066,238807085,"""0""",12.0,4.0,12.1000003815,0.0
1614972093695291996,,168390,,1614900066,288772814,"""0""",12.0,4.0,12.1000003815,0.0
1614972093729921102,,168391,,1614900066,338777085,"""0""",12.0,3.375,12.1000003815,0.0
1614972093798904895,,168392,,1614900066,388981148,"""0""",12.0,2.75,12.1000003815,0.0
1614972093855016946,,168393,,1614900066,438785262,"""0""",12.0,3.375,12.1000003815,0.0
1614972093951930999,,168394,,1614900066,488780002,"""0""",12.0,3.875,12.0500001907,0.0
1614972093952042102,,168395,,1614900066,538778022,"""0""",12.0,3.875,12.0500001907,0.0
1614972093998009920,,168396,,1614900066,589068908,"""0""",12.0,3.875,12.0500001907,0.0
1614972094044140100,,168397,,1614900066,638770731,"""0""",12.0,3.0,12.1499996185,0.0
1614972094155961990,,168398,,1614900066,688793856,"""0""",12.0,3.0,12.1499996185,0.0
1614972094156065940,,168399,,1614900066,738810106,"""0""",12.0,3.875,12.1499996185,0.0
1614972094212172031,,168400,,1614900066,788787710,"""0""",12.0,4.0,12.1499996185,0.0
1614972094276865005,,168401,,1614900066,838778752,"""0""",12.0,3.875,12.1000003815,0.0
1614972094338501930,,168402,,1614900066,888816408,"""0""",12.0,4.0,12.1000003815,0.0
1614972094338525056,,168403,,1614900066,938796512,"""0""",12.0,4.125,12.1000003815,0.0
1614972094381531953,,168404,,1614900066,988847762,"""0""",12.0,4.125,12.0500001907,0.0
1614972094421776056,,168405,,1614900067,38797606,"""0""",12.0,4.125,12.0500001907,0.0
1614972094472961902,,168406,,1614900067,88888543,"""0""",12.0,4.125,12.0500001907,0.0
1614972094521636009,,168407,,1614900067,138763595,"""0""",12.0,4.125,12.0500001907,0.0
1614972094590662956,,168408,,1614900067,188785053,"""0""",12.0,4.125,12.0500001907,0.0
1614972094632217884,,168409,,1614900067,238864116,"""0""",12.0,4.125,12.0500001907,0.0
1614972094710530996,,168410,,1614900067,288788647,"""0""",12.0,4.0,12.1000003815,0.0
1614972094745536088,,168411,,1614900067,338778387,"""0""",12.0,4.0,12.1000003815,0.0
1614972094778506994,,168412,,1614900067,388765678,"""0""",12.0,4.0,12.1000003815,0.0
1614972094827744007,,168413,,1614900067,438756355,"""0""",12.0,4.0,12.0500001907,0.0
1614972094873523950,,168414,,1614900067,488893491,"""0""",12.0,4.0,12.0500001907,0.0
1614972094918684959,,168415,,1614900067,538753230,"""0""",12.0,4.0,12.0500001907,0.0
1614972094970550060,,168416,,1614900067,588992189,"""0""",12.0,4.0,12.0500001907,0.0
1614972095018418073,,168417,,1614900067,638796668,"""0""",12.0,3.875,12.0500001907,0.0
1614972095068797111,,168418,,1614900067,688882553,"""0""",12.0,4.0,12.0500001907,0.0
1614972095123069047,,168419,,1614900067,738856303,"""0""",12.0,4.0,12.0500001907,0.0
1614972095180135965,,168420,,1614900067,788898543,"""0""",12.0,4.0,12.1000003815,0.0
1614972095227010965,,168421,,1614900067,838777866,"""0""",12.0,4.0,12.1000003815,0.0
1614972095295154094,,168422,,1614900067,888759116,"""0""",12.0,4.0,12.1000003815,0.0
1614972095338326930,,168423,,1614900067,938865678,"""0""",12.0,4.0,12.1000003815,0.0
1614972095393440008,,168424,,1614900067,988853282,"""0""",12.0,4.0,12.1000003815,0.0
1614972095434202909,,168425,,1614900068,38815157,"""0""",12.0,4.0,12.1000003815,0.0
1614972095479208946,,168426,,1614900068,89004324,"""0""",12.0,3.875,12.1000003815,0.0
1614972095526611089,,168427,,1614900068,138846668,"""0""",12.0,4.0,12.1000003815,0.0
1614972095610337972,,168428,,1614900068,188992657,"""0""",12.0,3.875,12.1000003815,0.0
1614972095646413087,,168429,,1614900068,238793386,"""0""",12.0,3.875,12.1000003815,0.0
1614972095684246063,,168430,,1614900068,288799845,"""0""",12.0,3.875,12.1000003815,0.0
1614972095718955993,,168431,,1614900068,338797345,"""0""",12.0,3.875,12.1000003815,0.0
1614972095770303964,,168432,,1614900068,388812136,"""0""",12.0,3.75,12.1000003815,0.0
1614972095830234050,,168433,,1614900068,438858647,"""0""",12.0,3.875,12.1000003815,0.0
1614972095902635097,,168434,,1614900068,488789636,"""0""",12.0,4.0,12.1000003815,0.0
1614972095955969095,,168435,,1614900068,538776511,"""0""",12.0,3.75,12.1000003815,0.0
1614972095989577054,,168436,,1614900068,588903595,"""0""",12.0,2.375,12.1499996185,0.0
1614972096041058063,,168437,,1614900068,638831615,"""0""",12.0,3.0,12.1499996185,0.0
1614972096096123933,,168438,,1614900068,688759220,"""0""",12.0,3.0,12.1499996185,0.0
1614972096137070894,,168439,,1614900068,738833490,"""0""",12.0,2.375,12.1499996185,0.0
1614972096211466073,,168440,,1614900068,788774376,"""0""",12.0,2.375,12.1499996185,0.0
1614972096251728057,,168441,,1614900068,838805053,"""0""",12.0,2.75,12.1499996185,0.0
1614972096289843082,,168442,,1614900068,888847657,"""0""",12.0,2.375,12.1499996185,0.0
1614972096329123020,,168443,,1614900068,938814324,"""0""",12.0,1.375,12.1499996185,0.0
1614972096372216939,,168444,,1614900068,988781407,"""0""",12.0,1.375,12.1499996185,0.0
1614972096480261087,,168445,,1614900069,38953230,"""0""",12.0,0.625,12.25,0.0
1614972096535079002,,168446,,1614900069,88775313,"""0""",12.0,0.625,12.25,0.0
1614972096535187959,,168447,,1614900069,138783438,"""0""",12.0,0.375,12.25,0.0
1614972096592298030,,168448,,1614900069,189151667,"""0""",12.0,0.0,12.25,0.0
1614972096627068996,,168449,,1614900069,238774376,"""0""",12.0,0.375,12.25,0.0
1614972096674052953,,168450,,1614900069,289091876,"""0""",12.0,0.375,12.25,0.0
1614972096733696937,,168451,,1614900069,338843073,"""0""",12.0,0.0,12.25,0.0
1614972096784452915,,168452,,1614900069,388984896,"""0""",12.0,0.0,12.3000001907,0.0
1614972096845932960,,168453,,1614900069,438960209,"""0""",12.0,0.0,12.3000001907,0.0
1614972096890824079,,168454,,1614900069,488934688,"""0""",12.0,0.375,12.3000001907,0.0
1614972096945102930,,168455,,1614900069,538791719,"""0""",12.0,0.375,12.25,0.0
1614972096983270883,,168456,,1614900069,588904532,"""0""",12.0,0.625,12.25,0.0
1614972097033891916,,168457,,1614900069,638781771,"""0""",12.0,0.625,12.25,0.0
1614972097100581884,,168458,,1614900069,688814271,"""0""",12.0,0.625,12.25,0.0
1614972097151297092,,168459,,1614900069,738824532,"""0""",12.0,3.0,12.25,0.0
1614972097193228006,,168460,,1614900069,788861980,"""0""",12.0,2.75,12.25,0.0
1614972097249495029,,168461,,1614900069,839234480,"""0""",12.0,2.0,12.1999998093,0.0
1614972097296407938,,168462,,1614900069,888784219,"""0""",12.0,2.375,12.1999998093,0.0
1614972097342861890,,168463,,1614900069,938985625,"""0""",12.0,2.0,12.1999998093,0.0
1614972097442091941,,168464,,1614900069,988799323,"""0""",12.0,1.375,12.1999998093,0.0
1614972097442348957,,168465,,1614900070,38812188,"""0""",12.0,2.0,12.1999998093,0.0
1614972097495672941,,168466,,1614900070,89054011,"""0""",12.0,2.375,12.1999998093,0.0
1614972097536901950,,168467,,1614900070,138794948,"""0""",12.0,1.0,12.1999998093,0.0
1614972097579261064,,168468,,1614900070,188773073,"""0""",12.0,1.0,12.1999998093,0.0
1614972097633874893,,168469,,1614900070,238778698,"""0""",12.0,0.625,12.1999998093,0.0
1614972097692220926,,168470,,1614900070,288780000,"""0""",12.0,0.625,12.1999998093,0.0
1614972097739196062,,168471,,1614900070,339475156,"""0""",12.0,0.625,12.1999998093,0.0
1614972097793705940,,168472,,1614900070,388860729,"""0""",12.0,0.625,12.1999998093,0.0
1614972097837093114,,168473,,1614900070,438903698,"""0""",12.0,1.375,12.1999998093,0.0
1614972097894397020,,168474,,1614900070,488848438,"""0""",12.0,1.0,12.25,0.0
1614972097931422948,,168475,,1614900070,538825781,"""0""",12.0,1.0,12.25,0.0
1614972097992103099,,168476,,1614900070,588771719,"""0""",12.0,0.625,12.25,0.0
1614972098036031961,,168477,,1614900070,638979115,"""0""",12.0,1.0,12.1999998093,0.0
1614972098082993984,,168478,,1614900070,688791042,"""0""",12.0,0.625,12.1999998093,0.0
1614972098135071992,,168479,,1614900070,738828542,"""0""",12.0,0.625,12.1999998093,0.0
1614972098171505928,,168480,,1614900070,788845990,"""0""",12.0,0.625,12.1999998093,0.0
1614972098229911088,,168481,,1614900070,838872083,"""0""",12.0,1.375,12.25,0.0
1614972098310211896,,168482,,1614900070,888833177,"""0""",12.0,1.75,12.25,0.0
1614972098368882894,,168483,,1614900070,938852552,"""0""",12.0,1.375,12.25,0.0
1614972098414983987,,168484,,1614900070,988815000,"""0""",12.0,0.625,12.25,0.0
1614972098451124906,,168485,,1614900071,38862500,"""0""",12.0,0.625,12.25,0.0
1614972098500390052,,168486,,1614900071,88782760,"""0""",12.0,1.75,12.25,0.0
1614972098533432960,,168487,,1614900071,138897969,"""0""",12.0,3.75,12.1000003815,0.0
1614972098643104076,,168488,,1614900071,188803854,"""0""",12.0,1.375,12.1000003815,0.0
1614972098643346071,,168489,,1614900071,238836146,"""0""",12.0,0.625,12.1000003815,0.0
1614972098688358068,,168490,,1614900071,288777760,"""0""",12.0,0.625,12.25,0.0
1614972098736023902,,168491,,1614900071,338829583,"""0""",12.0,1.75,12.25,0.0
1614972098784729957,,168492,,1614900071,388797552,"""0""",12.0,1.375,12.25,0.0
1614972098826891899,,168493,,1614900071,438775416,"""0""",12.0,0.625,12.25,0.0
1614972098940129995,,168494,,1614900071,488789896,"""0""",12.0,1.0,12.25,0.0
1614972098940242052,,168495,,1614900071,538915573,"""0""",12.0,2.0,12.25,0.0
1614972098990066051,,168496,,1614900071,588769531,"""0""",12.0,2.0,12.25,0.0
1614972099083683967,,168497,,1614900071,638799218,"""0""",12.0,1.75,12.1999998093,0.0
1614972099083808898,,168498,,1614900071,688808385,"""0""",12.0,2.0,12.1999998093,0.0
1614972099127047061,,168499,,1614900071,739388645,"""0""",12.0,2.0,12.1999998093,0.0
1614972099186116933,,168500,,1614900071,788772135,"""0""",12.0,1.75,12.1999998093,0.0
1614972099238878965,,168501,,1614900071,839118437,"""0""",12.0,1.75,12.1999998093,0.0
1614972099336435079,,168502,,1614900071,888808489,"""0""",12.0,1.375,12.1999998093,0.0
1614972099336580991,,168503,,1614900071,938996614,"""0""",12.0,1.0,12.1999998093,0.0
1614972099384736061,,168504,,1614900071,988833281,"""0""",12.0,1.75,12.1999998093,0.0
1614972099449445009,,168505,,1614900072,38942031,"""0""",12.0,2.75,12.1999998093,0.0
1614972099522159099,,168506,,1614900072,88832187,"""0""",12.0,2.375,12.1999998093,0.0
1614972099577708005,,168507,,1614900072,138790729,"""0""",12.0,0.625,12.1999998093,0.0
1614972099623712062,,168508,,1614900072,188826927,"""0""",12.0,0.625,12.1999998093,0.0
1614972099688524007,,168509,,1614900072,239066822,"""0""",12.0,1.375,12.1999998093,0.0
1614972099688662052,,168510,,1614900072,288782239,"""0""",12.0,1.75,12.1999998093,0.0
1614972099728239059,,168511,,1614900072,338835624,"""0""",12.0,1.0,12.1999998093,0.0
1614972099789344072,,168512,,1614900072,388785364,"""0""",12.0,0.625,12.1999998093,0.0
1614972099826183080,,168513,,1614900072,438906458,"""0""",12.0,3.0,12.25,0.0
1614972099880924940,,168514,,1614900072,488751406,"""0""",12.0,3.375,12.25,0.0
1614972099920763969,,168515,,1614900072,539424218,"""0""",12.0,1.0,12.25,0.0
1614972099974914073,,168516,,1614900072,588777656,"""0""",12.0,1.0,12.1999998093,0.0
1614972100031342983,,168517,,1614900072,638799635,"""0""",12.0,1.375,12.1999998093,0.0
1614972100083726882,,168518,,1614900072,688936406,"""0""",12.0,1.375,12.1999998093,0.0
1614972100138791084,,168519,,1614900072,738837499,"""0""",12.0,1.375,12.1999998093,0.0
1614972100184813022,,168520,,1614900072,788840208,"""0""",12.0,1.0,12.1999998093,0.0
1614972100256089925,,168521,,1614900072,838767343,"""0""",12.0,3.875,12.1999998093,0.0
1614972100298098087,,168522,,1614900072,888772447,"""0""",12.0,4.125,12.0,0.0
1614972100400968074,,168523,,1614900072,938822603,"""0""",12.0,4.25,12.0,0.0
1614972100401082992,,168524,,1614900072,988840728,"""0""",12.0,4.0,12.0,0.0
1614972100501976966,,168525,,1614900073,38840832,"""0""",12.0,4.25,12.0500001907,0.0
1614972100502213001,,168526,,1614900073,88765364,"""0""",12.0,4.375,12.0500001907,0.0
1614972100563467025,,168527,,1614900073,138893905,"""0""",12.0,4.5,12.0500001907,0.0
1614972100628308057,,168528,,1614900073,188784739,"""0""",12.0,4.625,12.0500001907,0.0
1614972100733289003,,168529,,1614900073,238905260,"""0""",12.0,4.875,12.0500001907,0.0
1614972100733315944,,168530,,1614900073,288753697,"""0""",12.0,4.875,12.0500001907,0.0
1614972100733335971,,168531,,1614900073,338771926,"""0""",12.0,4.75,12.0500001907,0.0
1614972100774585962,,168532,,1614900073,388760728,"""0""",12.0,4.625,11.9499998093,0.0
1614972100820318937,,168533,,1614900073,438803020,"""0""",12.0,4.625,11.9499998093,0.0
1614972100890469074,,168534,,1614900073,488765728,"""0""",12.0,4.625,11.9499998093,0.0
1614972100928685903,,168535,,1614900073,538841978,"""0""",12.0,4.5,12.0500001907,0.0
1614972101021219968,,168536,,1614900073,588852551,"""0""",12.0,4.5,12.0500001907,0.0
1614972101061501026,,168537,,1614900073,638873905,"""0""",12.0,4.625,12.0500001907,0.0
1614972101138988018,,168538,,1614900073,688824582,"""0""",12.0,4.875,11.9499998093,0.0
1614972101139259099,,168539,,1614900073,738780572,"""0""",12.0,4.875,11.9499998093,0.0
1614972101183665990,,168540,,1614900073,789173905,"""0""",12.0,5.25,11.9499998093,0.0
1614972101227855920,,168541,,1614900073,838774843,"""0""",12.0,5.25,12.0,0.0
1614972101292273044,,168542,,1614900073,888778072,"""0""",12.0,5.25,12.0,0.0
1614972101332756996,,168543,,1614900073,938889009,"""0""",12.0,5.5,12.0,0.0
1614972101374277114,,168544,,1614900073,989127863,"""0""",12.0,5.75,12.0,0.0
1614972101427052974,,168545,,1614900074,38779218,"""0""",12.0,6.125,11.8500003815,0.0
1614972101479271888,,168546,,1614900074,88887811,"""0""",12.0,5.75,11.8500003815,0.0
1614972101527710914,,168547,,1614900074,138861561,"""0""",12.0,5.25,11.8500003815,0.0
1614972101588891983,,168548,,1614900074,188794322,"""0""",12.0,5.875,11.8999996185,0.0
1614972101647722005,,168549,,1614900074,238834270,"""0""",12.0,5.75,11.8999996185,0.0
1614972101706844091,,168550,,1614900074,288833488,"""0""",12.0,5.625,11.8999996185,0.0
1614972101738930940,,168551,,1614900074,338798801,"""0""",12.0,5.75,11.8999996185,0.0
1614972101787040948,,168552,,1614900074,388826874,"""0""",12.0,5.375,11.8999996185,0.0
1614972101835913896,,168553,,1614900074,438790519,"""0""",12.0,5.5,11.8999996185,0.0
1614972101916006088,,168554,,1614900074,489018749,"""0""",12.0,5.375,11.8999996185,0.0
1614972101954346895,,168555,,1614900074,538773332,"""0""",12.0,5.25,11.8999996185,0.0
1614972101998569011,,168556,,1614900074,589723280,"""0""",12.0,4.75,11.8999996185,0.0
1614972102030483007,,168557,,1614900074,638787446,"""0""",12.0,3.875,12.1000003815,0.0
1614972102088438987,,168558,,1614900074,688866457,"""0""",12.0,1.75,12.1000003815,0.0
1614972102128688097,,168559,,1614900074,738778176,"""0""",12.0,5.75,12.1000003815,0.0
1614972102200436115,,168560,,1614900074,788849998,"""0""",12.0,5.5,12.1000003815,0.0
1614972102247569084,,168561,,1614900074,838828280,"""0""",12.0,3.0,12.1000003815,0.0
1614972102296396017,,168562,,1614900074,889055676,"""0""",12.0,1.0,12.1000003815,0.0
1614972102374990940,,168563,,1614900074,938777446,"""0""",12.0,0.625,12.1000003815,0.0
1614972102426722049,,168564,,1614900074,988847290,"""0""",12.0,0.625,12.1999998093,0.0
1614972102475930929,,168565,,1614900075,38783436,"""0""",12.0,0.375,12.1999998093,0.0
1614972102516971111,,168566,,1614900075,88860363,"""0""",12.0,0.375,12.1999998093,0.0
1614972102561234951,,168567,,1614900075,138769217,"""0""",12.0,0.0,12.3000001907,0.0
1614972102623080015,,168568,,1614900075,188809738,"""0""",12.0,0.0,12.3000001907,0.0
1614972102660711050,,168569,,1614900075,238767290,"""0""",12.0,0.0,12.3000001907,0.0
1614972102706645011,,168570,,1614900075,288780467,"""0""",12.0,0.0,12.3999996185,0.0
1614972102771653890,,168571,,1614900075,338904009,"""0""",12.0,0.0,12.3999996185,0.0
1614972102830219030,,168572,,1614900075,388777238,"""0""",12.0,0.0,12.3999996185,0.0
1614972102889211893,,168573,,1614900075,438794477,"""0""",12.0,0.0,12.3500003815,0.0
1614972102889494895,,168574,,1614900075,488795154,"""0""",12.0,0.0,12.3500003815,0.0
1614972102943269968,,168575,,1614900075,538847811,"""0""",12.0,0.0,12.3500003815,0.0
1614972103039017915,,168576,,1614900075,588772186,"""0""",12.0,0.0,12.3500003815,0.0
1614972103103801012,,168577,,1614900075,638785154,"""0""",12.0,0.0,12.3500003815,0.0
1614972103103908061,,168578,,1614900075,688831717,"""0""",12.0,0.0,12.3500003815,0.0
1614972103151652097,,168579,,1614900075,738781717,"""0""",12.0,0.0,12.3500003815,0.0
1614972103194632053,,168580,,1614900075,788831509,"""0""",12.0,0.0,12.3000001907,0.0
1614972103271321058,,168581,,1614900075,838859269,"""0""",12.0,0.0,12.3000001907,0.0
1614972103333566904,,168582,,1614900075,888779998,"""0""",12.0,0.0,12.3000001907,0.0
1614972103333751916,,168583,,1614900075,938865883,"""0""",12.0,0.0,12.3500003815,0.0
1614972103409970045,,168584,,1614900075,988780363,"""0""",12.0,0.0,12.3500003815,0.0
1614972103465207099,,168585,,1614900076,38763175,"""0""",12.0,0.0,12.3500003815,0.0
1614972103564764976,,168586,,1614900076,88770310,"""0""",12.0,0.375,12.25,0.0
1614972103564873933,,168587,,1614900076,139048383,"""0""",12.0,0.375,12.25,0.0
1614972103620979070,,168588,,1614900076,188797602,"""0""",12.0,0.375,12.25,0.0
1614972103688755989,,168589,,1614900076,238810988,"""0""",12.0,0.375,12.25,0.0
1614972103688863039,,168590,,1614900076,288806248,"""0""",12.0,0.625,12.25,0.0
1614972103732073068,,168591,,1614900076,338860258,"""0""",12.0,1.0,12.25,0.0
1614972103783248901,,168592,,1614900076,389049425,"""0""",12.0,2.375,12.25,0.0
1614972103838327884,,168593,,1614900076,438789477,"""0""",12.0,1.375,12.1999998093,0.0
1614972103889292955,,168594,,1614900076,488855362,"""0""",12.0,1.75,12.1999998093,0.0
1614972103929733991,,168595,,1614900076,538786873,"""0""",12.0,1.75,12.1999998093,0.0
1614972103971292972,,168596,,1614900076,588842706,"""0""",12.0,1.375,12.1999998093,0.0
1614972104023771047,,168597,,1614900076,638769269,"""0""",12.0,1.375,12.1999998093,0.0
1614972104078691005,,168598,,1614900076,690511769,"""0""",12.0,1.375,12.1999998093,0.0
1614972104127795934,,168599,,1614900076,738775987,"""0""",12.0,1.375,12.1999998093,0.0
1614972104176681041,,168600,,1614900076,788773852,"""0""",12.0,1.375,12.1999998093,0.0
1614972104222110986,,168601,,1614900076,838787654,"""0""",12.0,3.875,12.1999998093,0.0
1614972104310458898,,168602,,1614900076,890021039,"""0""",12.0,4.25,12.0500001907,0.0
1614972104347177982,,168603,,1614900076,938809581,"""0""",12.0,4.25,12.0500001907,0.0
1614972104406636953,,168604,,1614900076,988784946,"""0""",12.0,4.5,12.0500001907,0.0
1614972104452229976,,168605,,1614900077,38818279,"""0""",12.0,4.75,11.9499998093,0.0
1614972104489054918,,168606,,1614900077,88830675,"""0""",12.0,4.875,11.9499998093,0.0
1614972104606693029,,168607,,1614900077,138813435,"""0""",12.0,5.25,11.9499998093,0.0
1614972104606806993,,168608,,1614900077,189447081,"""0""",12.0,5.375,11.9499998093,0.0
1614972104646224975,,168609,,1614900077,238758279,"""0""",12.0,5.375,12.0,0.0
1614972104720011949,,168610,,1614900077,290194529,"""0""",12.0,5.25,12.0,0.0
1614972104783375024,,168611,,1614900077,338776664,"""0""",12.0,5.25,12.0,0.0
1614972104857537984,,168612,,1614900077,390034268,"""0""",12.0,5.25,12.0,0.0
1614972104857646942,,168613,,1614900077,438800466,"""0""",12.0,5.0,12.0,0.0
1614972104903197050,,168614,,1614900077,490215831,"""0""",12.0,4.875,12.0,0.0
1614972104935031890,,168615,,1614900077,538762341,"""0""",12.0,4.875,12.0,0.0
1614972104982466936,,168616,,1614900077,589120935,"""0""",12.0,5.0,12.0,0.0
1614972105022192955,,168617,,1614900077,638939685,"""0""",12.0,4.875,12.0,0.0
1614972105072222948,,168618,,1614900077,689026768,"""0""",12.0,4.875,12.0,0.0
1614972105126339912,,168619,,1614900077,738778122,"""0""",12.0,5.0,12.0,0.0
1614972105217719078,,168620,,1614900077,788834789,"""0""",12.0,4.875,12.0,0.0
1614972105252612113,,168621,,1614900077,838775049,"""0""",12.0,4.75,12.0,0.0
1614972105298621892,,168622,,1614900077,888804737,"""0""",12.0,4.625,12.0,0.0
1614972105359998941,,168623,,1614900077,938759060,"""0""",12.0,4.625,12.0,0.0
