rosbagTimestamp,header,seq,stamp,secs,nsecs,frame_id,Temperature,OutputCurrent,BusVoltage,ClosedLoopError
1614971590894807100,,158335,,1614899563,538784308,"""0""",12.0,0.0,12.3999996185,0.0
1614971590938898086,,158336,,1614899563,588861600,"""0""",12.0,0.0,12.3999996185,0.0
1614971590995198965,,158337,,1614899563,638733787,"""0""",12.0,0.0,12.3999996185,0.0
1614971591039346933,,158338,,1614899563,688925402,"""0""",12.0,0.0,12.3999996185,0.0
1614971591099152088,,158339,,1614899563,738842537,"""0""",12.0,0.0,12.3999996185,0.0
1614971591144381046,,158340,,1614899563,788890558,"""0""",12.0,0.0,12.3999996185,0.0
1614971591204925060,,158341,,1614899563,838761339,"""0""",12.0,0.0,12.3999996185,0.0
1614971591243844985,,158342,,1614899563,888826600,"""0""",12.0,0.0,12.3999996185,0.0
1614971591291811943,,158343,,1614899563,938804568,"""0""",12.0,0.0,12.3999996185,0.0
1614971591343184947,,158344,,1614899563,988774464,"""0""",12.0,0.0,12.3999996185,0.0
1614971591388644933,,158345,,1614899564,38816756,"""0""",12.0,0.0,12.3999996185,0.0
1614971591442178010,,158346,,1614899564,88858214,"""0""",12.0,0.0,12.3999996185,0.0
1614971591504220008,,158347,,1614899564,138832745,"""0""",12.0,0.0,12.3999996185,0.0
1614971591547053098,,158348,,1614899564,188791443,"""0""",12.0,0.0,12.3999996185,0.0
1614971591606221914,,158349,,1614899564,238775402,"""0""",12.0,0.0,12.3999996185,0.0
1614971591649271965,,158350,,1614899564,288852277,"""0""",12.0,0.0,12.3999996185,0.0
1614971591698364973,,158351,,1614899564,338774620,"""0""",12.0,0.0,12.3999996185,0.0
1614971591756375074,,158352,,1614899564,388809360,"""0""",12.0,0.0,12.3999996185,0.0
1614971591802211999,,158353,,1614899564,438877329,"""0""",12.0,0.0,12.3999996185,0.0
1614971591853337049,,158354,,1614899564,488838318,"""0""",12.0,0.0,12.3999996185,0.0
1614971591900033950,,158355,,1614899564,538784829,"""0""",12.0,0.0,12.3999996185,0.0
1614971591957323074,,158356,,1614899564,588783787,"""0""",12.0,0.0,12.3999996185,0.0
1614971591997771024,,158357,,1614899564,638938839,"""0""",12.0,0.0,12.3999996185,0.0
1614971592060107946,,158358,,1614899564,688862953,"""0""",12.0,0.0,12.3999996185,0.0
1614971592098875999,,158359,,1614899564,738820193,"""0""",12.0,0.0,12.3999996185,0.0
1614971592148765087,,158360,,1614899564,788835401,"""0""",12.0,0.0,12.3999996185,0.0
1614971592199892044,,158361,,1614899564,838845453,"""0""",12.0,0.0,12.3999996185,0.0
1614971592260827064,,158362,,1614899564,888850974,"""0""",12.0,0.0,12.3999996185,0.0
1614971592305706024,,158363,,1614899564,938803683,"""0""",12.0,0.0,12.3999996185,0.0
1614971592354351997,,158364,,1614899564,988834203,"""0""",12.0,0.0,12.3999996185,0.0
1614971592405118942,,158365,,1614899565,38970297,"""0""",12.0,0.0,12.3999996185,0.0
1614971592452944040,,158366,,1614899565,88915193,"""0""",12.0,0.0,12.3999996185,0.0
1614971592514372110,,158367,,1614899565,138778578,"""0""",12.0,0.0,12.3999996185,0.0
1614971592551683902,,158368,,1614899565,188890662,"""0""",12.0,0.0,12.3999996185,0.0
1614971592615513086,,158369,,1614899565,238814672,"""0""",12.0,0.0,12.3999996185,0.0
1614971592654675960,,158370,,1614899565,288786026,"""0""",12.0,0.0,12.3999996185,0.0
1614971592718034029,,158371,,1614899565,338794880,"""0""",12.0,0.0,12.3999996185,0.0
1614971592764888048,,158372,,1614899565,388788474,"""0""",12.0,0.0,12.3999996185,0.0
1614971592806281089,,158373,,1614899565,438767641,"""0""",12.0,0.0,12.3999996185,0.0
1614971593243294954,,158374,,1614899565,488779568,"""0""",12.0,0.0,12.3999996185,0.0
1614971593243442058,,158375,,1614899565,538767328,"""0""",12.0,0.0,12.3999996185,0.0
1614971593243475914,,158376,,1614899565,588889724,"""0""",12.0,0.0,12.3999996185,0.0
1614971593243508100,,158377,,1614899565,638836495,"""0""",12.0,0.0,12.3999996185,0.0
1614971593271955966,,158378,,1614899565,688817745,"""0""",12.0,0.0,12.3999996185,0.0
1614971593272008895,,158379,,1614899565,738791391,"""0""",12.0,0.0,12.3999996185,0.0
1614971593272047996,,158380,,1614899565,788789984,"""0""",12.0,0.0,12.3999996185,0.0
1614971593272078990,,158381,,1614899565,838765766,"""0""",12.0,0.0,12.3999996185,0.0
1614971593272114038,,158382,,1614899565,888906026,"""0""",12.0,0.0,12.3999996185,0.0
1614971593307373046,,158383,,1614899565,938781859,"""0""",12.0,0.0,12.3999996185,0.0
1614971593371378898,,158384,,1614899565,988835818,"""0""",12.0,0.0,12.3999996185,0.0
1614971593407397985,,158385,,1614899566,38819203,"""0""",12.0,0.0,12.3999996185,0.0
1614971593746711969,,158386,,1614899566,88811286,"""0""",12.0,0.0,12.3999996185,0.0
1614971593777307987,,158387,,1614899566,138755818,"""0""",12.0,0.0,12.3999996185,0.0
1614971593777836084,,158388,,1614899566,188922745,"""0""",12.0,0.0,12.3999996185,0.0
1614971593777894020,,158389,,1614899566,238795036,"""0""",12.0,0.0,12.3999996185,0.0
1614971593778059005,,158390,,1614899566,288842224,"""0""",12.0,0.0,12.3999996185,0.0
1614971593778084039,,158391,,1614899566,338818682,"""0""",12.0,0.0,12.3999996185,0.0
1614971593778474092,,158392,,1614899566,388827484,"""0""",12.0,0.0,12.3999996185,0.0
1614971593806173086,,158393,,1614899566,438803942,"""0""",12.0,0.0,12.3999996185,0.0
1614971593850555896,,158394,,1614899566,488830349,"""0""",12.0,0.0,12.3999996185,0.0
1614971593935771942,,158395,,1614899566,538780036,"""0""",12.0,0.0,12.3999996185,0.0
1614971594324201107,,158396,,1614899566,588831078,"""0""",12.0,0.0,12.3999996185,0.0
1614971594324343919,,158397,,1614899566,639062536,"""0""",12.0,0.0,12.3999996185,0.0
1614971594324379920,,158398,,1614899566,688774880,"""0""",12.0,0.0,12.3999996185,0.0
1614971594324554920,,158399,,1614899566,738809567,"""0""",12.0,0.0,12.3999996185,0.0
1614971594324579000,,158400,,1614899566,788783317,"""0""",12.0,0.0,12.3999996185,0.0
1614971594324600934,,158401,,1614899566,838809880,"""0""",12.0,0.0,12.3999996185,0.0
1614971594324624061,,158402,,1614899566,888880869,"""0""",12.0,0.0,12.3999996185,0.0
1614971594350028991,,158403,,1614899566,938780765,"""0""",12.0,0.0,12.3999996185,0.0
1614971594350159883,,158404,,1614899566,988804411,"""0""",12.0,0.0,12.3999996185,0.0
1614971594389990091,,158405,,1614899567,38787328,"""0""",12.0,0.0,12.3999996185,0.0
1614971594440974950,,158406,,1614899567,88857953,"""0""",12.0,0.0,12.3999996185,0.0
1614971594782177925,,158407,,1614899567,138783942,"""0""",12.0,0.0,12.3999996185,0.0
1614971594788384914,,158408,,1614899567,188782848,"""0""",12.0,0.0,12.3999996185,0.0
1614971594788640975,,158409,,1614899567,238779046,"""0""",12.0,0.0,12.3999996185,0.0
1614971594788683891,,158410,,1614899567,288783005,"""0""",12.0,0.0,12.3999996185,0.0
1614971594788710117,,158411,,1614899567,338885088,"""0""",12.0,0.0,12.3999996185,0.0
1614971594788733959,,158412,,1614899567,388823942,"""0""",12.0,0.0,12.3999996185,0.0
1614971594808218002,,158413,,1614899567,438880036,"""0""",12.0,0.0,12.3999996185,0.0
1614971594846388101,,158414,,1614899567,488780088,"""0""",12.0,0.0,12.3999996185,0.0
1614971594893117904,,158415,,1614899567,538760504,"""0""",12.0,0.0,12.3999996185,0.0
1614971594945748090,,158416,,1614899567,588782067,"""0""",12.0,0.0,12.3999996185,0.0
1614971595012145996,,158417,,1614899567,638758838,"""0""",12.0,0.0,12.3999996185,0.0
1614971595327682971,,158418,,1614899567,688781025,"""0""",12.0,0.0,12.3999996185,0.0
1614971595327800035,,158419,,1614899567,738885244,"""0""",12.0,0.0,12.3999996185,0.0
1614971595327821016,,158420,,1614899567,788799463,"""0""",12.0,0.0,12.3999996185,0.0
1614971595327845096,,158421,,1614899567,838854723,"""0""",12.0,0.0,12.3999996185,0.0
1614971595327869892,,158422,,1614899567,888783421,"""0""",12.0,0.0,12.3999996185,0.0
1614971595346028089,,158423,,1614899567,938866546,"""0""",12.0,0.0,12.3999996185,0.0
1614971595346405982,,158424,,1614899567,988783681,"""0""",12.0,0.0,12.3999996185,0.0
1614971595393750905,,158425,,1614899568,38774306,"""0""",12.0,0.0,12.3999996185,0.0
1614971595447321891,,158426,,1614899568,88846963,"""0""",12.0,0.0,12.3999996185,0.0
1614971595503433942,,158427,,1614899568,138775036,"""0""",12.0,0.0,12.3999996185,0.0
1614971595769030094,,158428,,1614899568,188783942,"""0""",12.0,0.0,12.3999996185,0.0
1614971595787697076,,158429,,1614899568,238789254,"""0""",12.0,0.0,12.3999996185,0.0
1614971595787837982,,158430,,1614899568,288779358,"""0""",12.0,0.0,12.3999996185,0.0
1614971595787858963,,158431,,1614899568,338771285,"""0""",12.0,0.0,12.3999996185,0.0
1614971595787882089,,158432,,1614899568,388871806,"""0""",12.0,0.0,12.3999996185,0.0
1614971595812278985,,158433,,1614899568,438789671,"""0""",12.0,0.0,12.3999996185,0.0
1614971595847367048,,158434,,1614899568,488780660,"""0""",12.0,0.0,12.3999996185,0.0
1614971595919759988,,158435,,1614899568,538781233,"""0""",12.0,0.0,12.3999996185,0.0
1614971595953819036,,158436,,1614899568,588789358,"""0""",12.0,0.0,12.3999996185,0.0
1614971596001883029,,158437,,1614899568,638832744,"""0""",12.0,0.0,12.3999996185,0.0
1614971596424987077,,158438,,1614899568,688808160,"""0""",12.0,0.0,12.3999996185,0.0
1614971596425733089,,158439,,1614899568,738779931,"""0""",12.0,0.0,12.3999996185,0.0
1614971596425765991,,158440,,1614899568,788803421,"""0""",12.0,0.0,12.3999996185,0.0
1614971596425791025,,158441,,1614899568,838818160,"""0""",12.0,0.0,12.3999996185,0.0
1614971596426516056,,158442,,1614899568,888831025,"""0""",12.0,0.0,12.3999996185,0.0
1614971596426537036,,158443,,1614899568,938897744,"""0""",12.0,0.0,12.3999996185,0.0
1614971596460864067,,158444,,1614899568,988835296,"""0""",12.0,0.0,12.3999996185,0.0
1614971596460978031,,158445,,1614899569,38786858,"""0""",12.0,0.0,12.3999996185,0.0
1614971596461004972,,158446,,1614899569,88803108,"""0""",12.0,0.0,12.3999996185,0.0
1614971596497140884,,158447,,1614899569,138759514,"""0""",12.0,0.0,12.3999996185,0.0
1614971596546993970,,158448,,1614899569,188890764,"""0""",12.0,0.0,12.3999996185,0.0
1614971596816860914,,158449,,1614899569,238811650,"""0""",12.0,0.0,12.3999996185,0.0
1614971596858237028,,158450,,1614899569,288902535,"""0""",12.0,0.0,12.3999996185,0.0
1614971596858689069,,158451,,1614899569,338767587,"""0""",12.0,0.0,12.3999996185,0.0
1614971596858833074,,158452,,1614899569,388820035,"""0""",12.0,0.0,12.3999996185,0.0
1614971596858856916,,158453,,1614899569,438777014,"""0""",12.0,0.0,12.3999996185,0.0
1614971596858880996,,158454,,1614899569,488841285,"""0""",12.0,0.0,12.3999996185,0.0
1614971596890444993,,158455,,1614899569,538789827,"""0""",12.0,4.875,12.0,0.0
1614971596956578016,,158456,,1614899569,588916233,"""0""",12.0,3.875,12.0,0.0
1614971597002384901,,158457,,1614899569,638786025,"""0""",12.0,4.25,12.0,0.0
1614971597051053047,,158458,,1614899569,688796545,"""0""",12.0,4.5,12.0500001907,0.0
1614971597092823028,,158459,,1614899569,738764202,"""0""",12.0,4.5,12.0500001907,0.0
1614971597144062042,,158460,,1614899569,788824827,"""0""",12.0,4.75,12.0500001907,0.0
1614971597202929019,,158461,,1614899569,838784462,"""0""",12.0,4.375,12.0500001907,0.0
1614971597249226093,,158462,,1614899569,888814202,"""0""",12.0,4.0,12.1000003815,0.0
1614971597302172899,,158463,,1614899569,938784983,"""0""",12.0,3.875,12.1000003815,0.0
1614971597361150026,,158464,,1614899569,988833524,"""0""",12.0,2.375,12.1000003815,0.0
1614971597408317089,,158465,,1614899570,38814201,"""0""",12.0,1.0,12.25,0.0
1614971597457176923,,158466,,1614899570,88826806,"""0""",12.0,1.75,12.25,0.0
1614971597502211093,,158467,,1614899570,138835035,"""0""",12.0,0.625,12.25,0.0
1614971597556226968,,158468,,1614899570,188936181,"""0""",12.0,0.625,12.25,0.0
1614971597604628086,,158469,,1614899570,238843212,"""0""",12.0,0.375,12.25,0.0
1614971597662565946,,158470,,1614899570,289353056,"""0""",12.0,0.375,12.25,0.0
1614971597704716920,,158471,,1614899570,338777639,"""0""",12.0,1.0,12.3500003815,0.0
1614971597756619930,,158472,,1614899570,388885555,"""0""",12.0,3.375,12.3500003815,0.0
1614971597803320884,,158473,,1614899570,438799514,"""0""",12.0,1.375,12.3500003815,0.0
1614971597855483055,,158474,,1614899570,488900451,"""0""",12.0,1.375,12.25,0.0
1614971597915035009,,158475,,1614899570,539030868,"""0""",12.0,2.75,12.25,0.0
1614971597960051059,,158476,,1614899570,588840764,"""0""",12.0,2.75,12.25,0.0
1614971598044305086,,158477,,1614899570,638744774,"""0""",12.0,2.375,12.25,0.0
1614971598075767993,,158478,,1614899570,689041076,"""0""",12.0,2.375,12.25,0.0
1614971598110780954,,158479,,1614899570,738793889,"""0""",12.0,2.0,12.25,0.0
1614971598161427974,,158480,,1614899570,788844670,"""0""",12.0,0.625,12.25,0.0
1614971598205511093,,158481,,1614899570,838783576,"""0""",12.0,0.375,12.3000001907,0.0
1614971598253333091,,158482,,1614899570,888890451,"""0""",12.0,0.375,12.3000001907,0.0
1614971598338306903,,158483,,1614899570,938755034,"""0""",12.0,0.375,12.3000001907,0.0
1614971598379324913,,158484,,1614899570,988842951,"""0""",12.0,0.375,12.3500003815,0.0
1614971598428478002,,158485,,1614899571,38883836,"""0""",12.0,0.0,12.3500003815,0.0
1614971598462423086,,158486,,1614899571,88900555,"""0""",12.0,0.0,12.3500003815,0.0
1614971598504734992,,158487,,1614899571,138782118,"""0""",12.0,0.0,12.3999996185,0.0
1614971598552884101,,158488,,1614899571,188782014,"""0""",12.0,0.0,12.3999996185,0.0
1614971598609446048,,158489,,1614899571,238786232,"""0""",12.0,0.0,12.3999996185,0.0
1614971598651472091,,158490,,1614899571,288868836,"""0""",12.0,0.0,12.3999996185,0.0
1614971598709952116,,158491,,1614899571,338800295,"""0""",12.0,0.0,12.3999996185,0.0
1614971598757292985,,158492,,1614899571,388837951,"""0""",12.0,0.0,12.3999996185,0.0
1614971598804348945,,158493,,1614899571,438747638,"""0""",12.0,0.375,12.3999996185,0.0
1614971598859886884,,158494,,1614899571,488992743,"""0""",12.0,0.375,12.3500003815,0.0
1614971598908974885,,158495,,1614899571,538858628,"""0""",12.0,0.375,12.3500003815,0.0
1614971598953485965,,158496,,1614899571,588798940,"""0""",12.0,1.0,12.3500003815,0.0
1614971599006386995,,158497,,1614899571,638884253,"""0""",12.0,1.0,12.25,0.0
1614971599054995059,,158498,,1614899571,688946753,"""0""",12.0,1.375,12.25,0.0
1614971599103204011,,158499,,1614899571,738853472,"""0""",12.0,1.75,12.25,0.0
1614971599156177043,,158500,,1614899571,788818836,"""0""",12.0,2.0,12.1999998093,0.0
1614971599221716880,,158501,,1614899571,838830711,"""0""",12.0,1.75,12.1999998093,0.0
1614971599269330024,,158502,,1614899571,888779201,"""0""",12.0,1.0,12.1999998093,0.0
1614971599304203033,,158503,,1614899571,938883159,"""0""",12.0,1.0,12.25,0.0
1614971599361033916,,158504,,1614899571,988775242,"""0""",12.0,1.0,12.25,0.0
1614971599408384084,,158505,,1614899572,38776076,"""0""",12.0,1.375,12.25,0.0
1614971599458288908,,158506,,1614899572,88827430,"""0""",12.0,1.0,12.25,0.0
1614971599515506982,,158507,,1614899572,138809149,"""0""",12.0,0.625,12.25,0.0
1614971599557337045,,158508,,1614899572,188805867,"""0""",12.0,0.375,12.25,0.0
1614971599603943109,,158509,,1614899572,238773992,"""0""",12.0,0.625,12.25,0.0
1614971599661920070,,158510,,1614899572,288824826,"""0""",12.0,2.75,12.25,0.0
1614971599705961942,,158511,,1614899572,338798003,"""0""",12.0,3.375,12.25,0.0
1614971599758471965,,158512,,1614899572,388794669,"""0""",12.0,1.75,12.25,0.0
1614971599830720901,,158513,,1614899572,438789096,"""0""",12.0,3.375,12.25,0.0
1614971599866786956,,158514,,1614899572,488785815,"""0""",12.0,4.0,12.25,0.0
1614971599908684968,,158515,,1614899572,538828159,"""0""",12.0,3.375,12.25,0.0
1614971599956129074,,158516,,1614899572,588835971,"""0""",12.0,1.75,12.1999998093,0.0
1614971600006104946,,158517,,1614899572,638775815,"""0""",12.0,1.0,12.1999998093,0.0
1614971600060240983,,158518,,1614899572,688819930,"""0""",12.0,2.75,12.1999998093,0.0
1614971600108258962,,158519,,1614899572,738780607,"""0""",12.0,4.0,12.1499996185,0.0
1614971600145337104,,158520,,1614899572,788789044,"""0""",12.0,4.0,12.1499996185,0.0
1614971600197964906,,158521,,1614899572,838859930,"""0""",12.0,1.75,12.1499996185,0.0
1614971600255134105,,158522,,1614899572,888778523,"""0""",11.0,1.75,12.1999998093,0.0
1614971600292299985,,158523,,1614899572,938924617,"""0""",11.0,2.0,12.1999998093,0.0
1614971600350728034,,158524,,1614899572,988790711,"""0""",11.0,1.375,12.1999998093,0.0
1614971600399050951,,158525,,1614899573,39355502,"""0""",12.0,2.0,12.1999998093,0.0
1614971600452044963,,158526,,1614899573,88754304,"""0""",12.0,2.375,12.1999998093,0.0
1614971600502253055,,158527,,1614899573,138908679,"""0""",12.0,2.0,12.1999998093,0.0
1614971600563230991,,158528,,1614899573,188825867,"""0""",12.0,1.0,12.1999998093,0.0
1614971600624038934,,158529,,1614899573,238776127,"""0""",12.0,1.0,12.25,0.0
1614971600646434068,,158530,,1614899573,288848106,"""0""",12.0,1.375,12.25,0.0
1614971600697704076,,158531,,1614899573,338777846,"""0""",12.0,3.0,12.25,0.0
1614971600749555110,,158532,,1614899573,389028106,"""0""",12.0,3.75,12.1499996185,0.0
1614971600804624080,,158533,,1614899573,438935086,"""0""",12.0,2.0,12.1499996185,0.0
1614971600858448982,,158534,,1614899573,488807533,"""0""",12.0,1.375,12.1499996185,0.0
1614971600903722047,,158535,,1614899573,538854565,"""0""",12.0,1.0,12.25,0.0
1614971600954921007,,158536,,1614899573,588874669,"""0""",12.0,1.375,12.25,0.0
1614971600997517108,,158537,,1614899573,638783523,"""0""",12.0,1.375,12.25,0.0
1614971601049806118,,158538,,1614899573,688765450,"""0""",12.0,1.75,12.25,0.0
1614971601098278045,,158539,,1614899573,738833523,"""0""",12.0,1.75,12.25,0.0
1614971601147146940,,158540,,1614899573,788905294,"""0""",12.0,1.0,12.25,0.0
1614971601209151983,,158541,,1614899573,838788992,"""0""",12.0,3.375,12.25,0.0
1614971601251656055,,158542,,1614899573,888797898,"""0""",12.0,3.875,12.1000003815,0.0
1614971601309451103,,158543,,1614899573,938903627,"""0""",12.0,3.375,12.1000003815,0.0
1614971601344695091,,158544,,1614899573,988792221,"""0""",12.0,2.75,12.1000003815,0.0
1614971601398072957,,158545,,1614899574,38848210,"""0""",12.0,3.875,12.1999998093,0.0
1614971601454777002,,158546,,1614899574,88801023,"""0""",12.0,3.875,12.1999998093,0.0
1614971601508289098,,158547,,1614899574,138790137,"""0""",12.0,2.375,12.1999998093,0.0
1614971601554682016,,158548,,1614899574,188855554,"""0""",12.0,3.0,12.1999998093,0.0
1614971601598896980,,158549,,1614899574,238898575,"""0""",12.0,3.875,12.1999998093,0.0
1614971601650459051,,158550,,1614899574,289787273,"""0""",12.0,3.875,12.1999998093,0.0
1614971601711255073,,158551,,1614899574,338841960,"""0""",11.0,3.375,12.1999998093,0.0
1614971601750684976,,158552,,1614899574,388899252,"""0""",11.0,2.0,12.1999998093,0.0
1614971601831558942,,158553,,1614899574,438771439,"""0""",11.0,1.0,12.1999998093,0.0
1614971601870933055,,158554,,1614899574,488940241,"""0""",11.0,1.375,12.25,0.0
1614971601929531097,,158555,,1614899574,538770502,"""0""",11.0,1.0,12.25,0.0
1614971601943485975,,158556,,1614899574,588795346,"""0""",11.0,0.375,12.25,0.0
1614971602007596969,,158557,,1614899574,638772846,"""0""",11.0,0.625,12.25,0.0
1614971602054244995,,158558,,1614899574,688906543,"""0""",12.0,1.0,12.25,0.0
1614971602108237981,,158559,,1614899574,739296491,"""0""",12.0,0.375,12.25,0.0
1614971602148725986,,158560,,1614899574,788863991,"""0""",12.0,0.375,12.25,0.0
1614971602208728075,,158561,,1614899574,838858783,"""0""",12.0,0.375,12.3000001907,0.0
1614971602255377054,,158562,,1614899574,888784877,"""0""",12.0,0.375,12.3000001907,0.0
1614971602310975074,,158563,,1614899574,938797898,"""0""",12.0,0.375,12.3000001907,0.0
1614971602347234964,,158564,,1614899574,988776595,"""0""",12.0,0.375,12.3000001907,0.0
1614971602409176111,,158565,,1614899575,38822220,"""0""",12.0,0.0,12.3000001907,0.0
1614971602452403068,,158566,,1614899575,88831491,"""0""",12.0,0.375,12.3000001907,0.0
1614971602502221107,,158567,,1614899575,138801700,"""0""",12.0,0.375,12.3000001907,0.0
1614971602544428110,,158568,,1614899575,188806699,"""0""",12.0,0.625,12.3000001907,0.0
1614971602633964061,,158569,,1614899575,238774147,"""0""",12.0,1.0,12.3000001907,0.0
1614971602656631946,,158570,,1614899575,288799877,"""0""",12.0,0.625,12.3000001907,0.0
1614971602708887100,,158571,,1614899575,338787220,"""0""",12.0,2.0,12.3000001907,0.0
1614971602757797002,,158572,,1614899575,388947689,"""0""",12.0,4.0,12.3000001907,0.0
1614971602807620048,,158573,,1614899575,439052481,"""0""",12.0,4.0,12.1999998093,0.0
1614971602850151062,,158574,,1614899575,488823210,"""0""",12.0,3.875,12.1999998093,0.0
1614971602910968065,,158575,,1614899575,538829720,"""0""",12.0,3.875,12.1999998093,0.0
1614971602962341070,,158576,,1614899575,588785033,"""0""",12.0,3.75,12.1999998093,0.0
1614971603006937980,,158577,,1614899575,638787949,"""0""",11.0,1.0,12.1999998093,0.0
1614971603051743030,,158578,,1614899575,688831856,"""0""",11.0,1.375,12.1999998093,0.0
1614971603106520891,,158579,,1614899575,738772585,"""0""",11.0,2.375,12.1999998093,0.0
1614971603149760007,,158580,,1614899575,788774251,"""0""",12.0,1.0,12.25,0.0
1614971603208569049,,158581,,1614899575,838786960,"""0""",12.0,0.375,12.25,0.0
1614971603251283884,,158582,,1614899575,888810241,"""0""",12.0,0.375,12.25,0.0
1614971603313644886,,158583,,1614899575,938768314,"""0""",12.0,0.625,12.25,0.0
1614971603352653980,,158584,,1614899575,988832949,"""0""",12.0,0.625,12.25,0.0
1614971603406755924,,158585,,1614899576,38815501,"""0""",12.0,0.625,12.25,0.0
1614971603445431947,,158586,,1614899576,88777637,"""0""",11.0,3.375,12.1499996185,0.0
1614971603504755020,,158587,,1614899576,139037741,"""0""",11.0,4.125,12.1499996185,0.0
1614971603547480106,,158588,,1614899576,188876282,"""0""",11.0,4.125,12.1499996185,0.0
1614971603609160900,,158589,,1614899576,238952428,"""0""",11.0,4.125,12.1499996185,0.0
1614971603655144929,,158590,,1614899576,289226543,"""0""",12.0,4.25,12.1000003815,0.0
1614971603735964059,,158591,,1614899576,338812012,"""0""",12.0,4.875,12.1000003815,0.0
1614971603780706882,,158592,,1614899576,389115605,"""0""",12.0,4.5,12.1000003815,0.0
1614971603823163032,,158593,,1614899576,438742793,"""0""",11.0,4.375,12.1000003815,0.0
1614971603862432003,,158594,,1614899576,489660501,"""0""",11.0,4.25,12.1000003815,0.0
1614971603908735036,,158595,,1614899576,538791386,"""0""",11.0,5.375,12.1000003815,0.0
1614971603947803974,,158596,,1614899576,589012845,"""0""",11.0,5.25,12.0500001907,0.0
1614971604017729043,,158597,,1614899576,638769772,"""0""",11.0,4.875,12.0500001907,0.0
1614971604072165012,,158598,,1614899576,689140084,"""0""",11.0,4.375,12.0500001907,0.0
1614971604112920999,,158599,,1614899576,738772272,"""0""",11.0,4.375,12.0500001907,0.0
1614971604151051998,,158600,,1614899576,789030553,"""0""",11.0,4.5,12.0500001907,0.0
1614971604220727920,,158601,,1614899576,838769147,"""0""",11.0,4.5,12.0500001907,0.0
1614971604256134033,,158602,,1614899576,890131178,"""0""",11.0,4.375,12.0500001907,0.0
1614971604312211036,,158603,,1614899576,938781855,"""0""",11.0,4.5,12.0500001907,0.0
1614971604353018045,,158604,,1614899576,988851855,"""0""",11.0,5.5,12.0500001907,0.0
1614971604400290966,,158605,,1614899577,39073157,"""0""",11.0,5.875,12.0500001907,0.0
1614971604457544088,,158606,,1614899577,88826490,"""0""",11.0,6.125,11.8999996185,0.0
1614971604503712892,,158607,,1614899577,138788157,"""0""",11.0,6.375,11.8999996185,0.0
1614971604559237957,,158608,,1614899577,189255397,"""0""",11.0,6.0,11.8999996185,0.0
1614971604602930068,,158609,,1614899577,238767636,"""0""",11.0,5.625,11.9499998093,0.0
1614971604651252985,,158610,,1614899577,289393105,"""0""",11.0,5.75,11.9499998093,0.0
1614971604714114904,,158611,,1614899577,338765188,"""0""",11.0,5.875,11.9499998093,0.0
1614971604768707990,,158612,,1614899577,388881907,"""0""",11.0,5.75,11.8999996185,0.0
1614971604806065082,,158613,,1614899577,438791647,"""0""",11.0,5.875,11.8999996185,0.0
1614971604850687980,,158614,,1614899577,488993522,"""0""",11.0,5.875,11.8999996185,0.0
1614971604906167984,,158615,,1614899577,538843053,"""0""",11.0,4.75,12.0500001907,0.0
1614971604954783916,,158616,,1614899577,589644824,"""0""",11.0,4.625,12.0500001907,0.0
1614971605003830909,,158617,,1614899577,638812532,"""0""",11.0,5.375,12.0500001907,0.0
1614971605062453031,,158618,,1614899577,690323938,"""0""",11.0,5.25,12.0,0.0
1614971605112942934,,158619,,1614899577,738769563,"""0""",11.0,5.25,12.0,0.0
1614971605153208017,,158620,,1614899577,789073834,"""0""",11.0,4.875,12.0,0.0
1614971605210756063,,158621,,1614899577,838796959,"""0""",11.0,4.875,12.0,0.0
1614971605256496906,,158622,,1614899577,888858105,"""0""",11.0,5.0,12.0,0.0
1614971605316111087,,158623,,1614899577,938826126,"""0""",11.0,4.875,12.0,0.0
1614971605354135990,,158624,,1614899577,988781907,"""0""",11.0,4.625,12.0,0.0
1614971605411542892,,158625,,1614899578,38774823,"""0""",11.0,4.625,12.0500001907,0.0
1614971605459254980,,158626,,1614899578,88895448,"""0""",11.0,5.125,12.0500001907,0.0
1614971605505975008,,158627,,1614899578,138792115,"""0""",11.0,5.0,12.0500001907,0.0
1614971605553654909,,158628,,1614899578,188914771,"""0""",11.0,4.875,12.0,0.0
1614971605610012054,,158629,,1614899578,238770240,"""0""",11.0,5.125,12.0,0.0
1614971605661246061,,158630,,1614899578,288776125,"""0""",11.0,4.875,12.0,0.0
1614971605715878009,,158631,,1614899578,338789823,"""0""",11.0,4.375,12.0500001907,0.0
1614971605771541118,,158632,,1614899578,388827844,"""0""",11.0,4.25,12.0500001907,0.0
1614971605807101011,,158633,,1614899578,438812219,"""0""",11.0,4.375,12.0500001907,0.0
1614971605862137079,,158634,,1614899578,488779719,"""0""",11.0,4.25,12.1000003815,0.0
1614971605913760900,,158635,,1614899578,538893469,"""0""",11.0,4.125,12.1000003815,0.0
1614971605986860990,,158636,,1614899578,588873573,"""0""",11.0,4.125,12.1000003815,0.0
1614971606033493041,,158637,,1614899578,639018104,"""0""",11.0,4.25,12.1000003815,0.0
1614971606061254978,,158638,,1614899578,688857063,"""0""",11.0,4.125,12.0500001907,0.0
1614971606114240884,,158639,,1614899578,738781281,"""0""",11.0,3.75,12.0500001907,0.0
1614971606160330057,,158640,,1614899578,788883781,"""0""",11.0,3.75,12.0500001907,0.0
1614971606210839986,,158641,,1614899578,838819250,"""0""",11.0,3.75,12.1000003815,0.0
1614971606262972116,,158642,,1614899578,888792063,"""0""",11.0,2.375,12.1000003815,0.0
1614971606306037902,,158643,,1614899578,938774719,"""0""",11.0,0.625,12.1000003815,0.0
1614971606354818105,,158644,,1614899578,988842896,"""0""",11.0,0.625,12.25,0.0
1614971606415050029,,158645,,1614899579,38791021,"""0""",11.0,0.625,12.25,0.0
1614971606456495046,,158646,,1614899579,88806594,"""0""",11.0,0.625,12.25,0.0
1614971606506306886,,158647,,1614899579,138742427,"""0""",11.0,0.375,12.25,0.0
1614971606570616006,,158648,,1614899579,188783104,"""0""",11.0,0.375,12.25,0.0
1614971606611241102,,158649,,1614899579,238953729,"""0""",11.0,0.0,12.25,0.0
1614971606659254074,,158650,,1614899579,288788469,"""0""",11.0,0.0,12.3500003815,0.0
1614971606704704046,,158651,,1614899579,338767948,"""0""",11.0,0.0,12.3500003815,0.0
1614971606774363040,,158652,,1614899579,388783260,"""0""",11.0,0.0,12.3500003815,0.0
1614971606831625938,,158653,,1614899579,438762531,"""0""",11.0,0.0,12.3500003815,0.0
1614971606873538017,,158654,,1614899579,488994562,"""0""",11.0,0.0,12.3500003815,0.0
1614971606906733036,,158655,,1614899579,538785812,"""0""",11.0,0.0,12.3500003815,0.0
1614971606967549085,,158656,,1614899579,588823989,"""0""",11.0,0.0,12.3500003815,0.0
1614971607015530109,,158657,,1614899579,638792531,"""0""",12.0,0.0,12.3500003815,0.0
1614971607058258056,,158658,,1614899579,688819354,"""0""",12.0,0.0,12.3500003815,0.0
1614971607113281965,,158659,,1614899579,738849771,"""0""",12.0,0.375,12.3500003815,0.0
1614971607161799907,,158660,,1614899579,788793573,"""0""",11.0,0.375,12.25,0.0
1614971607207535982,,158661,,1614899579,838811646,"""0""",11.0,0.625,12.25,0.0
1614971607273288965,,158662,,1614899579,888821698,"""0""",11.0,0.625,12.25,0.0
1614971607312802076,,158663,,1614899579,938796281,"""0""",11.0,0.625,12.25,0.0
1614971607376152992,,158664,,1614899579,988890083,"""0""",11.0,2.0,12.25,0.0
1614971607447714090,,158665,,1614899580,38906906,"""0""",11.0,3.0,12.25,0.0
1614971607470918893,,158666,,1614899580,88793989,"""0""",11.0,1.75,12.1999998093,0.0
1614971607512914896,,158667,,1614899580,138969666,"""0""",11.0,0.625,12.1999998093,0.0
1614971607561078071,,158668,,1614899580,188884041,"""0""",11.0,0.375,12.1999998093,0.0
1614971607616162061,,158669,,1614899580,238781645,"""0""",11.0,2.375,12.1999998093,0.0
1614971607653009891,,158670,,1614899580,288787791,"""0""",11.0,2.75,12.1999998093,0.0
1614971607709882974,,158671,,1614899580,338816958,"""0""",11.0,2.75,12.1999998093,0.0
1614971607761785984,,158672,,1614899580,388766854,"""0""",11.0,1.375,12.1999998093,0.0
1614971607815553903,,158673,,1614899580,438775968,"""0""",11.0,3.75,12.1499996185,0.0
1614971607863380908,,158674,,1614899580,488871281,"""0""",11.0,3.875,12.1499996185,0.0
1614971607912209987,,158675,,1614899580,538791958,"""0""",11.0,4.375,12.1499996185,0.0
1614971607961036920,,158676,,1614899580,588751385,"""0""",11.0,4.5,12.0500001907,0.0
1614971608008905887,,158677,,1614899580,638797895,"""0""",11.0,4.375,12.0500001907,0.0
1614971608064536094,,158678,,1614899580,688786854,"""0""",11.0,4.25,12.0500001907,0.0
1614971608111418008,,158679,,1614899580,738939197,"""0""",11.0,4.375,12.0500001907,0.0
1614971608168057918,,158680,,1614899580,788896593,"""0""",11.0,4.625,12.0500001907,0.0
1614971608245140075,,158681,,1614899580,838788520,"""0""",11.0,5.0,12.0500001907,0.0
1614971608274570941,,158682,,1614899580,888793260,"""0""",11.0,4.625,12.0500001907,0.0
1614971608322905063,,158683,,1614899580,938789249,"""0""",11.0,5.125,12.0500001907,0.0
1614971608364027976,,158684,,1614899580,988840291,"""0""",11.0,5.25,12.0500001907,0.0
1614971608408740997,,158685,,1614899581,38846697,"""0""",11.0,4.875,12.0500001907,0.0
1614971608460112094,,158686,,1614899581,88767531,"""0""",11.0,5.0,12.0,0.0
1614971608511172056,,158687,,1614899581,138789093,"""0""",11.0,4.875,12.0,0.0
1614971608576349020,,158688,,1614899581,188843624,"""0""",11.0,4.75,12.0,0.0
1614971608671627044,,158689,,1614899581,238858624,"""0""",11.0,4.875,12.0,0.0
1614971608671762943,,158690,,1614899581,289045603,"""0""",11.0,5.0,12.0,0.0
1614971608715552091,,158691,,1614899581,338797426,"""0""",11.0,5.25,12.0,0.0
1614971608767107963,,158692,,1614899581,388786176,"""0""",11.0,5.0,12.0,0.0
1614971608817344903,,158693,,1614899581,438846541,"""0""",11.0,5.25,12.0,0.0
1614971608860311985,,158694,,1614899581,488785916,"""0""",11.0,5.375,12.0,0.0
1614971608913693904,,158695,,1614899581,538904041,"""0""",11.0,5.125,12.0,0.0
1614971608964215993,,158696,,1614899581,588783260,"""0""",11.0,5.125,12.0,0.0
1614971609009799003,,158697,,1614899581,638871332,"""0""",11.0,5.125,12.0,0.0
1614971609063208103,,158698,,1614899581,688785968,"""0""",11.0,5.5,12.0,0.0
1614971609109584093,,158699,,1614899581,738873259,"""0""",11.0,5.375,12.0,0.0
1614971609174062967,,158700,,1614899581,788792322,"""0""",11.0,5.375,12.0,0.0
1614971609226253986,,158701,,1614899581,839015499,"""0""",11.0,5.25,12.0,0.0
1614971609295162916,,158702,,1614899581,888811541,"""0""",11.0,5.125,11.9499998093,0.0
1614971609330214023,,158703,,1614899581,938812374,"""0""",11.0,5.0,11.9499998093,0.0
1614971609375866889,,158704,,1614899581,988807843,"""0""",11.0,4.875,11.9499998093,0.0
1614971609450267076,,158705,,1614899582,38797739,"""0""",11.0,5.0,12.0,0.0
1614971609488492012,,158706,,1614899582,88897322,"""0""",11.0,4.875,12.0,0.0
1614971609532567024,,158707,,1614899582,138898989,"""0""",11.0,5.0,12.0,0.0
1614971609566193103,,158708,,1614899582,188804353,"""0""",11.0,4.875,11.9499998093,0.0
1614971609611574888,,158709,,1614899582,238867478,"""0""",11.0,4.75,11.9499998093,0.0
1614971609659348964,,158710,,1614899582,288771905,"""0""",11.0,4.875,11.9499998093,0.0
1614971609718763113,,158711,,1614899582,338935707,"""0""",11.0,4.625,12.0500001907,0.0
1614971609758210897,,158712,,1614899582,388762165,"""0""",11.0,4.625,12.0500001907,0.0
1614971609813494920,,158713,,1614899582,438777947,"""0""",11.0,4.5,12.0500001907,0.0
1614971609865061044,,158714,,1614899582,488830447,"""0""",11.0,4.5,12.0500001907,0.0
1614971609922362089,,158715,,1614899582,538799874,"""0""",11.0,4.375,12.0500001907,0.0
1614971609968667984,,158716,,1614899582,588846436,"""0""",11.0,4.25,12.0500001907,0.0
1614971610083585023,,158717,,1614899582,638843207,"""0""",11.0,4.125,12.1000003815,0.0
1614971610083697080,,158718,,1614899582,688797790,"""0""",11.0,4.0,12.1000003815,0.0
1614971610135736942,,158719,,1614899582,739150447,"""0""",11.0,4.0,12.1000003815,0.0
1614971610172122001,,158720,,1614899582,788785082,"""0""",11.0,4.125,12.1000003815,0.0
1614971610234035015,,158721,,1614899582,838780499,"""0""",11.0,4.25,12.1000003815,0.0
1614971610296744108,,158722,,1614899582,888924144,"""0""",11.0,4.25,12.1000003815,0.0
1614971610365133047,,158723,,1614899582,939132999,"""0""",11.0,4.125,12.1000003815,0.0
1614971610406703948,,158724,,1614899582,988772738,"""0""",11.0,4.0,12.0500001907,0.0
1614971610557780981,,158725,,1614899583,38833780,"""0""",11.0,4.125,12.0500001907,0.0
1614971610557890892,,158726,,1614899583,88770499,"""0""",11.0,4.125,12.0500001907,0.0
1614971610557945013,,158727,,1614899583,138812842,"""0""",11.0,4.25,12.0500001907,0.0
1614971610557967901,,158728,,1614899583,188796332,"""0""",11.0,4.25,12.0500001907,0.0
1614971610667026042,,158729,,1614899583,238772009,"""0""",11.0,4.25,12.0500001907,0.0
1614971610667133092,,158730,,1614899583,288803571,"""0""",11.0,4.125,12.0500001907,0.0
1614971610717585086,,158731,,1614899583,338892790,"""0""",11.0,4.375,12.0500001907,0.0
1614971610770037889,,158732,,1614899583,388774144,"""0""",11.0,4.375,12.0500001907,0.0
1614971610830532073,,158733,,1614899583,438774248,"""0""",11.0,4.25,12.0500001907,0.0
1614971610871041059,,158734,,1614899583,489080759,"""0""",11.0,4.375,12.0500001907,0.0
1614971610910603046,,158735,,1614899583,538886280,"""0""",11.0,4.375,12.0500001907,0.0
1614971610967974901,,158736,,1614899583,588766696,"""0""",11.0,4.375,12.0500001907,0.0
1614971611041193008,,158737,,1614899583,638781957,"""0""",11.0,4.5,12.0,0.0
1614971611095849037,,158738,,1614899583,688823103,"""0""",11.0,4.5,12.0,0.0
1614971611135596990,,158739,,1614899583,738811852,"""0""",11.0,4.375,12.0,0.0
1614971611241892099,,158740,,1614899583,788743988,"""0""",11.0,4.375,12.0500001907,0.0
1614971611242049932,,158741,,1614899583,838766644,"""0""",11.0,4.5,12.0500001907,0.0
1614971611289657115,,158742,,1614899583,888831019,"""0""",11.0,4.5,12.0500001907,0.0
1614971611348577976,,158743,,1614899583,938827113,"""0""",11.0,4.5,12.0,0.0
1614971611387547969,,158744,,1614899583,988794300,"""0""",11.0,4.625,12.0,0.0
1614971611434201002,,158745,,1614899584,38776123,"""0""",11.0,4.25,12.0,0.0
1614971611473149061,,158746,,1614899584,88768727,"""0""",11.0,4.125,12.0500001907,0.0
1614971611512967109,,158747,,1614899584,138783727,"""0""",11.0,4.25,12.0500001907,0.0
1614971611565686941,,158748,,1614899584,188722946,"""0""",11.0,4.25,12.0500001907,0.0
1614971611617089033,,158749,,1614899584,238760759,"""0""",11.0,4.125,12.1000003815,0.0
1614971611656930923,,158750,,1614899584,288760498,"""0""",11.0,4.25,12.1000003815,0.0
1614971611708425045,,158751,,1614899584,338842634,"""0""",11.0,4.25,12.1000003815,0.0
1614971611767463922,,158752,,1614899584,388768519,"""0""",11.0,4.25,12.1000003815,0.0
1614971611819467067,,158753,,1614899584,438845811,"""0""",11.0,4.375,12.0500001907,0.0
1614971611873619079,,158754,,1614899584,488794665,"""0""",11.0,4.5,12.0500001907,0.0
1614971611936588048,,158755,,1614899584,538798519,"""0""",11.0,4.5,12.0500001907,0.0
1614971611978528976,,158756,,1614899584,588788988,"""0""",11.0,4.5,12.0,0.0
1614971612036180973,,158757,,1614899584,638811175,"""0""",11.0,4.375,12.0,0.0
1614971612081712961,,158758,,1614899584,688779873,"""0""",11.0,4.5,12.0,0.0
1614971612176342010,,158759,,1614899584,738877008,"""0""",11.0,4.5,12.0,0.0
1614971612176450014,,158760,,1614899584,788782737,"""0""",11.0,4.5,12.0,0.0
1614971612212449073,,158761,,1614899584,838789404,"""0""",11.0,4.375,12.0,0.0
1614971612266165971,,158762,,1614899584,888788519,"""0""",11.0,4.375,12.0500001907,0.0
1614971612314307928,,158763,,1614899584,938813831,"""0""",11.0,4.25,12.0500001907,0.0
1614971612368221998,,158764,,1614899584,988768258,"""0""",11.0,4.5,12.0500001907,0.0
1614971612465656042,,158765,,1614899585,38750185,"""0""",11.0,4.5,12.0500001907,0.0
1614971612518255949,,158766,,1614899585,88759092,"""0""",11.0,4.375,12.0500001907,0.0
1614971612554719924,,158767,,1614899585,138826696,"""0""",11.0,4.375,12.0500001907,0.0
1614971612593794107,,158768,,1614899585,188800654,"""0""",11.0,4.375,12.0500001907,0.0
1614971612675592899,,158769,,1614899585,238755862,"""0""",11.0,4.25,12.0500001907,0.0
1614971612802310943,,158770,,1614899585,288781644,"""0""",11.0,4.25,12.0500001907,0.0
1614971612802592992,,158771,,1614899585,338771019,"""0""",11.0,4.25,12.0500001907,0.0
1614971612802763938,,158772,,1614899585,388793987,"""0""",11.0,4.25,12.0500001907,0.0
1614971612922338962,,158773,,1614899585,438777841,"""0""",11.0,4.375,12.0500001907,0.0
1614971612922444105,,158774,,1614899585,488913935,"""0""",11.0,4.375,12.0500001907,0.0
1614971612922467947,,158775,,1614899585,538790914,"""0""",11.0,4.375,12.0500001907,0.0
1614971612960505962,,158776,,1614899585,588829560,"""0""",11.0,4.375,12.0500001907,0.0
1614971613021320104,,158777,,1614899585,638807581,"""0""",11.0,4.5,12.0500001907,0.0
1614971613065227031,,158778,,1614899585,688824091,"""0""",11.0,4.375,12.1000003815,0.0
1614971613124439001,,158779,,1614899585,738800498,"""0""",11.0,4.25,12.1000003815,0.0
1614971613161499977,,158780,,1614899585,788908623,"""0""",11.0,4.25,12.1000003815,0.0
1614971613226295948,,158781,,1614899585,838810029,"""0""",11.0,4.375,12.1000003815,0.0
1614971613282613992,,158782,,1614899585,888879404,"""0""",11.0,4.375,12.0,0.0
1614971613340128898,,158783,,1614899585,938840393,"""0""",11.0,4.125,12.0,0.0
1614971613377295017,,158784,,1614899585,988946435,"""0""",11.0,4.375,12.0,0.0
1614971613425559997,,158785,,1614899586,38768310,"""0""",11.0,4.625,12.0,0.0
1614971613483736038,,158786,,1614899586,88800914,"""0""",11.0,4.875,12.0,0.0
1614971613533720016,,158787,,1614899586,138783570,"""0""",11.0,4.625,12.0,0.0
1614971613579118013,,158788,,1614899586,188966852,"""0""",11.0,4.625,12.0500001907,0.0
1614971613634191036,,158789,,1614899586,238848779,"""0""",11.0,4.625,12.0500001907,0.0
1614971613674125909,,158790,,1614899586,288838935,"""0""",11.0,4.75,12.0500001907,0.0
1614971613727715015,,158791,,1614899586,338895654,"""0""",11.0,4.625,12.0,0.0
1614971613771806955,,158792,,1614899586,388880081,"""0""",11.0,4.75,12.0,0.0
1614971613817245006,,158793,,1614899586,438886904,"""0""",11.0,4.625,12.0,0.0
1614971613870750904,,158794,,1614899586,488914976,"""0""",11.0,4.5,12.0,0.0
1614971613964854955,,158795,,1614899586,538819091,"""0""",11.0,4.625,12.0,0.0
1614971614032638072,,158796,,1614899586,588908570,"""0""",11.0,4.5,12.0,0.0
1614971614032915115,,158797,,1614899586,639028414,"""0""",11.0,4.625,12.0,0.0
1614971614066020965,,158798,,1614899586,688849143,"""0""",11.0,4.5,12.0,0.0
1614971614122368097,,158799,,1614899586,738821695,"""0""",11.0,4.625,12.0,0.0
1614971614160612106,,158800,,1614899586,788892737,"""0""",11.0,4.625,12.0,0.0
1614971614213871002,,158801,,1614899586,838785289,"""0""",11.0,4.5,12.0,0.0
1614971614282392978,,158802,,1614899586,888841539,"""0""",11.0,4.375,12.0,0.0
1614971614326632022,,158803,,1614899586,939037424,"""0""",11.0,4.25,12.0,0.0
1614971614366513967,,158804,,1614899586,988833622,"""0""",11.0,4.125,12.0500001907,0.0
1614971614422023057,,158805,,1614899587,38769507,"""0""",11.0,4.25,12.0500001907,0.0
1614971614465225934,,158806,,1614899587,88886018,"""0""",11.0,4.375,12.0500001907,0.0
1614971614591242074,,158807,,1614899587,138771955,"""0""",11.0,4.25,12.0500001907,0.0
1614971614591346025,,158808,,1614899587,188959351,"""0""",11.0,4.125,12.0500001907,0.0
1614971614617773056,,158809,,1614899587,238777476,"""0""",11.0,4.125,12.0500001907,0.0
1614971614664169073,,158810,,1614899587,288869247,"""0""",11.0,4.125,12.0500001907,0.0
1614971614717540979,,158811,,1614899587,338796330,"""0""",11.0,4.25,12.0500001907,0.0
1614971614766644001,,158812,,1614899587,388860080,"""0""",11.0,4.25,12.0500001907,0.0
1614971614827158927,,158813,,1614899587,438778257,"""0""",11.0,4.25,12.0500001907,0.0
1614971614865456104,,158814,,1614899587,488827528,"""0""",11.0,4.375,12.0500001907,0.0
1614971614921247005,,158815,,1614899587,538764455,"""0""",11.0,4.375,12.0500001907,0.0
1614971614976317882,,158816,,1614899587,588781903,"""0""",11.0,4.375,12.0500001907,0.0
1614971615042850017,,158817,,1614899587,638775184,"""0""",11.0,4.375,12.0500001907,0.0
1614971615135747909,,158818,,1614899587,688866955,"""0""",11.0,4.5,12.0500001907,0.0
1614971615136007070,,158819,,1614899587,738785913,"""0""",11.0,4.625,12.0500001907,0.0
1614971615167865991,,158820,,1614899587,788840445,"""0""",11.0,4.5,12.0,0.0
1614971615225919008,,158821,,1614899587,839101122,"""0""",11.0,4.625,12.0,0.0
1614971615271836996,,158822,,1614899587,888765028,"""0""",11.0,4.5,12.0,0.0
1614971615319060087,,158823,,1614899587,938795340,"""0""",11.0,4.75,12.0500001907,0.0
1614971615363502025,,158824,,1614899587,989728986,"""0""",11.0,4.875,12.0500001907,0.0
1614971615431469917,,158825,,1614899588,38778934,"""0""",11.0,4.875,12.0500001907,0.0
1614971615479511022,,158826,,1614899588,90312528,"""0""",11.0,4.75,11.8999996185,0.0
1614971615532594919,,158827,,1614899588,138846122,"""0""",11.0,5.375,11.8999996185,0.0
1614971615578229904,,158828,,1614899588,188788674,"""0""",11.0,5.375,11.8999996185,0.0
1614971615674011945,,158829,,1614899588,238756642,"""0""",11.0,4.5,12.0,0.0
1614971615757096052,,158830,,1614899588,288748726,"""0""",11.0,4.5,12.0,0.0
1614971615757343053,,158831,,1614899588,338796122,"""0""",11.0,4.75,12.0,0.0
1614971615802381038,,158832,,1614899588,389089194,"""0""",11.0,4.75,12.0,0.0
1614971615840013027,,158833,,1614899588,439094090,"""0""",11.0,4.75,12.0,0.0
1614971615878091096,,158834,,1614899588,488869351,"""0""",11.0,4.5,12.0,0.0
1614971615925179958,,158835,,1614899588,538791174,"""0""",11.0,4.375,12.0,0.0
1614971615967103958,,158836,,1614899588,588904507,"""0""",11.0,4.25,12.0,0.0
1614971616028759956,,158837,,1614899588,638820340,"""0""",11.0,4.5,12.0,0.0
1614971616083009958,,158838,,1614899588,688841330,"""0""",11.0,4.25,12.0,0.0
1614971616133141994,,158839,,1614899588,738763934,"""0""",11.0,4.125,12.0500001907,0.0
1614971616195698022,,158840,,1614899588,788813153,"""0""",11.0,4.125,12.0500001907,0.0
1614971616232562065,,158841,,1614899588,838932423,"""0""",11.0,4.125,12.0500001907,0.0
1614971616270526885,,158842,,1614899588,889128726,"""0""",11.0,4.0,12.1000003815,0.0
1614971616322721958,,158843,,1614899588,939034194,"""0""",11.0,4.0,12.1000003815,0.0
1614971616392193078,,158844,,1614899588,989223986,"""0""",11.0,3.875,12.1000003815,0.0
1614971616448136091,,158845,,1614899589,38806642,"""0""",11.0,3.0,12.1000003815,0.0
1614971616488889932,,158846,,1614899589,89204715,"""0""",11.0,2.375,12.1000003815,0.0
1614971616530978918,,158847,,1614899589,138802371,"""0""",11.0,2.75,12.1000003815,0.0
1614971616590532064,,158848,,1614899589,188813986,"""0""",11.0,3.0,12.1000003815,0.0
1614971616660768985,,158849,,1614899589,238816017,"""0""",11.0,2.0,12.1000003815,0.0
1614971616699265003,,158850,,1614899589,288911382,"""0""",11.0,1.375,12.1000003815,0.0
1614971616742846012,,158851,,1614899589,338848309,"""0""",11.0,1.0,12.1000003815,0.0
1614971616786911964,,158852,,1614899589,388959819,"""0""",11.0,0.625,12.1999998093,0.0
1614971616839502096,,158853,,1614899589,438794715,"""0""",11.0,0.375,12.1999998093,0.0
1614971616879465103,,158854,,1614899589,488780913,"""0""",11.0,0.375,12.1999998093,0.0
1614971616942167997,,158855,,1614899589,538777944,"""0""",11.0,0.0,12.25,0.0
1614971616989772081,,158856,,1614899589,588853100,"""0""",11.0,0.0,12.25,0.0
1614971617027641057,,158857,,1614899589,638775444,"""0""",11.0,0.0,12.25,0.0
1614971617078558921,,158858,,1614899589,688845600,"""0""",11.0,0.375,12.25,0.0
1614971617127178907,,158859,,1614899589,738827579,"""0""",11.0,0.0,12.25,0.0
1614971617184992074,,158860,,1614899589,788776746,"""0""",11.0,0.0,12.25,0.0
1614971617261945009,,158861,,1614899589,838814558,"""0""",11.0,0.0,12.25,0.0
1614971617299359083,,158862,,1614899589,888826590,"""0""",11.0,0.0,12.3000001907,0.0
1614971617336802959,,158863,,1614899589,938771381,"""0""",11.0,0.375,12.3000001907,0.0
1614971617371068000,,158864,,1614899589,988891433,"""0""",11.0,0.375,12.3000001907,0.0
1614971617446429014,,158865,,1614899590,38818725,"""0""",11.0,0.375,12.1999998093,0.0
1614971617483498096,,158866,,1614899590,88894246,"""0""",11.0,0.375,12.1999998093,0.0
1614971617554418087,,158867,,1614899590,138817996,"""0""",11.0,1.0,12.1999998093,0.0
1614971617625802040,,158868,,1614899590,188835965,"""0""",11.0,3.875,12.1000003815,0.0
1614971617625920057,,158869,,1614899590,238785131,"""0""",11.0,2.75,12.1000003815,0.0
1614971617681153059,,158870,,1614899590,288797475,"""0""",11.0,1.75,12.1000003815,0.0
1614971617729347944,,158871,,1614899590,338825860,"""0""",11.0,2.375,12.1499996185,0.0
1614971617789865016,,158872,,1614899590,388811381,"""0""",11.0,2.0,12.1499996185,0.0
1614971617853271007,,158873,,1614899590,438765756,"""0""",11.0,1.375,12.1499996185,0.0
1614971617895222902,,158874,,1614899590,488817006,"""0""",11.0,2.0,12.1499996185,0.0
1614971617942554950,,158875,,1614899590,538776642,"""0""",11.0,1.75,12.1499996185,0.0
1614971617995372056,,158876,,1614899590,588776850,"""0""",11.0,1.0,12.1499996185,0.0
1614971618033457040,,158877,,1614899590,638744194,"""0""",11.0,0.375,12.1499996185,0.0
1614971618088502883,,158878,,1614899590,688779871,"""0""",11.0,0.625,12.25,0.0
1614971618171761989,,158879,,1614899590,738776954,"""0""",11.0,0.625,12.25,0.0
1614971618203074932,,158880,,1614899590,790227006,"""0""",11.0,0.375,12.25,0.0
1614971618255101919,,158881,,1614899590,838816589,"""0""",11.0,1.375,12.25,0.0
1614971618301666021,,158882,,1614899590,888827631,"""0""",11.0,2.0,12.25,0.0
1614971618356651067,,158883,,1614899590,938787891,"""0""",11.0,1.375,12.25,0.0
1614971618442002058,,158884,,1614899590,988799871,"""0""",11.0,1.0,12.1999998093,0.0
1614971618442109107,,158885,,1614899591,38792162,"""0""",11.0,1.0,12.1999998093,0.0
1614971618509710073,,158886,,1614899591,88781225,"""0""",11.0,1.375,12.1999998093,0.0
1614971618558763027,,158887,,1614899591,138905860,"""0""",11.0,0.625,12.1999998093,0.0
1614971618597013950,,158888,,1614899591,188777110,"""0""",11.0,1.0,12.1999998093,0.0
1614971618625019073,,158889,,1614899591,238831433,"""0""",11.0,0.625,12.1999998093,0.0
1614971618674108982,,158890,,1614899591,288861798,"""0""",11.0,2.75,12.1000003815,0.0
1614971618774405956,,158891,,1614899591,338805027,"""0""",11.0,3.75,12.1000003815,0.0
1614971618774517059,,158892,,1614899591,388777631,"""0""",11.0,2.0,12.1000003815,0.0
1614971618825637102,,158893,,1614899591,438806797,"""0""",12.0,0.625,12.1999998093,0.0
1614971618870933055,,158894,,1614899591,488788516,"""0""",12.0,0.375,12.1999998093,0.0
1614971618915713071,,158895,,1614899591,538771641,"""0""",12.0,2.0,12.1999998093,0.0
1614971618969573020,,158896,,1614899591,588789922,"""0""",12.0,3.0,12.1999998093,0.0
1614971619016813993,,158897,,1614899591,638826329,"""0""",11.0,1.0,12.1999998093,0.0
1614971619066905975,,158898,,1614899591,688787162,"""0""",11.0,0.625,12.1999998093,0.0
1614971619116813898,,158899,,1614899591,738813568,"""0""",11.0,0.375,12.1999998093,0.0
1614971619170507907,,158900,,1614899591,788812995,"""0""",11.0,0.625,12.25,0.0
1614971619214867115,,158901,,1614899591,838922214,"""0""",11.0,0.625,12.25,0.0
1614971619278116941,,158902,,1614899591,888796172,"""0""",11.0,0.375,12.25,0.0
1614971619358426094,,158903,,1614899591,938757058,"""0""",11.0,0.625,12.1999998093,0.0
1614971619418282032,,158904,,1614899591,988792735,"""0""",11.0,2.375,12.1999998093,0.0
1614971619469887971,,158905,,1614899592,38797370,"""0""",11.0,2.75,12.1999998093,0.0
1614971619506458997,,158906,,1614899592,89054714,"""0""",11.0,1.375,12.1999998093,0.0
1614971619585841894,,158907,,1614899592,138917735,"""0""",11.0,2.375,12.1999998093,0.0
1614971619585956096,,158908,,1614899592,189004245,"""0""",11.0,3.375,12.1999998093,0.0
1614971619654426097,,158909,,1614899592,238787839,"""0""",12.0,2.75,12.1499996185,0.0
1614971619736229896,,158910,,1614899592,288781537,"""0""",12.0,2.375,12.1499996185,0.0
1614971619736709117,,158911,,1614899592,338783151,"""0""",12.0,3.0,12.1499996185,0.0
1614971619786127090,,158912,,1614899592,388815078,"""0""",12.0,2.0,12.1499996185,0.0
1614971619830960035,,158913,,1614899592,438967578,"""0""",11.0,2.375,12.1499996185,0.0
1614971619873269081,,158914,,1614899592,488890495,"""0""",11.0,3.75,12.1499996185,0.0
1614971619934783935,,158915,,1614899592,538783620,"""0""",11.0,3.375,12.1499996185,0.0
1614971619987921953,,158916,,1614899592,588777995,"""0""",11.0,2.0,12.1999998093,0.0
1614971620033220052,,158917,,1614899592,638957526,"""0""",11.0,0.625,12.1999998093,0.0
1614971620079859018,,158918,,1614899592,688865182,"""0""",11.0,1.375,12.1999998093,0.0
1614971620115041017,,158919,,1614899592,738781797,"""0""",11.0,1.75,12.1999998093,0.0
1614971620161930084,,158920,,1614899592,788782891,"""0""",11.0,1.0,12.1999998093,0.0
1614971620223604917,,158921,,1614899592,838836797,"""0""",11.0,0.625,12.1999998093,0.0
1614971620264725923,,158922,,1614899592,888877682,"""0""",11.0,0.625,12.1999998093,0.0
1614971620323913097,,158923,,1614899592,938795807,"""0""",11.0,2.375,12.1999998093,0.0
1614971620372812986,,158924,,1614899592,989623880,"""0""",11.0,1.375,12.1999998093,0.0
1614971620434554100,,158925,,1614899593,38784974,"""0""",11.0,0.625,12.1999998093,0.0
1614971620475529909,,158926,,1614899593,88819922,"""0""",11.0,0.625,12.25,0.0
1614971620556829929,,158927,,1614899593,138774141,"""0""",11.0,0.625,12.25,0.0
1614971620634171009,,158928,,1614899593,188933776,"""0""",11.0,1.0,12.25,0.0
1614971620634284019,,158929,,1614899593,238794974,"""0""",11.0,0.625,12.25,0.0
1614971620673667907,,158930,,1614899593,288905911,"""0""",11.0,4.125,12.25,0.0
1614971620735768079,,158931,,1614899593,338780338,"""0""",11.0,4.5,12.25,0.0
1614971620800111055,,158932,,1614899593,388818047,"""0""",11.0,4.375,12.0,0.0
1614971620882616043,,158933,,1614899593,438760651,"""0""",11.0,3.875,12.0,0.0
1614971620882791996,,158934,,1614899593,488844245,"""0""",11.0,4.375,12.0,0.0
1614971620932523012,,158935,,1614899593,538813776,"""0""",11.0,5.25,12.0,0.0
1614971620980439901,,158936,,1614899593,588792630,"""0""",11.0,5.25,12.0,0.0
1614971621023310899,,158937,,1614899593,638905911,"""0""",11.0,5.5,12.0,0.0
1614971621062463998,,158938,,1614899593,688771849,"""0""",11.0,5.875,11.8999996185,0.0
1614971621124131917,,158939,,1614899593,738795859,"""0""",11.0,6.125,11.8999996185,0.0
1614971621188294887,,158940,,1614899593,788780494,"""0""",11.0,5.875,11.8999996185,0.0
1614971621233269929,,158941,,1614899593,838789661,"""0""",11.0,6.125,11.8999996185,0.0
1614971621266272068,,158942,,1614899593,888772838,"""0""",11.0,6.125,11.8000001907,0.0
1614971621319128990,,158943,,1614899593,938796380,"""0""",11.0,5.5,11.8000001907,0.0
1614971621370743989,,158944,,1614899593,988836432,"""0""",11.0,5.75,11.8000001907,0.0
1614971621444356918,,158945,,1614899594,38781276,"""0""",11.0,5.5,11.8999996185,0.0
1614971621495513916,,158946,,1614899594,88833567,"""0""",11.0,5.5,11.8999996185,0.0
1614971621534316062,,158947,,1614899594,138909974,"""0""",11.0,5.75,11.8999996185,0.0
1614971621579516887,,158948,,1614899594,188803723,"""0""",11.0,5.625,11.8999996185,0.0
1614971621618606090,,158949,,1614899594,238867630,"""0""",11.0,6.0,11.8999996185,0.0
1614971621670617103,,158950,,1614899594,288794244,"""0""",11.0,6.0,11.8999996185,0.0
1614971621735497951,,158951,,1614899594,338897213,"""0""",11.0,6.125,11.8500003815,0.0
1614971621782072067,,158952,,1614899594,388796328,"""0""",11.0,6.375,11.8500003815,0.0
1614971621825814008,,158953,,1614899594,438798098,"""0""",11.0,6.25,11.8500003815,0.0
1614971621878578901,,158954,,1614899594,488775963,"""0""",11.0,6.375,11.75,0.0
1614971621918725013,,158955,,1614899594,538798932,"""0""",11.0,6.875,11.75,0.0
1614971621969937086,,158956,,1614899594,588828671,"""0""",11.0,6.75,11.75,0.0
1614971622025321006,,158957,,1614899594,638766900,"""0""",11.0,6.75,11.8500003815,0.0
1614971622101963996,,158958,,1614899594,688799244,"""0""",11.0,6.75,11.8500003815,0.0
1614971622147006034,,158959,,1614899594,738792265,"""0""",11.0,6.375,11.8500003815,0.0
1614971622189513921,,158960,,1614899594,788813098,"""0""",11.0,6.375,11.8500003815,0.0
1614971622232100009,,158961,,1614899594,838917109,"""0""",11.0,6.125,11.8000001907,0.0
1614971622270766019,,158962,,1614899594,888847994,"""0""",11.0,6.25,11.8000001907,0.0
1614971622343204975,,158963,,1614899594,938828046,"""0""",11.0,6.375,11.8000001907,0.0
1614971622420298099,,158964,,1614899594,988932577,"""0""",11.0,6.125,11.8999996185,0.0
1614971622464457035,,158965,,1614899595,38821952,"""0""",11.0,6.25,11.8999996185,0.0
1614971622501239061,,158966,,1614899595,88861431,"""0""",11.0,6.125,11.8999996185,0.0
1614971622548932075,,158967,,1614899595,138912681,"""0""",11.0,5.625,12.0,0.0
1614971622594269037,,158968,,1614899595,188827786,"""0""",11.0,5.375,12.0,0.0
1614971622654583930,,158969,,1614899595,240200806,"""0""",11.0,4.25,12.0,0.0
1614971622726037025,,158970,,1614899595,288779921,"""0""",11.0,4.25,12.0,0.0
1614971622726150035,,158971,,1614899595,338785650,"""0""",11.0,6.75,12.0,0.0
1614971622772578954,,158972,,1614899595,388784556,"""0""",11.0,5.25,12.0,0.0
1614971622824122905,,158973,,1614899595,439368150,"""0""",11.0,4.0,12.1000003815,0.0
1614971622868201971,,158974,,1614899595,488816848,"""0""",11.0,3.875,12.1000003815,0.0
1614971622959697008,,158975,,1614899595,538855442,"""0""",11.0,4.125,12.1000003815,0.0
1614971623004462003,,158976,,1614899595,588782785,"""0""",11.0,3.875,12.1000003815,0.0
1614971623042119026,,158977,,1614899595,638771692,"""0""",11.0,2.75,12.1000003815,0.0
1614971623101473093,,158978,,1614899595,688769088,"""0""",11.0,0.625,12.1000003815,0.0
1614971623139497995,,158979,,1614899595,738840077,"""0""",11.0,0.375,12.1000003815,0.0
1614971623172790050,,158980,,1614899595,788807369,"""0""",11.0,0.375,12.25,0.0
1614971623226057052,,158981,,1614899595,841555546,"""0""",11.0,0.0,12.25,0.0
1614971623262563943,,158982,,1614899595,888772890,"""0""",11.0,0.0,12.25,0.0
1614971623319076061,,158983,,1614899595,938751171,"""0""",11.0,0.0,12.3500003815,0.0
1614971623366015911,,158984,,1614899595,988787942,"""0""",11.0,0.0,12.3500003815,0.0
1614971623416461944,,158985,,1614899596,38769660,"""0""",11.0,0.0,12.3500003815,0.0
1614971623474714994,,158986,,1614899596,88767733,"""0""",11.0,0.0,12.3999996185,0.0
1614971623547657012,,158987,,1614899596,138781796,"""0""",11.0,0.0,12.3999996185,0.0
1614971623599472045,,158988,,1614899596,188840181,"""0""",11.0,0.0,12.3999996185,0.0
1614971623643709897,,158989,,1614899596,238765806,"""0""",11.0,0.0,12.3999996185,0.0
1614971623688159942,,158990,,1614899596,288791535,"""0""",11.0,0.0,12.3999996185,0.0
1614971623734463930,,158991,,1614899596,338779348,"""0""",11.0,0.0,12.3999996185,0.0
1614971623784095048,,158992,,1614899596,388786639,"""0""",11.0,0.0,12.3999996185,0.0
1614971623861778974,,158993,,1614899596,438798723,"""0""",11.0,0.0,12.3500003815,0.0
1614971623891989946,,158994,,1614899596,488765910,"""0""",11.0,0.0,12.3500003815,0.0
1614971623951090097,,158995,,1614899596,538775285,"""0""",11.0,0.0,12.3500003815,0.0
1614971623991358995,,158996,,1614899596,588790181,"""0""",11.0,0.0,12.3000001907,0.0
1614971624027523040,,158997,,1614899596,638778514,"""0""",11.0,0.0,12.3000001907,0.0
1614971624144184112,,158998,,1614899596,688772368,"""0""",11.0,0.0,12.3000001907,0.0
1614971624144296884,,158999,,1614899596,738754295,"""0""",11.0,0.625,12.25,0.0
1614971624183090925,,159000,,1614899596,788785441,"""0""",11.0,1.0,12.25,0.0
1614971624296076059,,159001,,1614899596,838819556,"""0""",11.0,0.625,12.25,0.0
1614971624296195030,,159002,,1614899596,888814504,"""0""",11.0,1.375,12.1999998093,0.0
1614971624470236063,,159003,,1614899596,938775650,"""0""",11.0,0.625,12.1999998093,0.0
1614971624470393896,,159004,,1614899596,988769972,"""0""",11.0,2.375,12.1999998093,0.0
1614971624470447063,,159005,,1614899597,38760702,"""0""",11.0,2.75,12.1499996185,0.0
1614971624470468997,,159006,,1614899597,88800806,"""0""",11.0,3.875,12.1499996185,0.0
1614971624527075052,,159007,,1614899597,138806118,"""0""",11.0,2.0,12.1499996185,0.0
1614971624609466075,,159008,,1614899597,188865077,"""0""",11.0,2.0,12.1499996185,0.0
1614971624644615888,,159009,,1614899597,238900181,"""0""",11.0,1.375,12.1499996185,0.0
1614971624692589044,,159010,,1614899597,288948670,"""0""",11.0,1.0,12.1499996185,0.0
1614971624773765087,,159011,,1614899597,338810649,"""0""",11.0,1.0,12.1499996185,0.0
1614971624773921966,,159012,,1614899597,388802108,"""0""",11.0,1.0,12.1999998093,0.0
1614971624819149017,,159013,,1614899597,438819868,"""0""",11.0,1.75,12.1999998093,0.0
1614971624870846986,,159014,,1614899597,488796326,"""0""",11.0,1.375,12.1999998093,0.0
1614971624922874927,,159015,,1614899597,538829868,"""0""",11.0,1.375,12.1999998093,0.0
1614971624966378927,,159016,,1614899597,588771587,"""0""",11.0,1.0,12.1999998093,0.0
1614971625023186922,,159017,,1614899597,638803931,"""0""",11.0,3.875,12.1999998093,0.0
1614971625066076040,,159018,,1614899597,688859816,"""0""",11.0,4.125,12.0,0.0
1614971625120906114,,159019,,1614899597,738785805,"""0""",11.0,4.5,12.0,0.0
1614971625178396940,,159020,,1614899597,788819087,"""0""",11.0,4.75,12.0,0.0
1614971625237190961,,159021,,1614899597,838772160,"""0""",11.0,5.5,12.0,0.0
1614971625288974046,,159022,,1614899597,888805701,"""0""",11.0,5.75,12.0,0.0
1614971625339679956,,159023,,1614899597,938788878,"""0""",11.0,5.875,12.0,0.0
1614971625580547094,,159024,,1614899597,988781378,"""0""",11.0,6.0,12.0,0.0
1614971625580646991,,159025,,1614899598,38774451,"""0""",11.0,6.375,11.8999996185,0.0
1614971625580672979,,159026,,1614899598,88807837,"""0""",11.0,6.375,11.8999996185,0.0
1614971625580790042,,159027,,1614899598,138774034,"""0""",11.0,6.5,11.8999996185,0.0
1614971625580817937,,159028,,1614899598,188746534,"""0""",11.0,6.75,11.8500003815,0.0
1614971625672532081,,159029,,1614899598,238829347,"""0""",11.0,6.5,11.8500003815,0.0
1614971625734833955,,159030,,1614899598,288774347,"""0""",11.0,6.625,11.8500003815,0.0
1614971625735028982,,159031,,1614899598,338771066,"""0""",11.0,6.875,11.8500003815,0.0
1614971625824218988,,159032,,1614899598,388794139,"""0""",11.0,6.375,11.8500003815,0.0
1614971625824352025,,159033,,1614899598,439071222,"""0""",11.0,6.25,11.8500003815,0.0
1614971625894371032,,159034,,1614899598,488942993,"""0""",11.0,6.25,11.8999996185,0.0
1614971625960429906,,159035,,1614899598,538756639,"""0""",11.0,6.125,11.8999996185,0.0
1614971626004275083,,159036,,1614899598,588890753,"""0""",11.0,6.125,11.8999996185,0.0
1614971626052197933,,159037,,1614899598,639099555,"""0""",11.0,5.875,11.8999996185,0.0
1614971626093334913,,159038,,1614899598,688792420,"""0""",11.0,5.875,11.8999996185,0.0
1614971626194426059,,159039,,1614899598,738788774,"""0""",11.0,5.75,11.8999996185,0.0
1614971626194541931,,159040,,1614899598,788784972,"""0""",11.0,5.5,11.8999996185,0.0
1614971626255459070,,159041,,1614899598,838797003,"""0""",11.0,5.625,11.9499998093,0.0
