rosbagTimestamp,header,seq,stamp,secs,nsecs,frame_id,Temperature,OutputCurrent,BusVoltage,ClosedLoopError
1614967778959887027,,82105,,1614895752,38797689,"""0""",12.0,0.0,12.3999996185,0.0
1614967779025196075,,82106,,1614895752,88758835,"""0""",12.0,0.0,12.3999996185,0.0
1614967779068458080,,82107,,1614895752,138855397,"""0""",12.0,0.0,12.3999996185,0.0
1614967779120338916,,82108,,1614895752,188760241,"""0""",12.0,0.0,12.3999996185,0.0
1614967779159125089,,82109,,1614895752,238936283,"""0""",12.0,0.0,12.3999996185,0.0
1614967779219453096,,82110,,1614895752,288838158,"""0""",12.0,0.0,12.3999996185,0.0
1614967779269572973,,82111,,1614895752,338799929,"""0""",12.0,0.0,12.3999996185,0.0
1614967779324765920,,82112,,1614895752,388767272,"""0""",12.0,0.0,12.3999996185,0.0
1614967779364156007,,82113,,1614895752,438897949,"""0""",12.0,0.0,12.3999996185,0.0
1614967779419689893,,82114,,1614895752,488769876,"""0""",12.0,0.0,12.3999996185,0.0
1614967779463566064,,82115,,1614895752,538856595,"""0""",12.0,0.0,12.3999996185,0.0
1614967779524473905,,82116,,1614895752,588770293,"""0""",12.0,0.0,12.3999996185,0.0
1614967779569873094,,82117,,1614895752,638838731,"""0""",12.0,0.0,12.3999996185,0.0
1614967779630547046,,82118,,1614895752,688767116,"""0""",12.0,0.0,12.3999996185,0.0
1614967779673418998,,82119,,1614895752,738802064,"""0""",12.0,0.0,12.3999996185,0.0
1614967779721277952,,82120,,1614895752,788874928,"""0""",12.0,0.0,12.3999996185,0.0
1614967779765830993,,82121,,1614895752,838776960,"""0""",12.0,0.0,12.3999996185,0.0
1614967779824352979,,82122,,1614895752,888843783,"""0""",12.0,0.0,12.3999996185,0.0
1614967779871356010,,82123,,1614895752,938856647,"""0""",12.0,0.0,12.3999996185,0.0
1614967779927274942,,82124,,1614895752,988786543,"""0""",12.0,0.0,12.3999996185,0.0
1614967779993309020,,82125,,1614895753,38880866,"""0""",12.0,0.0,12.3999996185,0.0
1614967780024912118,,82126,,1614895753,88751699,"""0""",12.0,0.0,12.3999996185,0.0
1614967780071692943,,82127,,1614895753,138876126,"""0""",12.0,0.0,12.3999996185,0.0
1614967780116571903,,82128,,1614895753,188797689,"""0""",12.0,0.0,12.3999996185,0.0
1614967780171886920,,82129,,1614895753,238787376,"""0""",12.0,0.0,12.3999996185,0.0
1614967780229034900,,82130,,1614895753,288803991,"""0""",12.0,0.0,12.3999996185,0.0
1614967780275897979,,82131,,1614895753,338798366,"""0""",12.0,0.0,12.3999996185,0.0
1614967780333331108,,82132,,1614895753,388770866,"""0""",12.0,0.0,12.3999996185,0.0
1614967780370702981,,82133,,1614895753,438914876,"""0""",12.0,0.0,12.3999996185,0.0
1614967780426618099,,82134,,1614895753,488779095,"""0""",12.0,0.0,12.3999996185,0.0
1614967780469724893,,82135,,1614895753,538852637,"""0""",12.0,0.0,12.3999996185,0.0
1614967780531074047,,82136,,1614895753,588774095,"""0""",12.0,0.0,12.3999996185,0.0
1614967780571624040,,82137,,1614895753,638802897,"""0""",12.0,0.0,12.3999996185,0.0
1614967780633120059,,82138,,1614895753,688780970,"""0""",12.0,0.0,12.3999996185,0.0
1614967780679795026,,82139,,1614895753,738950032,"""0""",12.0,0.0,12.3999996185,0.0
1614967780732341051,,82140,,1614895753,788784772,"""0""",12.0,0.0,12.3999996185,0.0
1614967780776315927,,82141,,1614895753,838791907,"""0""",12.0,0.0,12.3999996185,0.0
1614967780831676006,,82142,,1614895753,888739459,"""0""",12.0,0.0,12.3999996185,0.0
1614967780872772932,,82143,,1614895753,938826334,"""0""",12.0,0.0,12.3999996185,0.0
1614967780926772117,,82144,,1614895753,988774824,"""0""",12.0,0.0,12.3999996185,0.0
1614967780978235006,,82145,,1614895754,38810970,"""0""",12.0,0.0,12.3999996185,0.0
1614967781032500028,,82146,,1614895754,88777168,"""0""",12.0,0.0,12.3999996185,0.0
1614967781072864055,,82147,,1614895754,138800918,"""0""",12.0,0.0,12.3999996185,0.0
1614967781125406980,,82148,,1614895754,188775293,"""0""",12.0,0.0,12.3999996185,0.0
1614967781171998977,,82149,,1614895754,238805449,"""0""",12.0,0.0,12.3999996185,0.0
1614967781227355957,,82150,,1614895754,288755970,"""0""",12.0,0.0,12.3999996185,0.0
1614967781273614883,,82151,,1614895754,338843834,"""0""",12.0,0.0,12.3999996185,0.0
1614967781328398942,,82152,,1614895754,388843574,"""0""",12.0,0.0,12.3999996185,0.0
1614967781377037048,,82153,,1614895754,438798834,"""0""",12.0,0.0,12.3999996185,0.0
1614967781431607007,,82154,,1614895754,488769251,"""0""",12.0,0.0,12.3999996185,0.0
1614967781488981008,,82155,,1614895754,538892272,"""0""",12.0,0.0,12.3999996185,0.0
1614967781530611038,,82156,,1614895754,588808938,"""0""",12.0,0.0,12.3999996185,0.0
1614967781577436923,,82157,,1614895754,638861594,"""0""",12.0,0.0,12.3999996185,0.0
1614967781633919954,,82158,,1614895754,688825449,"""0""",12.0,0.0,12.3999996185,0.0
1614967781676758050,,82159,,1614895754,739330240,"""0""",12.0,0.0,12.3999996185,0.0
1614967781734996080,,82160,,1614895754,788831386,"""0""",12.0,0.0,12.3999996185,0.0
1614967781796585083,,82161,,1614895754,838893574,"""0""",12.0,0.0,12.3999996185,0.0
1614967781830637931,,82162,,1614895754,888793886,"""0""",12.0,0.0,12.3999996185,0.0
1614967781874201059,,82163,,1614895754,938894719,"""0""",12.0,0.0,12.3999996185,0.0
1614967781931719064,,82164,,1614895754,988809355,"""0""",12.0,0.0,12.3999996185,0.0
1614967781975532054,,82165,,1614895755,38798261,"""0""",12.0,0.0,12.3999996185,0.0
1614967782033605098,,82166,,1614895755,88804355,"""0""",12.0,0.0,12.3999996185,0.0
1614967782084791898,,82167,,1614895755,138874928,"""0""",12.0,0.0,12.3999996185,0.0
1614967782141678094,,82168,,1614895755,188769407,"""0""",12.0,0.0,12.3999996185,0.0
1614967782171086072,,82169,,1614895755,238859355,"""0""",12.0,0.0,12.3999996185,0.0
1614967782231344938,,82170,,1614895755,288881334,"""0""",12.0,0.0,12.3999996185,0.0
1614967782275228023,,82171,,1614895755,338851802,"""0""",12.0,0.0,12.3999996185,0.0
1614967782343612909,,82172,,1614895755,388847011,"""0""",12.0,0.0,12.3999996185,0.0
1614967782372806072,,82173,,1614895755,438798730,"""0""",12.0,0.0,12.3999996185,0.0
1614967782429404973,,82174,,1614895755,488818417,"""0""",12.0,0.0,12.3999996185,0.0
1614967782477060079,,82175,,1614895755,538828729,"""0""",12.0,0.0,12.3999996185,0.0
1614967782531852006,,82176,,1614895755,588773521,"""0""",12.0,0.0,12.3999996185,0.0
1614967782576508045,,82177,,1614895755,638918573,"""0""",12.0,0.0,12.3999996185,0.0
1614967782629818916,,82178,,1614895755,688824354,"""0""",12.0,0.0,12.3999996185,0.0
1614967782676656961,,82179,,1614895755,738794302,"""0""",12.0,0.0,12.3999996185,0.0
1614967782729284048,,82180,,1614895755,788780448,"""0""",12.0,0.0,12.3999996185,0.0
1614967782775690078,,82181,,1614895755,838772844,"""0""",12.0,0.0,12.3999996185,0.0
1614967782830101013,,82182,,1614895755,888868625,"""0""",12.0,0.0,12.3999996185,0.0
1614967782875708103,,82183,,1614895755,938883052,"""0""",12.0,0.0,12.3999996185,0.0
1614967782931459903,,82184,,1614895755,988763261,"""0""",12.0,0.0,12.3999996185,0.0
1614967782975380897,,82185,,1614895756,38786906,"""0""",12.0,0.0,12.3999996185,0.0
1614967783031908035,,82186,,1614895756,88771490,"""0""",12.0,0.0,12.3999996185,0.0
1614967783080823898,,82187,,1614895756,138854823,"""0""",12.0,0.0,12.3999996185,0.0
1614967783132772922,,82188,,1614895756,188797219,"""0""",12.0,0.0,12.3999996185,0.0
1614967783177050113,,82189,,1614895756,238805240,"""0""",12.0,0.0,12.3999996185,0.0
1614967783225562095,,82190,,1614895756,288853417,"""0""",12.0,0.0,12.3999996185,0.0
1614967783276746988,,82191,,1614895756,338787010,"""0""",12.0,0.0,12.3999996185,0.0
1614967783363635063,,82192,,1614895756,388786438,"""0""",12.0,0.0,12.3999996185,0.0
1614967783363857984,,82193,,1614895756,438795812,"""0""",12.0,0.0,12.3999996185,0.0
1614967783432149887,,82194,,1614895756,488811750,"""0""",12.0,0.0,12.3999996185,0.0
1614967783477598905,,82195,,1614895756,540098677,"""0""",12.0,0.0,12.3999996185,0.0
1614967783532284975,,82196,,1614895756,588779875,"""0""",12.0,0.0,12.3999996185,0.0
1614967783573314905,,82197,,1614895756,638794198,"""0""",12.0,0.0,12.3999996185,0.0
1614967783630269050,,82198,,1614895756,688782896,"""0""",12.0,0.0,12.3999996185,0.0
1614967783674000024,,82199,,1614895756,738874406,"""0""",12.0,0.0,12.3999996185,0.0
1614967783734816074,,82200,,1614895756,788771646,"""0""",12.0,0.0,12.3999996185,0.0
1614967783775485992,,82201,,1614895756,838801073,"""0""",12.0,0.0,12.3999996185,0.0
1614967783832285881,,82202,,1614895756,888756125,"""0""",12.0,0.0,12.3999996185,0.0
1614967783891843080,,82203,,1614895756,938835604,"""0""",12.0,0.0,12.3999996185,0.0
1614967783929424047,,82204,,1614895756,988773885,"""0""",12.0,0.0,12.3999996185,0.0
1614967783971883058,,82205,,1614895757,38794146,"""0""",12.0,0.0,12.3999996185,0.0
1614967784030602931,,82206,,1614895757,88809250,"""0""",12.0,0.0,12.3999996185,0.0
1614967784075303077,,82207,,1614895757,138934302,"""0""",12.0,0.0,12.3999996185,0.0
1614967784137542009,,82208,,1614895757,188894875,"""0""",12.0,0.0,12.3999996185,0.0
1614967784173188924,,82209,,1614895757,238879666,"""0""",12.0,0.0,12.3999996185,0.0
1614967784228605985,,82210,,1614895757,288816698,"""0""",12.0,0.0,12.3999996185,0.0
1614967784281260967,,82211,,1614895757,338892270,"""0""",12.0,0.0,12.3999996185,0.0
1614967784325974941,,82212,,1614895757,388784770,"""0""",12.0,0.0,12.3999996185,0.0
1614967784376543045,,82213,,1614895757,438799562,"""0""",12.0,0.0,12.3999996185,0.0
1614967784455281972,,82214,,1614895757,488815187,"""0""",12.0,0.0,12.3999996185,0.0
1614967784507586002,,82215,,1614895757,538837010,"""0""",12.0,0.0,12.3999996185,0.0
1614967784572962999,,82216,,1614895757,589065656,"""0""",12.0,0.0,12.3999996185,0.0
1614967784604484081,,82217,,1614895757,638816281,"""0""",12.0,0.0,12.3999996185,0.0
1614967784640477895,,82218,,1614895757,688753104,"""0""",12.0,0.0,12.3999996185,0.0
1614967784680402040,,82219,,1614895757,738799249,"""0""",12.0,0.0,12.3999996185,0.0
1614967784750428915,,82220,,1614895757,788849354,"""0""",12.0,0.0,12.3999996185,0.0
1614967784779051065,,82221,,1614895757,838771749,"""0""",12.0,0.0,12.3999996185,0.0
1614967784834096908,,82222,,1614895757,888863104,"""0""",12.0,0.0,12.3999996185,0.0
1614967784885636091,,82223,,1614895757,938861593,"""0""",12.0,0.0,12.3999996185,0.0
1614967784933096885,,82224,,1614895757,988861385,"""0""",12.0,0.0,12.3999996185,0.0
1614967784983483076,,82225,,1614895758,38780343,"""0""",12.0,0.0,12.3999996185,0.0
1614967785037050008,,82226,,1614895758,88810656,"""0""",12.0,0.0,12.3999996185,0.0
1614967785081896066,,82227,,1614895758,138832166,"""0""",12.0,0.0,12.3999996185,0.0
1614967785128247976,,82228,,1614895758,188827062,"""0""",12.0,0.0,12.3999996185,0.0
1614967785184165000,,82229,,1614895758,239110083,"""0""",12.0,0.0,12.3999996185,0.0
1614967785228813886,,82230,,1614895758,288835343,"""0""",12.0,0.0,12.3999996185,0.0
1614967785284579038,,82231,,1614895758,338898885,"""0""",12.0,0.0,12.3999996185,0.0
1614967785376373052,,82232,,1614895758,388776072,"""0""",12.0,0.0,12.3999996185,0.0
1614967785406660079,,82233,,1614895758,438873416,"""0""",12.0,0.0,12.3999996185,0.0
1614967785459899902,,82234,,1614895758,488795187,"""0""",12.0,0.0,12.3999996185,0.0
1614967785490696907,,82235,,1614895758,538832687,"""0""",12.0,0.0,12.3999996185,0.0
1614967785525511026,,82236,,1614895758,588779926,"""0""",12.0,0.0,12.3999996185,0.0
1614967785576443910,,82237,,1614895758,638795395,"""0""",12.0,0.0,12.3999996185,0.0
1614967785629641056,,82238,,1614895758,688764041,"""0""",12.0,0.0,12.3999996185,0.0
1614967785671808958,,82239,,1614895758,738897843,"""0""",12.0,0.0,12.3999996185,0.0
1614967785730272054,,82240,,1614895758,788787166,"""0""",12.0,0.0,12.3999996185,0.0
1614967785779649019,,82241,,1614895758,838791332,"""0""",12.0,0.0,12.3999996185,0.0
1614967785828157901,,82242,,1614895758,888776593,"""0""",12.0,0.0,12.3999996185,0.0
1614967785877178907,,82243,,1614895758,938793207,"""0""",12.0,0.0,12.3999996185,0.0
1614967785926393985,,82244,,1614895758,988857009,"""0""",12.0,0.0,12.3999996185,0.0
1614967785973810911,,82245,,1614895759,38822582,"""0""",12.0,0.0,12.3999996185,0.0
1614967786035572052,,82246,,1614895759,88764614,"""0""",12.0,0.0,12.3999996185,0.0
1614967786072653055,,82247,,1614895759,138871332,"""0""",12.0,0.0,12.3999996185,0.0
1614967786133477926,,82248,,1614895759,188766697,"""0""",12.0,0.0,12.3999996185,0.0
1614967786175806999,,82249,,1614895759,238928624,"""0""",12.0,0.0,12.3999996185,0.0
1614967786241456031,,82250,,1614895759,288796124,"""0""",12.0,0.0,12.3999996185,0.0
1614967786279947042,,82251,,1614895759,338794613,"""0""",12.0,0.0,12.3999996185,0.0
1614967786330260992,,82252,,1614895759,388769874,"""0""",12.0,0.0,12.3999996185,0.0
1614967786434288978,,82253,,1614895759,438809093,"""0""",12.0,0.0,12.3999996185,0.0
1614967786434401035,,82254,,1614895759,488747165,"""0""",12.0,0.0,12.3999996185,0.0
1614967786476221084,,82255,,1614895759,538856072,"""0""",12.0,0.0,12.3999996185,0.0
1614967786538645029,,82256,,1614895759,588776436,"""0""",12.0,0.0,12.3999996185,0.0
1614967786645138978,,82257,,1614895759,638814301,"""0""",12.0,0.0,12.3999996185,0.0
1614967786645248889,,82258,,1614895759,688848572,"""0""",12.0,0.0,12.3999996185,0.0
1614967786682940959,,82259,,1614895759,738887634,"""0""",12.0,0.0,12.3999996185,0.0
1614967786730581998,,82260,,1614895759,788763363,"""0""",12.0,0.0,12.3999996185,0.0
1614967786852555036,,82261,,1614895759,838914145,"""0""",12.0,14.5,10.6999998093,0.0
1614967786852663993,,82262,,1614895759,888824197,"""0""",12.0,10.125,10.6999998093,0.0
1614967786884346961,,82263,,1614895759,938855655,"""0""",12.0,8.625,10.6999998093,0.0
1614967786940186977,,82264,,1614895759,988801540,"""0""",12.0,7.875,11.8999996185,0.0
1614967786988610029,,82265,,1614895760,38788832,"""0""",12.0,8.0,11.8999996185,0.0
1614967787040065050,,82266,,1614895760,88847686,"""0""",12.0,8.75,11.8999996185,0.0
1614967787077821969,,82267,,1614895760,138890030,"""0""",12.0,7.875,11.8999996185,0.0
1614967787137401103,,82268,,1614895760,188771905,"""0""",12.0,6.75,12.0,0.0
1614967787182991027,,82269,,1614895760,238867478,"""0""",12.0,3.0,12.0,0.0
1614967787264758110,,82270,,1614895760,288757738,"""0""",12.0,1.375,12.0,0.0
1614967787297317028,,82271,,1614895760,338813415,"""0""",12.0,1.0,12.25,0.0
1614967787335931062,,82272,,1614895760,388767061,"""0""",12.0,1.0,12.25,0.0
1614967787385046005,,82273,,1614895760,438798936,"""0""",12.0,1.0,12.25,0.0
1614967787450969934,,82274,,1614895760,488823155,"""0""",12.0,1.0,12.25,0.0
1614967787499281883,,82275,,1614895760,538864457,"""0""",12.0,1.0,12.25,0.0
1614967787541455984,,82276,,1614895760,588771332,"""0""",12.0,1.0,12.25,0.0
1614967787575220108,,82277,,1614895760,638896853,"""0""",12.0,1.0,12.25,0.0
1614967787650490999,,82278,,1614895760,688771019,"""0""",12.0,2.0,12.25,0.0
1614967787677503108,,82279,,1614895760,738845967,"""0""",12.0,1.75,12.25,0.0
1614967787757217884,,82280,,1614895760,788823884,"""0""",12.0,1.75,12.1999998093,0.0
1614967787789117097,,82281,,1614895760,838890759,"""0""",12.0,2.0,12.1999998093,0.0
1614967787843106985,,82282,,1614895760,888806696,"""0""",12.0,2.375,12.1999998093,0.0
1614967787881377935,,82283,,1614895760,938963936,"""0""",12.0,1.75,12.1999998093,0.0
1614967787938996076,,82284,,1614895760,988833415,"""0""",12.0,1.0,12.25,0.0
1614967787985460996,,82285,,1614895761,38800342,"""0""",12.0,1.0,12.25,0.0
1614967788058712005,,82286,,1614895761,88816071,"""0""",12.0,0.375,12.25,0.0
1614967788093069076,,82287,,1614895761,138811175,"""0""",12.0,0.375,12.3500003815,0.0
1614967788128941059,,82288,,1614895761,188776175,"""0""",12.0,0.375,12.3500003815,0.0
1614967788179522991,,82289,,1614895761,238790238,"""0""",12.0,0.375,12.3500003815,0.0
1614967788227566003,,82290,,1614895761,288781384,"""0""",12.0,0.0,12.3500003815,0.0
1614967788274225950,,82291,,1614895761,338801540,"""0""",12.0,0.375,12.3500003815,0.0
1614967788334480047,,82292,,1614895761,388810915,"""0""",12.0,0.625,12.3500003815,0.0
1614967788373280048,,82293,,1614895761,438865394,"""0""",12.0,1.0,12.3000001907,0.0
1614967788436799049,,82294,,1614895761,488785654,"""0""",12.0,0.625,12.3000001907,0.0
1614967788480626106,,82295,,1614895761,538857790,"""0""",12.0,1.0,12.3000001907,0.0
1614967788531349897,,82296,,1614895761,588800133,"""0""",12.0,1.75,12.25,0.0
1614967788593508005,,82297,,1614895761,638781644,"""0""",12.0,1.75,12.25,0.0
1614967788650779008,,82298,,1614895761,688791904,"""0""",12.0,1.375,12.25,0.0
1614967788693531036,,82299,,1614895761,738779873,"""0""",12.0,2.375,12.25,0.0
1614967788727140903,,82300,,1614895761,788796592,"""0""",12.0,3.375,12.1000003815,0.0
1614967788787074089,,82301,,1614895761,838802633,"""0""",12.0,2.75,12.1000003815,0.0
1614967788831815958,,82302,,1614895761,888791852,"""0""",12.0,2.0,12.1000003815,0.0
1614967788884268045,,82303,,1614895761,938793050,"""0""",12.0,2.375,12.1999998093,0.0
1614967788926770925,,82304,,1614895761,988801435,"""0""",12.0,4.375,12.1999998093,0.0
1614967788978518962,,82305,,1614895762,38782581,"""0""",12.0,3.0,12.1999998093,0.0
1614967789030493974,,82306,,1614895762,88776227,"""0""",12.0,2.75,12.1999998093,0.0
1614967789086030006,,82307,,1614895762,139079769,"""0""",12.0,1.75,12.1999998093,0.0
1614967789134473085,,82308,,1614895762,189083519,"""0""",12.0,1.375,12.1999998093,0.0
1614967789192660093,,82309,,1614895762,238829196,"""0""",12.0,1.75,12.1999998093,0.0
1614967789266613960,,82310,,1614895762,289857164,"""0""",12.0,3.375,12.1999998093,0.0
1614967789304352998,,82311,,1614895762,338791383,"""0""",12.0,3.0,12.1999998093,0.0
1614967789341016054,,82312,,1614895762,388780446,"""0""",12.0,2.0,12.1999998093,0.0
1614967789389091014,,82313,,1614895762,438876175,"""0""",12.0,1.75,12.1999998093,0.0
1614967789433870077,,82314,,1614895762,488885029,"""0""",12.0,3.0,12.1999998093,0.0
1614967789484976053,,82315,,1614895762,538830446,"""0""",12.0,2.75,12.1999998093,0.0
1614967789534976005,,82316,,1614895762,588780341,"""0""",12.0,1.75,12.1999998093,0.0
1614967789590419054,,82317,,1614895762,638818675,"""0""",12.0,1.75,12.1999998093,0.0
1614967789633725881,,82318,,1614895762,688811175,"""0""",12.0,3.75,12.1999998093,0.0
1614967789697923898,,82319,,1614895762,738797633,"""0""",12.0,4.375,12.1000003815,0.0
1614967789738214969,,82320,,1614895762,788784664,"""0""",12.0,2.375,12.1000003815,0.0
1614967789780617952,,82321,,1614895762,838868623,"""0""",12.0,1.75,12.1000003815,0.0
1614967789835376024,,82322,,1614895762,888912998,"""0""",12.0,1.75,12.1999998093,0.0
1614967789896949052,,82323,,1614895762,938774352,"""0""",12.0,2.0,12.1999998093,0.0
1614967789930253028,,82324,,1614895762,988787164,"""0""",12.0,2.0,12.1999998093,0.0
1614967790001389980,,82325,,1614895763,38767893,"""0""",12.0,2.75,12.1000003815,0.0
1614967790073610067,,82326,,1614895763,88872268,"""0""",12.0,4.75,12.1000003815,0.0
1614967790168975114,,82327,,1614895763,138789664,"""0""",12.0,4.375,12.1000003815,0.0
1614967790169095993,,82328,,1614895763,188774872,"""0""",12.0,3.0,12.1499996185,0.0
1614967790202871084,,82329,,1614895763,238775341,"""0""",12.0,2.375,12.1499996185,0.0
1614967790242089986,,82330,,1614895763,288866122,"""0""",12.0,2.375,12.1499996185,0.0
1614967790280555009,,82331,,1614895763,338776435,"""0""",12.0,3.0,12.1499996185,0.0
1614967790330791950,,82332,,1614895763,388784820,"""0""",12.0,3.75,12.1000003815,0.0
1614967790470524072,,82333,,1614895763,438921539,"""0""",12.0,3.0,12.1000003815,0.0
1614967790470629930,,82334,,1614895763,489270914,"""0""",12.0,2.375,12.1000003815,0.0
1614967790499866008,,82335,,1614895763,538818101,"""0""",12.0,1.75,12.1999998093,0.0
1614967790543720960,,82336,,1614895763,589358206,"""0""",12.0,1.375,12.1999998093,0.0
1614967790589334964,,82337,,1614895763,638845653,"""0""",12.0,1.0,12.1999998093,0.0
1614967790640062093,,82338,,1614895763,688950081,"""0""",12.0,1.0,12.25,0.0
1614967790688102960,,82339,,1614895763,738764143,"""0""",12.0,1.0,12.25,0.0
1614967790767514944,,82340,,1614895763,788875081,"""0""",12.0,1.0,12.25,0.0
1614967790852673053,,82341,,1614895763,838776226,"""0""",12.0,1.0,12.3000001907,0.0
1614967790852791070,,82342,,1614895763,888921643,"""0""",12.0,0.625,12.3000001907,0.0
1614967790892405033,,82343,,1614895763,938799560,"""0""",12.0,1.0,12.3000001907,0.0
1614967790982064962,,82344,,1614895763,989627580,"""0""",12.0,1.0,12.25,0.0
1614967790982237100,,82345,,1614895764,38768882,"""0""",12.0,1.375,12.25,0.0
1614967791029942035,,82346,,1614895764,89389351,"""0""",12.0,1.375,12.25,0.0
1614967791139630079,,82347,,1614895764,138826122,"""0""",12.0,1.375,12.25,0.0
1614967791139853954,,82348,,1614895764,188784455,"""0""",12.0,2.75,12.1999998093,0.0
1614967791182991027,,82349,,1614895764,238790862,"""0""",12.0,4.125,12.1999998093,0.0
1614967791235989093,,82350,,1614895764,288813882,"""0""",12.0,2.375,12.1999998093,0.0
1614967791286858081,,82351,,1614895764,338784559,"""0""",12.0,2.0,12.1999998093,0.0
1614967791369497060,,82352,,1614895764,389152580,"""0""",12.0,2.75,12.1999998093,0.0
1614967791396900892,,82353,,1614895764,438840601,"""0""",12.0,2.75,12.1999998093,0.0
1614967791457772016,,82354,,1614895764,488844351,"""0""",12.0,1.75,12.1999998093,0.0
1614967791494396924,,82355,,1614895764,538780653,"""0""",12.0,1.0,12.1999998093,0.0
1614967791535468101,,82356,,1614895764,588799351,"""0""",12.0,2.375,12.1999998093,0.0
1614967791583909988,,82357,,1614895764,638880341,"""0""",12.0,2.375,12.1000003815,0.0
1614967791640681028,,82358,,1614895764,689157372,"""0""",12.0,7.0,12.1000003815,0.0
1614967791689408063,,82359,,1614895764,738802111,"""0""",12.0,6.875,12.1000003815,0.0
1614967791732887029,,82360,,1614895764,789018882,"""0""",12.0,6.75,12.0,0.0
1614967791779216051,,82361,,1614895764,838813934,"""0""",12.0,7.0,12.0,0.0
1614967791835341930,,82362,,1614895764,888792528,"""0""",12.0,7.125,12.0,0.0
1614967791888206958,,82363,,1614895764,938870757,"""0""",12.0,7.125,12.0,0.0
1614967791970823049,,82364,,1614895764,988762684,"""0""",11.0,8.125,11.8999996185,0.0
1614967791997044086,,82365,,1614895765,38813049,"""0""",11.0,7.875,11.8999996185,0.0
1614967792048398017,,82366,,1614895765,88885601,"""0""",11.0,7.625,11.8999996185,0.0
1614967792088963985,,82367,,1614895765,138862632,"""0""",11.0,8.0,11.8500003815,0.0
1614967792132163047,,82368,,1614895765,188791226,"""0""",11.0,8.0,11.8500003815,0.0
1614967792181700944,,82369,,1614895765,238769351,"""0""",11.0,8.0,11.8500003815,0.0
1614967792284603118,,82370,,1614895765,288899090,"""0""",11.0,9.0,11.6999998093,0.0
1614967792327152967,,82371,,1614895765,338818413,"""0""",11.0,8.875,11.6999998093,0.0
1614967792358782052,,82372,,1614895765,388780653,"""0""",11.0,8.5,11.6999998093,0.0
1614967792423199892,,82373,,1614895765,438862007,"""0""",11.0,8.375,11.75,0.0
1614967792475625991,,82374,,1614895765,488790497,"""0""",11.0,7.875,11.75,0.0
1614967792582494020,,82375,,1614895765,538811851,"""0""",11.0,7.5,11.75,0.0
1614967792582600116,,82376,,1614895765,588773934,"""0""",12.0,7.625,11.8999996185,0.0
1614967792621614933,,82377,,1614895765,638799299,"""0""",12.0,8.0,11.8999996185,0.0
1614967792659015893,,82378,,1614895765,688876642,"""0""",12.0,7.75,11.8999996185,0.0
1614967792687397956,,82379,,1614895765,738831694,"""0""",12.0,7.75,11.8999996185,0.0
1614967792734087944,,82380,,1614895765,788796851,"""0""",12.0,7.625,11.8500003815,0.0
1614967792784476995,,82381,,1614895765,838814038,"""0""",12.0,7.5,11.8500003815,0.0
1614967792861433982,,82382,,1614895765,888827319,"""0""",12.0,7.75,11.8500003815,0.0
1614967792895260095,,82383,,1614895765,938760496,"""0""",11.0,7.75,11.8500003815,0.0
1614967792929464101,,82384,,1614895765,988787632,"""0""",11.0,7.875,11.8500003815,0.0
1614967792994051933,,82385,,1614895766,38777892,"""0""",11.0,7.625,11.8500003815,0.0
1614967793047089099,,82386,,1614895766,88800392,"""0""",12.0,7.75,11.8500003815,0.0
1614967793085742950,,82387,,1614895766,138761746,"""0""",12.0,7.75,11.8500003815,0.0
1614967793155854940,,82388,,1614895766,188788361,"""0""",12.0,6.875,11.8500003815,0.0
1614967793198576927,,82389,,1614895766,238809194,"""0""",12.0,6.625,12.0,0.0
1614967793251118898,,82390,,1614895766,288821642,"""0""",12.0,6.75,12.0,0.0
1614967793287842988,,82391,,1614895766,338825548,"""0""",12.0,6.875,12.0,0.0
1614967793334626913,,82392,,1614895766,388825861,"""0""",12.0,6.75,12.0,0.0
1614967793391633987,,82393,,1614895766,438793725,"""0""",12.0,5.5,12.0,0.0
1614967793467214107,,82394,,1614895766,488770340,"""0""",12.0,3.75,12.0,0.0
1614967793507752895,,82395,,1614895766,538778673,"""0""",12.0,3.375,12.0,0.0
1614967793556685924,,82396,,1614895766,588825861,"""0""",12.0,1.75,12.1499996185,0.0
1614967793608438014,,82397,,1614895766,638787215,"""0""",12.0,1.375,12.1499996185,0.0
1614967793661811113,,82398,,1614895766,688783777,"""0""",12.0,0.625,12.1499996185,0.0
1614967793712932109,,82399,,1614895766,738799923,"""0""",12.0,0.375,12.25,0.0
1614967793768480062,,82400,,1614895766,788772944,"""0""",12.0,0.375,12.25,0.0
1614967793807286024,,82401,,1614895766,838921069,"""0""",12.0,0.375,12.25,0.0
1614967793860524892,,82402,,1614895766,888928517,"""0""",12.0,0.375,12.25,0.0
1614967793896775007,,82403,,1614895766,938898829,"""0""",12.0,0.0,12.25,0.0
1614967793957884073,,82404,,1614895766,988789142,"""0""",12.0,0.0,12.25,0.0
1614967794044912099,,82405,,1614895767,38934350,"""0""",12.0,0.0,12.3500003815,0.0
1614967794045139074,,82406,,1614895767,88759767,"""0""",12.0,0.375,12.3500003815,0.0
1614967794098300933,,82407,,1614895767,138876538,"""0""",12.0,0.375,12.3500003815,0.0
1614967794145469903,,82408,,1614895767,188754871,"""0""",12.0,0.625,12.25,0.0
1614967794210851907,,82409,,1614895767,238817058,"""0""",12.0,1.375,12.25,0.0
1614967794272613048,,82410,,1614895767,288778517,"""0""",12.0,3.75,12.25,0.0
1614967794324527025,,82411,,1614895767,338865652,"""0""",12.0,1.75,12.25,0.0
1614967794371932983,,82412,,1614895767,388864558,"""0""",12.0,0.625,12.1999998093,0.0
1614967794419863939,,82413,,1614895767,438838048,"""0""",12.0,0.625,12.1999998093,0.0
1614967794456866025,,82414,,1614895767,488756694,"""0""",12.0,2.75,12.1999998093,0.0
1614967794490442991,,82415,,1614895767,538856746,"""0""",11.0,5.125,12.0500001907,0.0
1614967794535434007,,82416,,1614895767,588775600,"""0""",11.0,5.5,12.0500001907,0.0
1614967794609858989,,82417,,1614895767,638862527,"""0""",11.0,6.125,12.0500001907,0.0
1614967794660542011,,82418,,1614895767,688794454,"""0""",12.0,5.75,12.0500001907,0.0
1614967794715466976,,82419,,1614895767,738915704,"""0""",12.0,6.75,12.0500001907,0.0
1614967794771133899,,82420,,1614895767,788767162,"""0""",12.0,7.125,12.0500001907,0.0
1614967794826678037,,82421,,1614895767,838806381,"""0""",11.0,7.5,11.8500003815,0.0
1614967794858469009,,82422,,1614895767,888728100,"""0""",11.0,7.125,11.8500003815,0.0
1614967794923041105,,82423,,1614895767,938784662,"""0""",11.0,6.875,11.8500003815,0.0
1614967794966773986,,82424,,1614895767,988739402,"""0""",11.0,7.125,11.8999996185,0.0
1614967795060697078,,82425,,1614895768,38817475,"""0""",11.0,7.375,11.8999996185,0.0
1614967795060801029,,82426,,1614895768,88775027,"""0""",11.0,7.25,11.8999996185,0.0
1614967795103893041,,82427,,1614895768,138809298,"""0""",11.0,7.125,11.8999996185,0.0
1614967795148423910,,82428,,1614895768,188747370,"""0""",11.0,7.125,11.9499998093,0.0
1614967795221637010,,82429,,1614895768,238943985,"""0""",11.0,7.125,11.9499998093,0.0
1614967795289187908,,82430,,1614895768,288788308,"""0""",11.0,7.125,11.9499998093,0.0
1614967795342515945,,82431,,1614895768,338953620,"""0""",12.0,7.25,11.8999996185,0.0
1614967795390634059,,82432,,1614895768,388777475,"""0""",12.0,7.0,11.8999996185,0.0
1614967795458327054,,82433,,1614895768,438798568,"""0""",12.0,7.0,11.8999996185,0.0
1614967795458445072,,82434,,1614895768,488783100,"""0""",12.0,7.25,11.8999996185,0.0
1614967795532562017,,82435,,1614895768,539265131,"""0""",12.0,7.375,11.8999996185,0.0
1614967795583909034,,82436,,1614895768,588909766,"""0""",12.0,7.25,11.8999996185,0.0
1614967795638892889,,82437,,1614895768,638823777,"""0""",11.0,7.25,11.9499998093,0.0
1614967796298979043,,82438,,1614895768,688813412,"""0""",11.0,7.0,11.9499998093,0.0
1614967796299021959,,82439,,1614895768,738806172,"""0""",11.0,7.0,11.9499998093,0.0
1614967796299046039,,82440,,1614895768,788774402,"""0""",11.0,7.0,11.9499998093,0.0
1614967796299067974,,82441,,1614895768,838801902,"""0""",11.0,7.0,11.9499998093,0.0
1614967796299088954,,82442,,1614895768,889008985,"""0""",11.0,6.875,11.9499998093,0.0
1614967796299110889,,82443,,1614895768,938877422,"""0""",11.0,6.875,11.9499998093,0.0
1614967796357784032,,82444,,1614895768,988840599,"""0""",11.0,7.0,12.0,0.0
1614967796358227968,,82445,,1614895769,39007162,"""0""",11.0,7.125,12.0,0.0
1614967796359186887,,82446,,1614895769,88769818,"""0""",11.0,7.125,12.0,0.0
1614967796359837055,,82447,,1614895769,138797474,"""0""",11.0,7.0,11.8999996185,0.0
1614967796360111951,,82448,,1614895769,188868308,"""0""",11.0,6.875,11.8999996185,0.0
1614967796360169887,,82449,,1614895769,238877787,"""0""",11.0,6.875,11.8999996185,0.0
1614967796360342979,,82450,,1614895769,288766224,"""0""",11.0,7.0,11.9499998093,0.0
1614967796360378980,,82451,,1614895769,338800287,"""0""",11.0,7.125,11.9499998093,0.0
1614967796360776901,,82452,,1614895769,388774037,"""0""",11.0,7.25,11.9499998093,0.0
1614967796404861927,,82453,,1614895769,438837630,"""0""",12.0,7.125,12.0,0.0
1614967796820645093,,82454,,1614895769,488795912,"""0""",12.0,7.0,12.0,0.0
1614967796858412027,,82455,,1614895769,538795912,"""0""",12.0,7.25,12.0,0.0
1614967796858530044,,82456,,1614895769,588769662,"""0""",11.0,7.75,11.8500003815,0.0
1614967796858556985,,82457,,1614895769,638801641,"""0""",11.0,7.5,11.8500003815,0.0
1614967796858597040,,82458,,1614895769,688779037,"""0""",11.0,6.625,11.8500003815,0.0
1614967796858624935,,82459,,1614895769,738794505,"""0""",11.0,6.75,11.8500003815,0.0
1614967796858654975,,82460,,1614895769,788849557,"""0""",11.0,7.25,11.8999996185,0.0
1614967796858680963,,82461,,1614895769,838882109,"""0""",11.0,7.25,11.8999996185,0.0
1614967796858712911,,82462,,1614895769,888833464,"""0""",11.0,7.25,11.8999996185,0.0
1614967796887850046,,82463,,1614895769,938859401,"""0""",12.0,7.5,11.8500003815,0.0
1614967796934278964,,82464,,1614895769,988830547,"""0""",12.0,7.5,11.8500003815,0.0
1614967796985553026,,82465,,1614895770,38810182,"""0""",12.0,7.25,11.8500003815,0.0
1614967797040919065,,82466,,1614895770,88781849,"""0""",12.0,7.25,11.8999996185,0.0
1614967797369143009,,82467,,1614895770,138796172,"""0""",12.0,7.125,11.8999996185,0.0
1614967797369275093,,82468,,1614895770,188775078,"""0""",12.0,7.0,11.8999996185,0.0
1614967797369296073,,82469,,1614895770,238848568,"""0""",11.0,7.125,11.8999996185,0.0
1614967797369318962,,82470,,1614895770,288760703,"""0""",11.0,7.125,11.8999996185,0.0
1614967797369371891,,82471,,1614895770,338799713,"""0""",11.0,6.875,11.8999996185,0.0
1614967797369393110,,82472,,1614895770,388792005,"""0""",11.0,6.75,12.0,0.0
1614967797407776117,,82473,,1614895770,438848932,"""0""",11.0,6.625,12.0,0.0
1614967797436376094,,82474,,1614895770,488771536,"""0""",11.0,6.875,12.0,0.0
1614967797481646060,,82475,,1614895770,538796120,"""0""",11.0,6.75,12.0,0.0
1614967797528789043,,82476,,1614895770,588798984,"""0""",11.0,6.875,11.9499998093,0.0
1614967797878410100,,82477,,1614895770,638825286,"""0""",11.0,7.0,11.9499998093,0.0
1614967797936959028,,82478,,1614895770,688743411,"""0""",11.0,6.875,11.9499998093,0.0
1614967797937112092,,82479,,1614895770,738919297,"""0""",11.0,6.875,12.0,0.0
1614967797937983036,,82480,,1614895770,788796015,"""0""",11.0,7.0,12.0,0.0
1614967797938107967,,82481,,1614895770,838803463,"""0""",11.0,7.0,12.0,0.0
1614967797939343929,,82482,,1614895770,888828515,"""0""",11.0,7.125,11.8999996185,0.0
1614967797939388036,,82483,,1614895770,938974453,"""0""",11.0,7.25,11.8999996185,0.0
1614967797939409971,,82484,,1614895770,988761588,"""0""",11.0,7.25,11.8999996185,0.0
1614967797983936071,,82485,,1614895771,38800546,"""0""",11.0,7.125,11.8999996185,0.0
1614967798029519081,,82486,,1614895771,88759609,"""0""",11.0,7.375,11.8999996185,0.0
1614967798319293022,,82487,,1614895771,138916796,"""0""",11.0,7.5,11.8999996185,0.0
1614967798367820024,,82488,,1614895771,188791276,"""0""",11.0,7.25,11.8999996185,0.0
1614967798367939949,,82489,,1614895771,238902369,"""0""",11.0,7.375,11.8999996185,0.0
1614967798368361949,,82490,,1614895771,288776744,"""0""",11.0,7.375,11.8999996185,0.0
1614967798368392944,,82491,,1614895771,338808359,"""0""",11.0,7.25,11.8999996185,0.0
1614967798368413925,,82492,,1614895771,388756744,"""0""",11.0,7.25,11.8999996185,0.0
1614967798408942937,,82493,,1614895771,438792786,"""0""",11.0,7.375,11.8999996185,0.0
1614967798472229003,,82494,,1614895771,488761796,"""0""",11.0,7.375,11.8999996185,0.0
1614967798547697067,,82495,,1614895771,538767265,"""0""",11.0,7.5,11.8999996185,0.0
1614967798548665046,,82496,,1614895771,588790650,"""0""",11.0,7.625,11.8999996185,0.0
1614967798578048944,,82497,,1614895771,638904973,"""0""",11.0,7.5,11.8999996185,0.0
1614967798888405084,,82498,,1614895771,688764036,"""0""",11.0,7.625,11.8500003815,0.0
1614967798930880069,,82499,,1614895771,738786067,"""0""",11.0,7.75,11.8500003815,0.0
1614967798930995941,,82500,,1614895771,788789348,"""0""",11.0,7.625,11.8500003815,0.0
1614967798931154012,,82501,,1614895771,838801484,"""0""",11.0,7.625,11.8500003815,0.0
1614967798932621002,,82502,,1614895771,888779088,"""0""",11.0,7.75,11.8500003815,0.0
1614967798933084011,,82503,,1614895771,938784192,"""0""",11.0,7.625,11.8500003815,0.0
1614967798933109998,,82504,,1614895771,988779869,"""0""",11.0,7.375,11.8999996185,0.0
1614967798979969978,,82505,,1614895772,38785702,"""0""",11.0,7.125,11.8999996185,0.0
1614967799033348083,,82506,,1614895772,88794765,"""0""",11.0,7.0,11.8999996185,0.0
1614967799075594902,,82507,,1614895772,138808515,"""0""",11.0,7.125,11.8999996185,0.0
1614967799154652118,,82508,,1614895772,188919921,"""0""",11.0,7.375,11.8500003815,0.0
1614967799180912017,,82509,,1614895772,238789504,"""0""",11.0,7.375,11.8500003815,0.0
1614967799237411975,,82510,,1614895772,288847369,"""0""",11.0,7.5,11.8500003815,0.0
1614967799319490909,,82511,,1614895772,338963827,"""0""",11.0,7.25,11.8500003815,0.0
1614967799357696056,,82512,,1614895772,388835546,"""0""",11.0,7.0,11.8500003815,0.0
1614967799396603107,,82513,,1614895772,438800442,"""0""",11.0,7.125,11.8500003815,0.0
1614967799452367067,,82514,,1614895772,488740963,"""0""",11.0,7.25,11.8500003815,0.0
1614967799498790025,,82515,,1614895772,538826067,"""0""",11.0,7.125,11.8500003815,0.0
1614967799537285089,,82516,,1614895772,589017785,"""0""",11.0,7.25,11.8500003815,0.0
1614967799581123113,,82517,,1614895772,638795598,"""0""",11.0,7.375,11.8500003815,0.0
1614967799639590978,,82518,,1614895772,688791067,"""0""",11.0,7.25,11.8500003815,0.0
1614967799679812908,,82519,,1614895772,738827681,"""0""",11.0,7.25,11.8500003815,0.0
1614967799746189117,,82520,,1614895772,788834348,"""0""",11.0,7.25,11.8999996185,0.0
1614967799805366992,,82521,,1614895772,838834400,"""0""",11.0,7.0,11.8999996185,0.0
1614967799836607933,,82522,,1614895772,888800390,"""0""",11.0,6.75,11.8999996185,0.0
1614967799893783092,,82523,,1614895772,938781119,"""0""",11.0,6.75,11.8999996185,0.0
1614967799995034933,,82524,,1614895772,988838775,"""0""",11.0,6.75,11.9499998093,0.0
1614967799995184898,,82525,,1614895773,38862473,"""0""",11.0,6.625,11.9499998093,0.0
1614967800073630094,,82526,,1614895773,88895389,"""0""",11.0,6.125,11.9499998093,0.0
1614967800142976999,,82527,,1614895773,138782837,"""0""",11.0,4.75,12.0,0.0
1614967800143163919,,82528,,1614895773,188832317,"""0""",11.0,2.75,12.0,0.0
1614967800182218074,,82529,,1614895773,238781483,"""0""",11.0,1.375,12.0,0.0
1614967800239223003,,82530,,1614895773,288813931,"""0""",11.0,0.625,12.1999998093,0.0
1614967800279340028,,82531,,1614895773,338780910,"""0""",11.0,0.0,12.1999998093,0.0
1614967800338294029,,82532,,1614895773,388876014,"""0""",11.0,0.375,12.1999998093,0.0
1614967800383806943,,82533,,1614895773,438798931,"""0""",11.0,0.625,12.1999998093,0.0
1614967800445844888,,82534,,1614895773,488862577,"""0""",11.0,1.0,12.1999998093,0.0
1614967800488594055,,82535,,1614895773,538778098,"""0""",11.0,0.625,12.1999998093,0.0
1614967800539313077,,82536,,1614895773,588781118,"""0""",11.0,0.375,12.25,0.0
1614967800604588031,,82537,,1614895773,638884035,"""0""",11.0,0.375,12.25,0.0
1614967800645908117,,82538,,1614895773,688791535,"""0""",11.0,1.0,12.25,0.0
1614967800692589044,,82539,,1614895773,738785389,"""0""",11.0,1.0,12.25,0.0
1614967800735542058,,82540,,1614895773,788758410,"""0""",11.0,1.0,12.1999998093,0.0
1614967800786691904,,82541,,1614895773,838776170,"""0""",11.0,1.375,12.1999998093,0.0
1614967800840218067,,82542,,1614895773,888782212,"""0""",11.0,3.75,12.1999998093,0.0
1614967800884690046,,82543,,1614895773,938793306,"""0""",11.0,4.375,12.0,0.0
1614967800930993080,,82544,,1614895773,988895754,"""0""",11.0,2.0,12.0,0.0
1614967800981448888,,82545,,1614895774,38831222,"""0""",11.0,3.0,12.0,0.0
1614967801034590005,,82546,,1614895774,88781795,"""0""",11.0,4.125,12.0500001907,0.0
1614967801085032939,,82547,,1614895774,138807785,"""0""",11.0,2.375,12.0500001907,0.0
1614967801134809970,,82548,,1614895774,188951483,"""0""",11.0,2.0,12.0500001907,0.0
1614967801192398071,,82549,,1614895774,238859712,"""0""",11.0,2.0,12.1000003815,0.0
1614967801238315105,,82550,,1614895774,288827108,"""0""",11.0,1.75,12.1000003815,0.0
1614967801283796072,,82551,,1614895774,338805858,"""0""",11.0,1.75,12.1000003815,0.0
1614967801335582971,,82552,,1614895774,388807629,"""0""",12.0,1.75,12.1499996185,0.0
1614967801388540029,,82553,,1614895774,439047368,"""0""",12.0,1.375,12.1499996185,0.0
1614967801443265914,,82554,,1614895774,488856014,"""0""",12.0,1.0,12.1499996185,0.0
1614967801488456010,,82555,,1614895774,538783878,"""0""",12.0,1.0,12.1499996185,0.0
1614967801574980020,,82556,,1614895774,588830389,"""0""",11.0,1.0,12.1999998093,0.0
1614967801605885982,,82557,,1614895774,638857889,"""0""",11.0,2.375,12.1999998093,0.0
1614967801649255990,,82558,,1614895774,688780337,"""0""",11.0,1.375,12.1999998093,0.0
1614967801696854114,,82559,,1614895774,738785545,"""0""",11.0,1.0,12.1999998093,0.0
1614967801737644910,,82560,,1614895774,788822576,"""0""",11.0,2.0,12.1999998093,0.0
1614967801788971900,,82561,,1614895774,838851066,"""0""",11.0,3.0,12.1999998093,0.0
1614967801835803031,,82562,,1614895774,888886222,"""0""",12.0,1.75,12.1000003815,0.0
1614967801891633987,,82563,,1614895774,938866639,"""0""",12.0,1.375,12.1000003815,0.0
1614967801942408084,,82564,,1614895774,988865493,"""0""",12.0,2.0,12.1000003815,0.0
1614967801988930940,,82565,,1614895775,38784035,"""0""",12.0,2.0,12.1499996185,0.0
1614967802037738084,,82566,,1614895775,88787993,"""0""",12.0,1.375,12.1499996185,0.0
1614967802091785907,,82567,,1614895775,138783410,"""0""",12.0,2.375,12.1499996185,0.0
1614967802151516914,,82568,,1614895775,192036482,"""0""",11.0,3.375,12.0500001907,0.0
1614967802192473888,,82569,,1614895775,238779295,"""0""",11.0,2.375,12.0500001907,0.0
1614967802235513925,,82570,,1614895775,288787628,"""0""",11.0,2.375,12.0500001907,0.0
1614967802290323972,,82571,,1614895775,338760962,"""0""",11.0,2.375,12.0500001907,0.0
1614967802332643985,,82572,,1614895775,389154659,"""0""",11.0,1.75,12.1000003815,0.0
1614967802388183116,,82573,,1614895775,438814764,"""0""",11.0,2.0,12.1000003815,0.0
1614967802472646951,,82574,,1614895775,488915284,"""0""",11.0,4.375,12.1000003815,0.0
1614967802527694940,,82575,,1614895775,538805545,"""0""",11.0,4.375,12.0500001907,0.0
1614967802575669050,,82576,,1614895775,588908305,"""0""",11.0,1.75,12.0500001907,0.0
1614967802622690916,,82577,,1614895775,638854034,"""0""",11.0,2.375,12.0500001907,0.0
1614967802666009902,,82578,,1614895775,689256378,"""0""",11.0,2.375,12.1000003815,0.0
1614967802703835010,,82579,,1614895775,738816534,"""0""",11.0,2.375,12.1000003815,0.0
1614967802760093927,,82580,,1614895775,789434816,"""0""",11.0,1.75,12.1000003815,0.0
1614967802803858041,,82581,,1614895775,838854868,"""0""",12.0,2.375,12.1000003815,0.0
1614967802840981960,,82582,,1614895775,889018253,"""0""",12.0,2.375,12.1000003815,0.0
1614967802879656076,,82583,,1614895775,938753930,"""0""",12.0,2.0,12.1000003815,0.0
1614967802933722019,,82584,,1614895775,988849815,"""0""",11.0,1.0,12.1999998093,0.0
1614967802990787029,,82585,,1614895776,38812836,"""0""",11.0,1.375,12.1999998093,0.0
1614967803077871084,,82586,,1614895776,89436326,"""0""",11.0,7.0,12.1999998093,0.0
1614967803131258010,,82587,,1614895776,138768982,"""0""",11.0,7.25,12.1999998093,0.0
1614967803183116912,,82588,,1614895776,188959607,"""0""",11.0,6.625,11.9499998093,0.0
1614967803222362995,,82589,,1614895776,238772524,"""0""",11.0,6.75,11.9499998093,0.0
1614967803288642883,,82590,,1614895776,288835128,"""0""",11.0,7.5,11.9499998093,0.0
1614967803369919061,,82591,,1614895776,338777524,"""0""",11.0,7.5,11.8500003815,0.0
1614967803370059967,,82592,,1614895776,388843044,"""0""",11.0,7.5,11.8500003815,0.0
1614967803419603109,,82593,,1614895776,438776117,"""0""",11.0,7.75,11.8500003815,0.0
1614967803457909107,,82594,,1614895776,488839242,"""0""",11.0,8.25,11.75,0.0
1614967803496635913,,82595,,1614895776,538796326,"""0""",11.0,8.25,11.75,0.0
1614967803541841030,,82596,,1614895776,588803878,"""0""",11.0,8.125,11.75,0.0
1614967803594486951,,82597,,1614895776,638826117,"""0""",11.0,8.125,11.75,0.0
1614967803647017955,,82598,,1614895776,688800961,"""0""",11.0,8.125,11.75,0.0
1614967803696430921,,82599,,1614895776,738765232,"""0""",11.0,8.375,11.75,0.0
1614967803742444992,,82600,,1614895776,789255701,"""0""",11.0,8.625,11.6999998093,0.0
1614967803789623975,,82601,,1614895776,838810596,"""0""",11.0,8.375,11.6999998093,0.0
1614967803847223043,,82602,,1614895776,888803617,"""0""",11.0,8.125,11.6999998093,0.0
1614967803927043914,,82603,,1614895776,938737367,"""0""",11.0,8.375,11.6999998093,0.0
1614967803973421096,,82604,,1614895776,988788253,"""0""",11.0,8.75,11.6999998093,0.0
1614967804022108078,,82605,,1614895777,38761794,"""0""",11.0,8.375,11.6999998093,0.0
1614967804057684898,,82606,,1614895777,88755440,"""0""",11.0,8.25,11.6999998093,0.0
1614967804085690021,,82607,,1614895777,138782732,"""0""",11.0,8.375,11.6999998093,0.0
1614967804135890960,,82608,,1614895777,188793461,"""0""",11.0,7.75,11.6999998093,0.0
1614967804181504011,,82609,,1614895777,238797159,"""0""",11.0,6.875,11.6999998093,0.0
1614967804261456012,,82610,,1614895777,288868461,"""0""",11.0,2.0,12.1499996185,0.0
1614967804291784048,,82611,,1614895777,338780232,"""0""",11.0,9.5,12.1499996185,0.0
1614967804341197013,,82612,,1614895777,388846742,"""0""",11.0,15.0,12.1499996185,0.0
1614967804380806922,,82613,,1614895777,438811794,"""0""",11.0,8.0,11.8999996185,0.0
1614967804468944072,,82614,,1614895777,489307211,"""0""",11.0,2.0,11.8999996185,0.0
1614967804570744991,,82615,,1614895777,538831117,"""0""",11.0,1.375,11.8999996185,0.0
1614967804570848941,,82616,,1614895777,588765231,"""0""",11.0,0.375,12.25,0.0
1614967804607043027,,82617,,1614895777,638773513,"""0""",11.0,0.0,12.25,0.0
1614967804659117937,,82618,,1614895777,688822054,"""0""",11.0,0.0,12.25,0.0
1614967804698757886,,82619,,1614895777,738859763,"""0""",11.0,0.0,12.25,0.0
1614967804733705043,,82620,,1614895777,788781273,"""0""",12.0,0.0,12.3000001907,0.0
1614967804793555974,,82621,,1614895777,838766429,"""0""",12.0,0.0,12.3000001907,0.0
1614967804874861001,,82622,,1614895777,888913304,"""0""",12.0,0.0,12.3000001907,0.0
1614967804913605928,,82623,,1614895777,938796117,"""0""",11.0,0.0,12.3500003815,0.0
1614967804950721979,,82624,,1614895777,988843356,"""0""",11.0,0.0,12.3500003815,0.0
1614967804995204925,,82625,,1614895778,38898773,"""0""",11.0,0.0,12.3500003815,0.0
1614967805046278953,,82626,,1614895778,88787888,"""0""",12.0,0.0,12.3500003815,0.0
1614967805085046052,,82627,,1614895778,138926273,"""0""",12.0,0.0,12.3500003815,0.0
1614967805130054950,,82628,,1614895778,188861429,"""0""",12.0,0.0,12.3500003815,0.0
1614967805181946039,,82629,,1614895778,238762002,"""0""",12.0,0.0,12.3500003815,0.0
1614967805230015039,,82630,,1614895778,288785752,"""0""",12.0,0.0,12.3500003815,0.0
1614967805288583040,,82631,,1614895778,338830856,"""0""",12.0,0.0,12.3500003815,0.0
1614967805339546918,,82632,,1614895778,388779554,"""0""",11.0,0.0,12.25,0.0
1614967805383393049,,82633,,1614895778,438788044,"""0""",11.0,0.375,12.25,0.0
1614967805477989912,,82634,,1614895778,488793512,"""0""",11.0,1.0,12.25,0.0
1614967805514955997,,82635,,1614895778,538783981,"""0""",11.0,1.0,12.25,0.0
1614967805549602985,,82636,,1614895778,588849919,"""0""",11.0,2.0,12.1499996185,0.0
1614967805593662977,,82637,,1614895778,638820231,"""0""",11.0,2.0,12.1499996185,0.0
1614967805638915061,,82638,,1614895778,688830596,"""0""",11.0,1.75,12.1499996185,0.0
1614967805689114093,,82639,,1614895778,738836273,"""0""",11.0,1.375,12.1499996185,0.0
1614967805743416070,,82640,,1614895778,788862002,"""0""",11.0,1.375,12.1499996185,0.0
1614967805795809984,,82641,,1614895778,838888877,"""0""",11.0,2.0,12.1499996185,0.0
1614967805842012882,,82642,,1614895778,888861481,"""0""",11.0,3.375,12.0500001907,0.0
1614967805902565956,,82643,,1614895778,938868408,"""0""",11.0,3.75,12.0500001907,0.0
1614967805947105884,,82644,,1614895778,988791429,"""0""",11.0,3.375,12.0500001907,0.0
1614967805999893903,,82645,,1614895779,38876898,"""0""",11.0,4.75,12.0,0.0
1614967806085231065,,82646,,1614895779,88785648,"""0""",11.0,6.5,12.0,0.0
1614967806179888963,,82647,,1614895779,138768304,"""0""",11.0,5.5,12.0,0.0
1614967806180026054,,82648,,1614895779,188786429,"""0""",11.0,6.125,11.9499998093,0.0
1614967806251338005,,82649,,1614895779,238818616,"""0""",11.0,6.875,11.9499998093,0.0
1614967806251451015,,82650,,1614895779,288750075,"""0""",11.0,7.25,11.9499998093,0.0
1614967806302738904,,82651,,1614895779,339033981,"""0""",11.0,7.5,11.9499998093,0.0
1614967806346941947,,82652,,1614895779,388751325,"""0""",11.0,7.75,11.8000001907,0.0
1614967806458636045,,82653,,1614895779,438913668,"""0""",11.0,7.75,11.8000001907,0.0
1614967806459331035,,82654,,1614895779,488798772,"""0""",11.0,7.875,11.8000001907,0.0
1614967806498670101,,82655,,1614895779,538910595,"""0""",11.0,8.0,11.8000001907,0.0
1614967806571445941,,82656,,1614895779,588768772,"""0""",11.0,8.375,11.8000001907,0.0
1614967806609337091,,82657,,1614895779,638928824,"""0""",11.0,8.625,11.8000001907,0.0
1614967806661495923,,82658,,1614895779,688786272,"""0""",11.0,9.25,11.6999998093,0.0
1614967806707936048,,82659,,1614895779,738805647,"""0""",11.0,9.375,11.6999998093,0.0
1614967806747656106,,82660,,1614895779,788770387,"""0""",11.0,9.5,11.6999998093,0.0
1614967806792690992,,82661,,1614895779,838800335,"""0""",11.0,9.5,11.6999998093,0.0
1614967806838557004,,82662,,1614895779,888771585,"""0""",11.0,9.5,11.6999998093,0.0
1614967806892816066,,82663,,1614895779,938794866,"""0""",11.0,9.625,11.6999998093,0.0
1614967806944993019,,82664,,1614895779,988828251,"""0""",11.0,9.625,11.6000003815,0.0
1614967807016273021,,82665,,1614895780,38842418,"""0""",11.0,9.625,11.6000003815,0.0
1614967807060246944,,82666,,1614895780,88784085,"""0""",11.0,9.5,11.6000003815,0.0
1614967807135735034,,82667,,1614895780,138839345,"""0""",11.0,9.5,11.6000003815,0.0
1614967807188810110,,82668,,1614895780,188760439,"""0""",11.0,9.5,11.6499996185,0.0
1614967807233758926,,82669,,1614895780,238889137,"""0""",11.0,9.5,11.6499996185,0.0
1614967807275439023,,82670,,1614895780,288774762,"""0""",11.0,9.5,11.6499996185,0.0
1614967807332446098,,82671,,1614895780,338885230,"""0""",11.0,9.625,11.6999998093,0.0
1614967807380853891,,82672,,1614895780,388757522,"""0""",11.0,9.625,11.6999998093,0.0
1614967807433885097,,82673,,1614895780,438756637,"""0""",11.0,9.625,11.6999998093,0.0
1614967807472004890,,82674,,1614895780,488751949,"""0""",11.0,9.625,11.6000003815,0.0
1614967807514353036,,82675,,1614895780,538845491,"""0""",11.0,10.0,11.6000003815,0.0
1614967807555392980,,82676,,1614895780,588766897,"""0""",11.0,10.25,11.6000003815,0.0
1614967807589370965,,82677,,1614895780,638840543,"""0""",11.0,10.25,11.6000003815,0.0
1614967807650724887,,82678,,1614895780,688838512,"""0""",11.0,10.125,11.6000003815,0.0
1614967807724801063,,82679,,1614895780,738909397,"""0""",11.0,10.25,11.6000003815,0.0
1614967807769633054,,82680,,1614895780,789329241,"""0""",11.0,10.375,11.5500001907,0.0
1614967807821398973,,82681,,1614895780,838814449,"""0""",11.0,10.375,11.5500001907,0.0
1614967807861083030,,82682,,1614895780,888787991,"""0""",11.0,10.5,11.5500001907,0.0
1614967807897412061,,82683,,1614895780,938780022,"""0""",11.0,10.5,11.5500001907,0.0
1614967807999743938,,82684,,1614895780,988826845,"""0""",11.0,10.375,11.6000003815,0.0
1614967807999851942,,82685,,1614895781,38808407,"""0""",11.0,10.375,11.6000003815,0.0
1614967808047195911,,82686,,1614895781,88852991,"""0""",11.0,10.5,11.6000003815,0.0
1614967808086278915,,82687,,1614895781,138815699,"""0""",11.0,10.5,11.6000003815,0.0
1614967808193655967,,82688,,1614895781,188806168,"""0""",11.0,10.5,11.6000003815,0.0
1614967808235218048,,82689,,1614895781,238822678,"""0""",11.0,10.625,11.6000003815,0.0
1614967808285671949,,82690,,1614895781,288767470,"""0""",11.0,10.625,11.5500001907,0.0
1614967808342363119,,82691,,1614895781,338914605,"""0""",11.0,10.625,11.5500001907,0.0
1614967808384043931,,82692,,1614895781,388784136,"""0""",11.0,10.75,11.5500001907,0.0
1614967808468437910,,82693,,1614895781,438862313,"""0""",11.0,11.0,11.5500001907,0.0
1614967808468583106,,82694,,1614895781,488846532,"""0""",11.0,11.125,11.5500001907,0.0
1614967808504327058,,82695,,1614895781,538853199,"""0""",11.0,11.125,11.5500001907,0.0
1614967808552573919,,82696,,1614895781,588757470,"""0""",11.0,10.875,11.6000003815,0.0
1614967808588154077,,82697,,1614895781,638898251,"""0""",11.0,10.75,11.6000003815,0.0
1614967808643565893,,82698,,1614895781,688842886,"""0""",11.0,10.875,11.6000003815,0.0
1614967808678406000,,82699,,1614895781,738803459,"""0""",11.0,11.0,11.6000003815,0.0
1614967808745373964,,82700,,1614895781,788945126,"""0""",11.0,10.875,11.5500001907,0.0
1614967808784058094,,82701,,1614895781,838917626,"""0""",11.0,10.75,11.5500001907,0.0
1614967808835366010,,82702,,1614895781,888786324,"""0""",11.0,10.625,11.5500001907,0.0
1614967808889779090,,82703,,1614895781,938795178,"""0""",11.0,10.5,11.5500001907,0.0
1614967808943355083,,82704,,1614895781,988830490,"""0""",11.0,10.5,11.5500001907,0.0
1614967808997811079,,82705,,1614895782,38819188,"""0""",11.0,10.5,11.5500001907,0.0
1614967809052027940,,82706,,1614895782,88767938,"""0""",11.0,10.5,11.5500001907,0.0
1614967809082674026,,82707,,1614895782,138801584,"""0""",11.0,10.5,11.5500001907,0.0
1614967809142350912,,82708,,1614895782,188865334,"""0""",11.0,10.5,11.5500001907,0.0
1614967809186758041,,82709,,1614895782,238846844,"""0""",11.0,10.375,11.6000003815,0.0
1614967809235924005,,82710,,1614895782,288772417,"""0""",11.0,10.25,11.6000003815,0.0
1614967809286530971,,82711,,1614895782,338896323,"""0""",11.0,10.375,11.6000003815,0.0
1614967809371251106,,82712,,1614895782,388837261,"""0""",11.0,10.375,11.5500001907,0.0
1614967809421844959,,82713,,1614895782,438829969,"""0""",11.0,10.125,11.5500001907,0.0
1614967809487626075,,82714,,1614895782,488822313,"""0""",11.0,9.625,11.5500001907,0.0
1614967809524488925,,82715,,1614895782,538799500,"""0""",11.0,9.25,11.5500001907,0.0
1614967809565247058,,82716,,1614895782,588784553,"""0""",11.0,9.0,11.6499996185,0.0
1614967809599775075,,82717,,1614895782,638918927,"""0""",11.0,8.75,11.6499996185,0.0
1614967809666321992,,82718,,1614895782,688811271,"""0""",11.0,8.125,11.6499996185,0.0
1614967809704077005,,82719,,1614895782,738797938,"""0""",11.0,7.875,11.8000001907,0.0
1614967809758382081,,82720,,1614895782,788832365,"""0""",11.0,7.625,11.8000001907,0.0
1614967809826420068,,82721,,1614895782,838831271,"""0""",11.0,7.375,11.8000001907,0.0
1614967809885222911,,82722,,1614895782,888769709,"""0""",11.0,7.25,11.8000001907,0.0
1614967809965574026,,82723,,1614895782,938951063,"""0""",11.0,7.25,11.8000001907,0.0
1614967809965678930,,82724,,1614895782,988795750,"""0""",11.0,7.0,11.8000001907,0.0
1614967810027676105,,82725,,1614895783,38819136,"""0""",11.0,6.875,11.8500003815,0.0
1614967810148525953,,82726,,1614895783,88797729,"""0""",11.0,6.125,11.8500003815,0.0
1614967810148811101,,82727,,1614895783,138803667,"""0""",11.0,4.375,11.8500003815,0.0
1614967810149132013,,82728,,1614895783,188759709,"""0""",11.0,3.375,12.0500001907,0.0
1614967810201251029,,82729,,1614895783,238833771,"""0""",11.0,2.375,12.0500001907,0.0
1614967810276426076,,82730,,1614895783,288791636,"""0""",11.0,1.75,12.0500001907,0.0
1614967810334831953,,82731,,1614895783,338866531,"""0""",11.0,2.0,12.0500001907,0.0
1614967810381100893,,82732,,1614895783,388768979,"""0""",11.0,3.0,12.0500001907,0.0
1614967810431582927,,82733,,1614895783,438808146,"""0""",11.0,3.375,12.0500001907,0.0
1614967810483423948,,82734,,1614895783,488861271,"""0""",11.0,1.375,12.0500001907,0.0
1614967810519485950,,82735,,1614895783,538801896,"""0""",11.0,1.0,12.1000003815,0.0
1614967810567817926,,82736,,1614895783,588773979,"""0""",11.0,1.0,12.1000003815,0.0
1614967810609035968,,82737,,1614895783,638781948,"""0""",11.0,0.625,12.1000003815,0.0
1614967810649431943,,82738,,1614895783,688827833,"""0""",11.0,0.625,12.1999998093,0.0
1614967810695117950,,82739,,1614895783,738788979,"""0""",11.0,1.75,12.1999998093,0.0
1614967810738629102,,82740,,1614895783,788772260,"""0""",11.0,0.125,12.1999998093,0.0
1614967810788796901,,82741,,1614895783,838899760,"""0""",12.0,0.0,12.25,0.0
1614967810857307910,,82742,,1614895783,888849344,"""0""",12.0,0.0,12.25,0.0
1614967810946407079,,82743,,1614895783,938790698,"""0""",12.0,0.0,12.25,0.0
1614967810989742040,,82744,,1614895783,988820229,"""0""",12.0,0.0,12.25,0.0
1614967811033382892,,82745,,1614895784,38782052,"""0""",12.0,0.0,12.25,0.0
1614967811069776058,,82746,,1614895784,88807052,"""0""",12.0,0.0,12.25,0.0
1614967811147331953,,82747,,1614895784,138782156,"""0""",12.0,0.0,12.25,0.0
1614967811147547960,,82748,,1614895784,188824760,"""0""",12.0,0.0,12.25,0.0
1614967811207283973,,82749,,1614895784,238768979,"""0""",12.0,0.0,12.25,0.0
1614967811238303899,,82750,,1614895784,288900385,"""0""",12.0,0.0,12.25,0.0
1614967811281853914,,82751,,1614895784,338785437,"""0""",11.0,0.0,12.25,0.0
1614967811333473920,,82752,,1614895784,388801896,"""0""",11.0,0.0,12.25,0.0
1614967811386411905,,82753,,1614895784,438793458,"""0""",11.0,0.0,12.25,0.0
1614967811440623998,,82754,,1614895784,488790854,"""0""",12.0,0.0,12.3000001907,0.0
1614967811486700057,,82755,,1614895784,538778354,"""0""",12.0,0.0,12.3000001907,0.0
1614967811541012048,,82756,,1614895784,588782104,"""0""",12.0,0.0,12.3000001907,0.0
1614967811587357997,,82757,,1614895784,638815229,"""0""",12.0,0.0,12.3000001907,0.0
1614967811635463953,,82758,,1614895784,688907677,"""0""",12.0,0.0,12.3000001907,0.0
1614967811686364889,,82759,,1614895784,738911791,"""0""",12.0,0.0,12.3000001907,0.0
1614967811759881973,,82760,,1614895784,788827052,"""0""",12.0,0.0,12.3000001907,0.0
1614967811799876928,,82761,,1614895784,838791010,"""0""",12.0,0.0,12.3000001907,0.0
1614967811839044094,,82762,,1614895784,888841010,"""0""",12.0,0.0,12.3000001907,0.0
1614967811881031990,,82763,,1614895784,938784708,"""0""",12.0,0.0,12.3000001907,0.0
1614967811934042930,,82764,,1614895784,988886322,"""0""",12.0,0.0,12.3000001907,0.0
1614967811979389905,,82765,,1614895785,38782572,"""0""",12.0,0.0,12.3000001907,0.0
1614967812046788930,,82766,,1614895785,88885645,"""0""",12.0,0.0,12.3000001907,0.0
1614967812086103916,,82767,,1614895785,138801739,"""0""",12.0,0.0,12.3000001907,0.0
1614967812144830942,,82768,,1614895785,188781374,"""0""",12.0,0.0,12.3000001907,0.0
1614967812191287994,,82769,,1614895785,238868562,"""0""",12.0,0.0,12.3000001907,0.0
1614967812234749078,,82770,,1614895785,288820593,"""0""",12.0,0.0,12.3000001907,0.0
1614967812289021015,,82771,,1614895785,338803718,"""0""",12.0,0.0,12.3000001907,0.0
1614967812361614942,,82772,,1614895785,388857156,"""0""",12.0,0.0,12.3000001907,0.0
1614967812391434907,,82773,,1614895785,438861479,"""0""",12.0,0.0,12.3000001907,0.0
1614967812438927888,,82774,,1614895785,488795697,"""0""",12.0,0.0,12.3000001907,0.0
1614967812493493080,,82775,,1614895785,538845333,"""0""",12.0,0.0,12.3000001907,0.0
1614967812534012079,,82776,,1614895785,588971895,"""0""",12.0,0.0,12.3000001907,0.0
1614967812585854053,,82777,,1614895785,638797260,"""0""",12.0,0.0,12.3000001907,0.0
1614967812635128974,,82778,,1614895785,688881114,"""0""",12.0,0.0,12.3000001907,0.0
1614967812682701110,,82779,,1614895785,738848197,"""0""",12.0,0.0,12.3000001907,0.0
1614967812742271900,,82780,,1614895785,788916010,"""0""",12.0,0.0,12.3000001907,0.0
1614967812800554037,,82781,,1614895785,838819655,"""0""",12.0,0.0,12.3000001907,0.0
1614967812839528083,,82782,,1614895785,888806843,"""0""",12.0,0.0,12.3000001907,0.0
1614967812883236885,,82783,,1614895785,938759707,"""0""",12.0,0.0,12.3000001907,0.0
1614967812932925939,,82784,,1614895785,988789291,"""0""",12.0,0.0,12.3000001907,0.0
1614967812983732938,,82785,,1614895786,38801062,"""0""",12.0,0.0,12.3000001907,0.0
1614967813044001102,,82786,,1614895786,88955176,"""0""",12.0,0.0,12.3000001907,0.0
1614967813081307888,,82787,,1614895786,138837884,"""0""",12.0,0.0,12.3000001907,0.0
1614967813135586977,,82788,,1614895786,188824030,"""0""",12.0,0.0,12.3000001907,0.0
1614967813187072992,,82789,,1614895786,238792572,"""0""",12.0,0.0,12.3000001907,0.0
1614967813238759040,,82790,,1614895786,288882937,"""0""",12.0,0.0,12.3000001907,0.0
1614967813282895088,,82791,,1614895786,338835801,"""0""",12.0,0.0,12.3000001907,0.0
1614967813335472106,,82792,,1614895786,388785280,"""0""",12.0,0.0,12.3000001907,0.0
1614967813389247894,,82793,,1614895786,438790072,"""0""",12.0,0.0,12.3000001907,0.0
1614967813567986965,,82794,,1614895786,488784968,"""0""",12.0,0.0,12.3000001907,0.0
1614967813568300008,,82795,,1614895786,538806270,"""0""",12.0,0.0,12.3000001907,0.0
1614967813568403959,,82796,,1614895786,588842572,"""0""",12.0,0.0,12.3000001907,0.0
1614967813568427085,,82797,,1614895786,638769343,"""0""",12.0,0.0,12.3000001907,0.0
1614967813642530918,,82798,,1614895786,688788926,"""0""",12.0,0.0,12.3000001907,0.0
1614967813690532922,,82799,,1614895786,739110384,"""0""",12.0,0.0,12.3000001907,0.0
1614967813750034093,,82800,,1614895786,788817311,"""0""",12.0,0.0,12.3000001907,0.0
1614967813800476074,,82801,,1614895786,838802988,"""0""",12.0,0.0,12.3000001907,0.0
1614967813853008031,,82802,,1614895786,888782311,"""0""",12.0,0.0,12.3000001907,0.0
1614967813980576992,,82803,,1614895786,938833509,"""0""",12.0,0.0,12.3000001907,0.0
1614967813980690002,,82804,,1614895786,988864655,"""0""",12.0,0.0,12.3000001907,0.0
1614967814028903961,,82805,,1614895787,38838197,"""0""",12.0,0.0,12.3500003815,0.0
1614967814088038921,,82806,,1614895787,88781895,"""0""",12.0,0.0,12.3500003815,0.0
1614967814152642965,,82807,,1614895787,138771582,"""0""",12.0,0.0,12.3500003815,0.0
1614967814152951955,,82808,,1614895787,189321947,"""0""",12.0,0.0,12.3500003815,0.0
1614967814190052986,,82809,,1614895787,238772155,"""0""",12.0,0.0,12.3500003815,0.0
1614967814271394968,,82810,,1614895787,288878301,"""0""",12.0,0.0,12.3500003815,0.0
1614967814313788890,,82811,,1614895787,338792311,"""0""",12.0,0.0,12.3500003815,0.0
1614967814372139930,,82812,,1614895787,388838197,"""0""",12.0,0.0,12.3500003815,0.0
