rosbagTimestamp,header,seq,stamp,secs,nsecs,frame_id,Temperature,OutputCurrent,BusVoltage,ClosedLoopError
1614973126681324958,,189050,,1614901099,288807785,"""0""",12.0,0.0,12.3999996185,0.0
1614973126719575881,,189051,,1614901099,338806951,"""0""",12.0,0.0,12.3999996185,0.0
1614973126782540082,,189052,,1614901099,388795597,"""0""",12.0,0.0,12.3999996185,0.0
1614973126819912910,,189053,,1614901099,438805285,"""0""",12.0,0.0,12.3999996185,0.0
1614973126881028890,,189054,,1614901099,488800701,"""0""",12.0,0.0,12.3999996185,0.0
1614973126922008037,,189055,,1614901099,538822003,"""0""",12.0,0.0,12.3999996185,0.0
1614973126983824014,,189056,,1614901099,588797108,"""0""",12.0,0.0,12.3999996185,0.0
1614973127028042078,,189057,,1614901099,638800649,"""0""",12.0,0.0,12.3999996185,0.0
1614973127079879045,,189058,,1614901099,688780180,"""0""",12.0,0.0,12.3999996185,0.0
1614973127129117012,,189059,,1614901099,738820180,"""0""",12.0,0.0,12.3999996185,0.0
1614973127180433034,,189060,,1614901099,788884972,"""0""",12.0,0.0,12.3999996185,0.0
1614973127227777957,,189061,,1614901099,838846743,"""0""",12.0,0.0,12.3999996185,0.0
1614973127290450096,,189062,,1614901099,888783670,"""0""",12.0,0.0,12.3999996185,0.0
1614973127332041978,,189063,,1614901099,938799035,"""0""",12.0,0.0,12.3999996185,0.0
1614973127393110990,,189064,,1614901099,988789868,"""0""",12.0,0.0,12.3999996185,0.0
1614973127429303884,,189065,,1614901100,38821534,"""0""",12.0,0.0,12.3999996185,0.0
1614973127482961893,,189066,,1614901100,88816170,"""0""",12.0,0.0,12.3999996185,0.0
1614973127535561084,,189067,,1614901100,138820180,"""0""",12.0,0.0,12.3999996185,0.0
1614973127593230009,,189068,,1614901100,188866170,"""0""",12.0,0.0,12.3999996185,0.0
1614973127628667116,,189069,,1614901100,238760076,"""0""",12.0,0.0,12.3999996185,0.0
1614973127694766044,,189070,,1614901100,288793514,"""0""",12.0,0.0,12.3999996185,0.0
1614973127738068103,,189071,,1614901100,338828826,"""0""",12.0,0.0,12.3999996185,0.0
1614973127785095930,,189072,,1614901100,388820597,"""0""",12.0,0.0,12.3999996185,0.0
1614973127839862108,,189073,,1614901100,438823357,"""0""",12.0,0.0,12.3999996185,0.0
1614973127886181116,,189074,,1614901100,488809347,"""0""",12.0,0.0,12.3999996185,0.0
1614973127935628890,,189075,,1614901100,538848722,"""0""",12.0,0.0,12.3999996185,0.0
1614973127978681087,,189076,,1614901100,588792368,"""0""",12.0,0.0,12.3999996185,0.0
1614973128036362886,,189077,,1614901100,638805805,"""0""",12.0,0.0,12.3999996185,0.0
1614973128087496042,,189078,,1614901100,688861326,"""0""",12.0,0.0,12.3999996185,0.0
1614973128135740041,,189079,,1614901100,738796326,"""0""",12.0,0.0,12.3999996185,0.0
1614973128202903032,,189080,,1614901100,788784555,"""0""",12.0,0.0,12.3999996185,0.0
1614973128234468936,,189081,,1614901100,838966222,"""0""",12.0,0.0,12.3999996185,0.0
1614973128289654016,,189082,,1614901100,888891274,"""0""",12.0,0.0,12.3999996185,0.0
1614973128339298963,,189083,,1614901100,938848722,"""0""",12.0,0.0,12.3999996185,0.0
1614973128380845069,,189084,,1614901100,988843982,"""0""",12.0,0.0,12.3999996185,0.0
1614973128444108963,,189085,,1614901101,38815440,"""0""",12.0,0.0,12.3999996185,0.0
1614973128511888027,,189086,,1614901101,88968878,"""0""",12.0,0.0,12.3999996185,0.0
1614973128548283100,,189087,,1614901101,138876534,"""0""",12.0,0.0,12.3999996185,0.0
1614973128584573030,,189088,,1614901101,188789503,"""0""",12.0,0.0,12.3999996185,0.0
1614973128635725021,,189089,,1614901101,238797003,"""0""",12.0,0.0,12.3999996185,0.0
1614973128688152074,,189090,,1614901101,288810805,"""0""",12.0,0.0,12.3999996185,0.0
1614973128734618902,,189091,,1614901101,338793096,"""0""",12.0,0.0,12.3999996185,0.0
1614973128812625885,,189092,,1614901101,388914711,"""0""",12.0,0.0,12.3999996185,0.0
1614973128838690042,,189093,,1614901101,438795232,"""0""",12.0,0.0,12.3999996185,0.0
1614973128891983985,,189094,,1614901101,488786742,"""0""",12.0,0.0,12.3999996185,0.0
1614973128945152997,,189095,,1614901101,538828669,"""0""",12.0,0.0,12.3999996185,0.0
1614973128997525930,,189096,,1614901101,588826065,"""0""",12.0,0.0,12.3999996185,0.0
1614973129044223070,,189097,,1614901101,638840701,"""0""",12.0,0.0,12.3999996185,0.0
1614973129119419097,,189098,,1614901101,688787732,"""0""",12.0,0.0,12.3999996185,0.0
1614973129151072025,,189099,,1614901101,738799971,"""0""",12.0,0.0,12.3999996185,0.0
1614973129230654954,,189100,,1614901101,788796378,"""0""",12.0,0.0,12.3999996185,0.0
1614973129258507013,,189101,,1614901101,838784398,"""0""",12.0,0.0,12.3999996185,0.0
1614973129302442073,,189102,,1614901101,888831273,"""0""",12.0,0.0,12.3999996185,0.0
1614973129356658935,,189103,,1614901101,938784867,"""0""",12.0,0.0,12.3999996185,0.0
1614973129405531883,,189104,,1614901101,988800909,"""0""",12.0,0.0,12.3999996185,0.0
1614973129433283090,,189105,,1614901102,38900336,"""0""",12.0,0.0,12.3999996185,0.0
1614973129500205993,,189106,,1614901102,88792992,"""0""",12.0,0.0,12.3999996185,0.0
1614973129547326087,,189107,,1614901102,138859659,"""0""",12.0,0.0,12.3999996185,0.0
1614973129604607105,,189108,,1614901102,188783773,"""0""",12.0,0.0,12.3999996185,0.0
1614973129698286056,,189109,,1614901102,238813825,"""0""",12.0,0.0,12.3999996185,0.0
1614973129727727890,,189110,,1614901102,288804190,"""0""",12.0,0.0,12.3999996185,0.0
1614973129756299972,,189111,,1614901102,339015179,"""0""",12.0,0.0,12.3999996185,0.0
1614973129794126987,,189112,,1614901102,388811742,"""0""",12.0,0.0,12.3999996185,0.0
1614973129852201938,,189113,,1614901102,438906846,"""0""",12.0,0.0,12.3999996185,0.0
1614973129887784004,,189114,,1614901102,488754398,"""0""",12.0,0.0,12.3999996185,0.0
1614973129936989068,,189115,,1614901102,538868252,"""0""",12.0,0.0,12.3999996185,0.0
1614973130008630990,,189116,,1614901102,588839919,"""0""",12.0,0.0,12.3999996185,0.0
1614973130053253889,,189117,,1614901102,638875700,"""0""",12.0,0.0,12.3999996185,0.0
1614973130089785099,,189118,,1614901102,688881690,"""0""",12.0,0.0,12.3999996185,0.0
1614973130139425992,,189119,,1614901102,738769346,"""0""",12.0,0.0,12.3999996185,0.0
1614973130185000896,,189120,,1614901102,788811533,"""0""",12.0,0.0,12.3999996185,0.0
1614973130248446941,,189121,,1614901102,838850231,"""0""",12.0,0.0,12.3999996185,0.0
1614973130305314064,,189122,,1614901102,888854450,"""0""",12.0,0.0,12.3999996185,0.0
1614973130337665081,,189123,,1614901102,938847002,"""0""",12.0,0.0,12.3999996185,0.0
1614973130387090921,,189124,,1614901102,988865179,"""0""",12.0,0.0,12.3999996185,0.0
1614973130461462020,,189125,,1614901103,38811117,"""0""",12.0,0.0,12.3999996185,0.0
1614973130521013975,,189126,,1614901103,88787367,"""0""",12.0,0.0,12.3999996185,0.0
1614973130602298974,,189127,,1614901103,138822835,"""0""",12.0,0.0,12.3999996185,0.0
1614973130638155937,,189128,,1614901103,188776690,"""0""",12.0,0.0,12.3999996185,0.0
1614973130638312101,,189129,,1614901103,238869294,"""0""",12.0,0.0,12.3999996185,0.0
1614973130689517974,,189130,,1614901103,288794346,"""0""",12.0,0.0,12.3999996185,0.0
1614973130734816074,,189131,,1614901103,338796637,"""0""",12.0,0.0,12.3999996185,0.0
1614973130786736965,,189132,,1614901103,388849137,"""0""",12.0,0.0,12.3999996185,0.0
1614973130838795900,,189133,,1614901103,438907314,"""0""",12.0,0.0,12.3999996185,0.0
1614973130903383016,,189134,,1614901103,488790127,"""0""",12.0,0.0,12.3999996185,0.0
1614973130936786890,,189135,,1614901103,538818929,"""0""",12.0,0.0,12.3999996185,0.0
1614973130986562013,,189136,,1614901103,588795075,"""0""",12.0,0.0,12.3999996185,0.0
1614973131035593986,,189137,,1614901103,638984606,"""0""",12.0,0.0,12.3999996185,0.0
1614973131090413093,,189138,,1614901103,688811846,"""0""",12.0,0.0,12.3999996185,0.0
1614973131139903068,,189139,,1614901103,738913825,"""0""",12.0,0.0,12.3999996185,0.0
1614973131184053897,,189140,,1614901103,788827054,"""0""",12.0,0.0,12.3999996185,0.0
1614973131237251043,,189141,,1614901103,838784085,"""0""",12.0,0.0,12.3999996185,0.0
1614973131285852909,,189142,,1614901103,888786012,"""0""",12.0,0.0,12.3999996185,0.0
1614973131337341070,,189143,,1614901103,938999502,"""0""",12.0,0.0,12.3999996185,0.0
1614973131385972023,,189144,,1614901103,988795023,"""0""",12.0,0.0,12.3999996185,0.0
1614973131452446937,,189145,,1614901104,38970075,"""0""",12.0,0.0,12.3999996185,0.0
1614973131504374980,,189146,,1614901104,88785439,"""0""",12.0,0.0,12.3999996185,0.0
1614973131540052890,,189147,,1614901104,138789866,"""0""",12.0,0.0,12.3999996185,0.0
1614973131585721969,,189148,,1614901104,188812522,"""0""",12.0,0.0,12.3999996185,0.0
1614973131637346982,,189149,,1614901104,238917731,"""0""",12.0,0.0,12.3999996185,0.0
1614973131683574914,,189150,,1614901104,288772470,"""0""",12.0,0.0,12.3999996185,0.0
1614973131729799032,,189151,,1614901104,338794397,"""0""",12.0,0.0,12.3999996185,0.0
1614973131807343006,,189152,,1614901104,388866272,"""0""",12.0,0.0,12.3999996185,0.0
1614973131837517976,,189153,,1614901104,438908043,"""0""",12.0,0.0,12.3999996185,0.0
1614973131887239933,,189154,,1614901104,488793616,"""0""",12.0,0.0,12.3999996185,0.0
1614973131938155889,,189155,,1614901104,538799502,"""0""",12.0,0.0,12.3999996185,0.0
1614973131995760917,,189156,,1614901104,588835960,"""0""",12.0,0.0,12.3999996185,0.0
1614973132079493999,,189157,,1614901104,638807158,"""0""",12.0,0.0,12.3999996185,0.0
1614973132101316928,,189158,,1614901104,688869293,"""0""",12.0,0.0,12.3999996185,0.0
1614973132162528038,,189159,,1614901104,738896168,"""0""",12.0,0.0,12.3999996185,0.0
1614973132200818061,,189160,,1614901104,788818460,"""0""",12.0,0.0,12.3999996185,0.0
1614973132236917972,,189161,,1614901104,838791428,"""0""",12.0,0.0,12.3999996185,0.0
1614973132300268888,,189162,,1614901104,888785647,"""0""",12.0,0.0,12.3999996185,0.0
1614973132337439060,,189163,,1614901104,938943199,"""0""",12.0,0.0,12.3999996185,0.0
1614973132404221057,,189164,,1614901104,988792731,"""0""",12.0,0.0,12.3999996185,0.0
1614973132439496040,,189165,,1614901105,38784918,"""0""",12.0,0.0,12.3999996185,0.0
1614973132514389991,,189166,,1614901105,88780855,"""0""",12.0,0.0,12.3999996185,0.0
1614973132559535026,,189167,,1614901105,138793564,"""0""",12.0,0.0,12.3999996185,0.0
1614973132592150926,,189168,,1614901105,188878199,"""0""",12.0,0.0,12.3999996185,0.0
1614973132639616012,,189169,,1614901105,238879814,"""0""",12.0,0.0,12.3999996185,0.0
1614973132703470945,,189170,,1614901105,288813407,"""0""",12.0,0.0,12.3999996185,0.0
1614973132740277051,,189171,,1614901105,338798616,"""0""",12.0,0.0,12.3999996185,0.0
1614973132792359113,,189172,,1614901105,388845126,"""0""",12.0,0.0,12.3999996185,0.0
1614973132832442045,,189173,,1614901105,438792105,"""0""",12.0,1.875,12.3999996185,0.0
1614973132885663986,,189174,,1614901105,488814189,"""0""",12.0,1.375,12.3999996185,0.0
1614973132939704895,,189175,,1614901105,538795907,"""0""",12.0,2.125,12.3000001907,0.0
1614973133012252092,,189176,,1614901105,588774970,"""0""",12.0,2.375,12.3000001907,0.0
1614973133071773052,,189177,,1614901105,638795387,"""0""",12.0,3.0,12.3000001907,0.0
1614973133106683969,,189178,,1614901105,688803564,"""0""",12.0,3.125,12.1999998093,0.0
1614973133138853073,,189179,,1614901105,738939761,"""0""",12.0,3.625,12.1999998093,0.0
1614973133196508884,,189180,,1614901105,788805230,"""0""",12.0,4.0,12.1999998093,0.0
1614973133265831947,,189181,,1614901105,838868199,"""0""",12.0,4.125,12.1000003815,0.0
1614973133316544055,,189182,,1614901105,888802470,"""0""",12.0,4.125,12.1000003815,0.0
1614973133368733882,,189183,,1614901105,938830334,"""0""",12.0,3.875,12.1000003815,0.0
1614973133402667999,,189184,,1614901105,988818147,"""0""",12.0,3.75,12.0500001907,0.0
1614973133435097932,,189185,,1614901106,38772991,"""0""",12.0,4.125,12.0500001907,0.0
1614973133487831115,,189186,,1614901106,88940647,"""0""",12.0,4.125,12.0500001907,0.0
1614973133559622049,,189187,,1614901106,138815907,"""0""",12.0,4.0,12.1000003815,0.0
1614973133625823974,,189188,,1614901106,188794136,"""0""",12.0,3.875,12.1000003815,0.0
1614973133700259923,,189189,,1614901106,238817574,"""0""",12.0,4.125,12.1000003815,0.0
1614973133748780965,,189190,,1614901106,288787470,"""0""",12.0,4.25,12.1000003815,0.0
1614973133748884916,,189191,,1614901106,338867105,"""0""",12.0,4.125,12.0,0.0
1614973133788566112,,189192,,1614901106,388791532,"""0""",12.0,4.0,12.0,0.0
1614973133886879920,,189193,,1614901106,439245126,"""0""",12.0,4.0,12.0,0.0
1614973133923160076,,189194,,1614901106,488786272,"""0""",12.0,4.0,12.0500001907,0.0
1614973133954488039,,189195,,1614901106,538793719,"""0""",12.0,4.0,12.0500001907,0.0
1614973133991405963,,189196,,1614901106,588880751,"""0""",12.0,4.0,12.0500001907,0.0
1614973134110929012,,189197,,1614901106,638860751,"""0""",12.0,4.0,12.1499996185,0.0
1614973134111085891,,189198,,1614901106,688866167,"""0""",12.0,3.875,12.1499996185,0.0
1614973134178589105,,189199,,1614901106,738919188,"""0""",12.0,3.75,12.1499996185,0.0
1614973134223539113,,189200,,1614901106,788865282,"""0""",12.0,4.0,12.1000003815,0.0
1614973134257076978,,189201,,1614901106,838793928,"""0""",12.0,4.0,12.1000003815,0.0
1614973134321054935,,189202,,1614901106,888785490,"""0""",12.0,4.0,12.1000003815,0.0
1614973134355019092,,189203,,1614901106,938804657,"""0""",12.0,3.875,12.1000003815,0.0
1614973134392494916,,189204,,1614901106,988804917,"""0""",12.0,3.875,12.1000003815,0.0
1614973134455559015,,189205,,1614901107,38793615,"""0""",12.0,4.125,12.1000003815,0.0
1614973134515820026,,189206,,1614901107,88788876,"""0""",12.0,4.125,12.1000003815,0.0
1614973134557313919,,189207,,1614901107,138790178,"""0""",12.0,4.125,12.0500001907,0.0
1614973134601012945,,189208,,1614901107,188787730,"""0""",12.0,4.125,12.0500001907,0.0
1614973134666301965,,189209,,1614901107,238792417,"""0""",12.0,4.0,12.0500001907,0.0
1614973134699469089,,189210,,1614901107,288872573,"""0""",12.0,4.0,12.0500001907,0.0
1614973134758815050,,189211,,1614901107,338868407,"""0""",12.0,4.0,12.0500001907,0.0
1614973134824584007,,189212,,1614901107,388779240,"""0""",12.0,4.0,12.0500001907,0.0
1614973134864726066,,189213,,1614901107,438804709,"""0""",12.0,4.0,12.0,0.0
1614973134923384904,,189214,,1614901107,488849136,"""0""",12.0,4.0,12.0,0.0
1614973134994018077,,189215,,1614901107,538868146,"""0""",12.0,4.0,12.0,0.0
1614973135043673992,,189216,,1614901107,588825855,"""0""",12.0,4.0,12.0500001907,0.0
1614973135111032009,,189217,,1614901107,638919032,"""0""",12.0,4.0,12.0500001907,0.0
1614973135111170053,,189218,,1614901107,688784292,"""0""",12.0,4.0,12.0500001907,0.0
1614973135147835016,,189219,,1614901107,738797104,"""0""",12.0,4.0,12.0500001907,0.0
1614973135186508893,,189220,,1614901107,788785959,"""0""",12.0,4.0,12.0500001907,0.0
1614973135267615079,,189221,,1614901107,838906688,"""0""",12.0,4.0,12.0500001907,0.0
1614973135358561038,,189222,,1614901107,888807313,"""0""",12.0,4.0,12.0500001907,0.0
1614973135405004978,,189223,,1614901107,938797677,"""0""",12.0,4.0,12.1000003815,0.0
1614973135452352046,,189224,,1614901107,988775802,"""0""",12.0,4.0,12.1000003815,0.0
1614973135452637910,,189225,,1614901108,38802521,"""0""",12.0,4.0,12.1000003815,0.0
1614973135490231037,,189226,,1614901108,88794344,"""0""",12.0,4.0,12.1000003815,0.0
1614973135539685010,,189227,,1614901108,138799761,"""0""",12.0,4.0,12.1000003815,0.0
1614973135619827985,,189228,,1614901108,188774031,"""0""",12.0,4.0,12.1000003815,0.0
1614973135722001075,,189229,,1614901108,238907313,"""0""",12.0,4.0,12.1000003815,0.0
1614973135722171068,,189230,,1614901108,288882677,"""0""",12.0,4.0,12.1000003815,0.0
1614973135768201112,,189231,,1614901108,338798406,"""0""",12.0,4.0,12.1000003815,0.0
1614973135801845073,,189232,,1614901108,388826635,"""0""",12.0,4.0,12.0500001907,0.0
1614973135850102901,,189233,,1614901108,438799656,"""0""",12.0,4.0,12.0500001907,0.0
1614973135895828962,,189234,,1614901108,488863042,"""0""",12.0,4.0,12.0500001907,0.0
1614973135963886022,,189235,,1614901108,538794187,"""0""",12.0,4.0,12.0500001907,0.0
1614973136002155065,,189236,,1614901108,588878146,"""0""",12.0,4.0,12.0500001907,0.0
1614973136047179937,,189237,,1614901108,638809760,"""0""",12.0,4.0,12.0500001907,0.0
1614973136092278003,,189238,,1614901108,688891531,"""0""",12.0,4.125,12.0500001907,0.0
1614973136144397974,,189239,,1614901108,738791375,"""0""",12.0,4.125,12.1000003815,0.0
1614973136207252025,,189240,,1614901108,788827885,"""0""",12.0,4.125,12.1000003815,0.0
1614973136263297080,,189241,,1614901108,838807000,"""0""",12.0,4.125,12.1000003815,0.0
1614973136319120883,,189242,,1614901108,888786687,"""0""",12.0,4.0,12.0,0.0
1614973136355676889,,189243,,1614901108,938927000,"""0""",12.0,4.0,12.0,0.0
1614973136393054962,,189244,,1614901108,988799969,"""0""",12.0,4.0,12.0,0.0
1614973136443716049,,189245,,1614901109,38791844,"""0""",12.0,4.0,12.0500001907,0.0
1614973136488193988,,189246,,1614901109,88835073,"""0""",12.0,4.0,12.0500001907,0.0
1614973136545011997,,189247,,1614901109,138789396,"""0""",12.0,4.0,12.0500001907,0.0
1614973136613473892,,189248,,1614901109,188799500,"""0""",12.0,4.0,12.0500001907,0.0
1614973136644262075,,189249,,1614901109,239134760,"""0""",12.0,4.0,12.0500001907,0.0
1614973136698292016,,189250,,1614901109,288782156,"""0""",12.0,4.0,12.0500001907,0.0
1614973136736640930,,189251,,1614901109,338815281,"""0""",12.0,4.0,12.0,0.0
1614973136792761087,,189252,,1614901109,388801479,"""0""",12.0,4.0,12.0,0.0
1614973136858314037,,189253,,1614901109,438805125,"""0""",12.0,4.0,12.0,0.0
1614973136946244955,,189254,,1614901109,488792104,"""0""",12.0,4.0,12.0,0.0
1614973136982748985,,189255,,1614901109,540189916,"""0""",12.0,4.0,12.0,0.0
1614973136982868909,,189256,,1614901109,588793510,"""0""",12.0,4.0,12.0,0.0
1614973137039514064,,189257,,1614901109,638799239,"""0""",12.0,4.0,12.0,0.0
1614973137090615987,,189258,,1614901109,688779864,"""0""",12.0,4.0,12.1000003815,0.0
1614973137157753944,,189259,,1614901109,739035385,"""0""",12.0,4.0,12.1000003815,0.0
1614973137202409029,,189260,,1614901109,788813927,"""0""",12.0,4.0,12.1000003815,0.0
1614973137237884044,,189261,,1614901109,838819708,"""0""",12.0,4.0,12.1499996185,0.0
1614973137288552045,,189262,,1614901109,888795437,"""0""",12.0,4.0,12.1499996185,0.0
1614973137338427066,,189263,,1614901109,938793979,"""0""",12.0,4.0,12.1499996185,0.0
1614973137395690917,,189264,,1614901109,988804604,"""0""",12.0,4.0,12.1000003815,0.0
1614973137448647022,,189265,,1614901110,38848822,"""0""",12.0,4.0,12.1000003815,0.0
1614973137490118980,,189266,,1614901110,88814135,"""0""",12.0,4.0,12.1000003815,0.0
1614973137569086074,,189267,,1614901110,138804968,"""0""",12.0,4.0,12.0,0.0
1614973137622580051,,189268,,1614901110,188801791,"""0""",12.0,4.0,12.0,0.0
1614973137661169052,,189269,,1614901110,238904916,"""0""",12.0,4.0,12.0,0.0
1614973137703533887,,189270,,1614901110,288761999,"""0""",12.0,4.0,12.0,0.0
1614973137784725904,,189271,,1614901110,338986583,"""0""",12.0,4.0,12.0500001907,0.0
1614973137811904907,,189272,,1614901110,388873978,"""0""",12.0,4.0,12.0500001907,0.0
1614973137852432012,,189273,,1614901110,438849083,"""0""",12.0,4.0,12.0500001907,0.0
1614973137893639087,,189274,,1614901110,488773614,"""0""",12.0,4.0,12.0,0.0
1614973137934542894,,189275,,1614901110,538884603,"""0""",12.0,4.0,12.0,0.0
1614973138003814935,,189276,,1614901110,588775749,"""0""",12.0,4.0,12.0,0.0
1614973138045104026,,189277,,1614901110,638804760,"""0""",12.0,4.0,12.0,0.0
1614973138105952024,,189278,,1614901110,688800280,"""0""",12.0,4.0,12.0,0.0
1614973138147780895,,189279,,1614901110,738820332,"""0""",12.0,4.0,12.0,0.0
1614973138191216945,,189280,,1614901110,788873510,"""0""",11.0,4.0,12.0,0.0
1614973138243825912,,189281,,1614901110,838817832,"""0""",11.0,4.0,12.0,0.0
1614973138289628982,,189282,,1614901110,888771270,"""0""",11.0,4.0,12.0,0.0
1614973138341701984,,189283,,1614901110,938872884,"""0""",12.0,4.0,12.0,0.0
1614973138390512943,,189284,,1614901110,988824134,"""0""",12.0,4.0,12.0,0.0
1614973138437625885,,189285,,1614901111,39910437,"""0""",12.0,4.0,12.0,0.0
1614973138491868972,,189286,,1614901111,88800124,"""0""",12.0,4.0,12.0,0.0
1614973138536216020,,189287,,1614901111,138795436,"""0""",12.0,4.0,12.0500001907,0.0
1614973138596033096,,189288,,1614901111,188940905,"""0""",12.0,4.0,12.0500001907,0.0
1614973138644397974,,189289,,1614901111,238831061,"""0""",12.0,4.0,12.0500001907,0.0
1614973138703552007,,189290,,1614901111,289031895,"""0""",12.0,4.0,12.0,0.0
1614973138737977981,,189291,,1614901111,339080488,"""0""",12.0,4.0,12.0,0.0
1614973138790318012,,189292,,1614901111,388777988,"""0""",12.0,4.0,12.0,0.0
1614973138839659929,,189293,,1614901111,438911582,"""0""",12.0,4.0,12.0500001907,0.0
1614973138896251916,,189294,,1614901111,488981791,"""0""",12.0,4.0,12.0500001907,0.0
1614973138944603919,,189295,,1614901111,538857676,"""0""",12.0,4.0,12.0500001907,0.0
1614973139026756048,,189296,,1614901111,588780905,"""0""",12.0,4.0,12.0500001907,0.0
1614973139026911020,,189297,,1614901111,638910749,"""0""",12.0,4.0,12.0500001907,0.0
1614973139086307048,,189298,,1614901111,688822207,"""0""",12.0,4.0,12.0500001907,0.0
1614973139146447896,,189299,,1614901111,738794499,"""0""",12.0,4.0,12.0500001907,0.0
1614973139234437942,,189300,,1614901111,788856374,"""0""",12.0,4.0,12.0500001907,0.0
1614973139288402080,,189301,,1614901111,838823457,"""0""",12.0,4.0,12.0500001907,0.0
1614973139317125082,,189302,,1614901111,888790176,"""0""",12.0,4.0,12.0500001907,0.0
1614973139349158048,,189303,,1614901111,938791790,"""0""",12.0,4.0,12.0500001907,0.0
1614973139391246080,,189304,,1614901111,988836374,"""0""",12.0,4.0,12.0500001907,0.0
1614973139437836885,,189305,,1614901112,38821634,"""0""",12.0,4.0,12.0500001907,0.0
1614973139489119052,,189306,,1614901112,88945072,"""0""",12.0,4.0,12.0500001907,0.0
1614973139542663097,,189307,,1614901112,138899238,"""0""",12.0,4.0,12.0500001907,0.0
1614973139602833986,,189308,,1614901112,188798822,"""0""",12.0,4.875,12.0500001907,0.0
1614973139655762910,,189309,,1614901112,238804967,"""0""",12.0,5.375,11.8999996185,0.0
1614973139698137998,,189310,,1614901112,288864082,"""0""",12.0,5.375,11.8999996185,0.0
1614973139772572040,,189311,,1614901112,339046790,"""0""",12.0,5.25,11.8999996185,0.0
1614973139802999973,,189312,,1614901112,388786894,"""0""",12.0,5.375,12.0,0.0
1614973139843472957,,189313,,1614901112,438796373,"""0""",12.0,5.375,12.0,0.0
1614973139910001993,,189314,,1614901112,488760488,"""0""",12.0,5.25,12.0,0.0
1614973139945502042,,189315,,1614901112,538794915,"""0""",12.0,4.625,12.0,0.0
1614973139998397111,,189316,,1614901112,588797676,"""0""",12.0,3.875,12.0,0.0
1614973140037715911,,189317,,1614901112,639063561,"""0""",12.0,3.625,12.0,0.0
1614973140092781066,,189318,,1614901112,689056425,"""0""",12.0,3.5,12.0,0.0
1614973140145756959,,189319,,1614901112,738814446,"""0""",12.0,3.875,12.0,0.0
1614973140195525884,,189320,,1614901112,788769498,"""0""",12.0,4.0,12.0,0.0
1614973140264000892,,189321,,1614901112,838794707,"""0""",12.0,4.125,12.0,0.0
1614973140298877000,,189322,,1614901112,888807727,"""0""",12.0,4.375,11.9499998093,0.0
1614973140345454931,,189323,,1614901112,939862623,"""0""",12.0,4.5,11.9499998093,0.0
1614973140389609098,,189324,,1614901112,988784863,"""0""",12.0,4.5,11.9499998093,0.0
1614973140443049907,,189325,,1614901113,38797623,"""0""",12.0,4.5,12.0500001907,0.0
1614973140507925987,,189326,,1614901113,88804238,"""0""",12.0,4.125,12.0500001907,0.0
1614973140549884080,,189327,,1614901113,138877154,"""0""",12.0,3.75,12.0500001907,0.0
1614973140596210956,,189328,,1614901113,188764863,"""0""",12.0,3.625,12.1000003815,0.0
1614973140661092996,,189329,,1614901113,238802415,"""0""",12.0,3.25,12.1000003815,0.0
1614973140714873075,,189330,,1614901113,288857988,"""0""",12.0,3.125,12.1000003815,0.0
1614973140766345977,,189331,,1614901113,338820279,"""0""",12.0,3.625,12.0,0.0
1614973140809525012,,189332,,1614901113,388783509,"""0""",12.0,4.0,12.0,0.0
1614973140846749067,,189333,,1614901113,438793040,"""0""",12.0,4.0,12.0,0.0
1614973140895205974,,189334,,1614901113,488807311,"""0""",12.0,4.0,12.0,0.0
1614973140934981107,,189335,,1614901113,538795019,"""0""",12.0,4.25,12.0500001907,0.0
1614973141006625890,,189336,,1614901113,588795227,"""0""",12.0,4.5,12.0500001907,0.0
1614973141056262016,,189337,,1614901113,638906738,"""0""",12.0,4.625,12.0500001907,0.0
1614973141098022937,,189338,,1614901113,688882779,"""0""",12.0,5.0,11.9499998093,0.0
1614973141138866901,,189339,,1614901113,738925904,"""0""",12.0,5.5,11.9499998093,0.0
1614973141187403917,,189340,,1614901113,788868300,"""0""",12.0,5.5,11.9499998093,0.0
1614973141238241910,,189341,,1614901113,838857988,"""0""",12.0,5.25,11.8999996185,0.0
1614973141295840024,,189342,,1614901113,888805227,"""0""",12.0,5.25,11.8999996185,0.0
1614973141369556903,,189343,,1614901113,938968977,"""0""",12.0,5.5,11.8999996185,0.0
1614973141412229061,,189344,,1614901113,988884550,"""0""",12.0,5.75,11.8999996185,0.0
1614973141447146892,,189345,,1614901114,39013040,"""0""",12.0,5.625,11.8999996185,0.0
1614973141500682115,,189346,,1614901114,88870331,"""0""",12.0,5.625,11.8999996185,0.0
1614973141537458896,,189347,,1614901114,138884967,"""0""",12.0,5.625,11.8999996185,0.0
1614973141595674037,,189348,,1614901114,188790852,"""0""",12.0,5.5,11.8999996185,0.0
1614973141643157958,,189349,,1614901114,238799029,"""0""",12.0,5.5,11.8999996185,0.0
1614973141701961040,,189350,,1614901114,288781269,"""0""",12.0,5.5,11.8999996185,0.0
1614973141737956047,,189351,,1614901114,338873039,"""0""",12.0,5.625,11.8999996185,0.0
1614973141798950910,,189352,,1614901114,388800435,"""0""",12.0,5.5,11.8999996185,0.0
1614973141849877119,,189353,,1614901114,438796737,"""0""",12.0,5.25,11.8999996185,0.0
1614973141898367881,,189354,,1614901114,488864810,"""0""",12.0,5.0,11.9499998093,0.0
1614973141935602903,,189355,,1614901114,538805800,"""0""",12.0,4.875,11.9499998093,0.0
1614973142009182929,,189356,,1614901114,588800383,"""0""",12.0,4.875,11.9499998093,0.0
1614973142086348056,,189357,,1614901114,638823143,"""0""",12.0,4.625,12.0500001907,0.0
1614973142129657983,,189358,,1614901114,688848248,"""0""",12.0,4.625,12.0500001907,0.0
1614973142161842107,,189359,,1614901114,738801737,"""0""",12.0,4.625,12.0500001907,0.0
1614973142212606906,,189360,,1614901114,788785643,"""0""",12.0,4.625,11.9499998093,0.0
1614973142258451938,,189361,,1614901114,839068977,"""0""",12.0,4.5,11.9499998093,0.0
1614973142295135974,,189362,,1614901114,888786685,"""0""",12.0,4.875,11.9499998093,0.0
1614973142337846040,,189363,,1614901114,938783873,"""0""",11.0,5.5,12.0,0.0
1614973142393007993,,189364,,1614901114,988776373,"""0""",11.0,5.5,12.0,0.0
1614973142442997932,,189365,,1614901115,38966945,"""0""",11.0,5.625,12.0,0.0
1614973142496099948,,189366,,1614901115,88789341,"""0""",11.0,5.875,12.0,0.0
1614973142545496940,,189367,,1614901115,138857987,"""0""",12.0,5.625,11.8500003815,0.0
1614973142613352060,,189368,,1614901115,188784602,"""0""",12.0,5.375,11.8500003815,0.0
1614973142667696952,,189369,,1614901115,238899862,"""0""",12.0,5.375,11.8500003815,0.0
1614973142711654901,,189370,,1614901115,288764810,"""0""",12.0,5.0,11.8500003815,0.0
1614973142823803901,,189371,,1614901115,338868195,"""0""",12.0,4.25,11.8500003815,0.0
1614973142823909997,,189372,,1614901115,388808195,"""0""",12.0,4.25,11.8500003815,0.0
1614973142823935985,,189373,,1614901115,438855279,"""0""",12.0,4.5,12.0,0.0
1614973142894566059,,189374,,1614901115,489101008,"""0""",12.0,4.5,12.0,0.0
1614973142946520090,,189375,,1614901115,538799081,"""0""",12.0,4.5,12.0,0.0
1614973143000857114,,189376,,1614901115,588828976,"""0""",12.0,4.5,11.9499998093,0.0
1614973143046220064,,189377,,1614901115,638903404,"""0""",12.0,5.0,11.9499998093,0.0
1614973143098192930,,189378,,1614901115,688799445,"""0""",12.0,5.0,11.9499998093,0.0
1614973143143079042,,189379,,1614901115,738800435,"""0""",12.0,4.75,11.8999996185,0.0
1614973143197263002,,189380,,1614901115,788884341,"""0""",12.0,4.25,11.8999996185,0.0
1614973143262707948,,189381,,1614901115,838899289,"""0""",12.0,4.375,11.8999996185,0.0
1614973143306086063,,189382,,1614901115,888826945,"""0""",12.0,4.5,11.8999996185,0.0
1614973143342962980,,189383,,1614901115,938934549,"""0""",12.0,4.25,12.0,0.0
1614973143395759105,,189384,,1614901115,988844237,"""0""",12.0,4.25,12.0,0.0
1614973143471025943,,189385,,1614901116,38860955,"""0""",12.0,4.375,12.0,0.0
1614973143515475988,,189386,,1614901116,88833039,"""0""",12.0,4.625,11.9499998093,0.0
1614973143549472093,,189387,,1614901116,138896372,"""0""",12.0,4.875,11.9499998093,0.0
1614973143594764947,,189388,,1614901116,188824289,"""0""",12.0,5.125,11.9499998093,0.0
1614973143653038024,,189389,,1614901116,238869341,"""0""",12.0,4.5,12.0500001907,0.0
1614973143688368082,,189390,,1614901116,288843872,"""0""",12.0,4.75,12.0500001907,0.0
1614973143746386051,,189391,,1614901116,338798247,"""0""",12.0,5.125,12.0500001907,0.0
1614973143831727981,,189392,,1614901116,388931945,"""0""",12.0,5.5,12.0,0.0
1614973143897238969,,189393,,1614901116,438869966,"""0""",12.0,5.25,12.0,0.0
1614973143937823057,,189394,,1614901116,488793091,"""0""",12.0,5.25,12.0,0.0
1614973143988607883,,189395,,1614901116,538868559,"""0""",12.0,5.375,12.0,0.0
1614973144027561902,,189396,,1614901116,588824549,"""0""",12.0,5.75,12.0,0.0
1614973144101675033,,189397,,1614901116,638786007,"""0""",12.0,5.5,12.0,0.0
1614973144101785898,,189398,,1614901116,688811424,"""0""",12.0,4.875,12.0,0.0
1614973144142349958,,189399,,1614901116,738788455,"""0""",12.0,5.25,11.9499998093,0.0
1614973144201127052,,189400,,1614901116,788784757,"""0""",12.0,5.75,11.9499998093,0.0
1614973144244313001,,189401,,1614901116,838797986,"""0""",12.0,5.875,11.9499998093,0.0
1614973144292563915,,189402,,1614901116,888810278,"""0""",12.0,5.25,11.9499998093,0.0
1614973144348090887,,189403,,1614901116,938906945,"""0""",12.0,6.375,11.9499998093,0.0
1614973144404522895,,189404,,1614901116,988812309,"""0""",12.0,6.875,11.9499998093,0.0
1614973144450382947,,189405,,1614901117,38873299,"""0""",12.0,6.625,11.8500003815,0.0
1614973144508080005,,189406,,1614901117,88812570,"""0""",12.0,6.625,11.8500003815,0.0
1614973144553215980,,189407,,1614901117,138823611,"""0""",12.0,6.625,11.8500003815,0.0
1614973144590569972,,189408,,1614901117,188807101,"""0""",12.0,6.625,11.8999996185,0.0
1614973144677736997,,189409,,1614901117,238820695,"""0""",12.0,6.625,11.8999996185,0.0
1614973144717020034,,189410,,1614901117,288767257,"""0""",12.0,6.625,11.8999996185,0.0
1614973144768659114,,189411,,1614901117,338944705,"""0""",12.0,6.625,11.6499996185,0.0
1614973144810977935,,189412,,1614901117,388844445,"""0""",12.0,6.625,11.6499996185,0.0
1614973144857532978,,189413,,1614901117,438890695,"""0""",12.0,6.625,11.6499996185,0.0
1614973144891681909,,189414,,1614901117,488807101,"""0""",12.0,6.625,11.6499996185,0.0
1614973144945810079,,189415,,1614901117,538909861,"""0""",12.0,6.625,11.8000001907,0.0
1614973145002954959,,189416,,1614901117,588816163,"""0""",12.0,6.625,11.8000001907,0.0
1614973145046288013,,189417,,1614901117,638968872,"""0""",12.0,6.625,11.8000001907,0.0
1614973145110546112,,189418,,1614901117,688936163,"""0""",12.0,6.625,11.8000001907,0.0
1614973145145550012,,189419,,1614901117,738931371,"""0""",12.0,6.625,11.8000001907,0.0
1614973145188879966,,189420,,1614901117,788788299,"""0""",12.0,6.625,11.8000001907,0.0
1614973145252127885,,189421,,1614901117,838885434,"""0""",12.0,6.625,11.8999996185,0.0
1614973145304467916,,189422,,1614901117,888786476,"""0""",12.0,6.625,11.8999996185,0.0
1614973145347579956,,189423,,1614901117,938796371,"""0""",12.0,6.625,11.8999996185,0.0
1614973145398452997,,189424,,1614901117,988889236,"""0""",12.0,6.625,11.8500003815,0.0
1614973145450269937,,189425,,1614901118,38811736,"""0""",12.0,6.625,11.8500003815,0.0
1614973145493299961,,189426,,1614901118,88808507,"""0""",12.0,6.625,11.8500003815,0.0
1614973145545201063,,189427,,1614901118,138854757,"""0""",12.0,6.625,11.75,0.0
1614973145603044986,,189428,,1614901118,188785330,"""0""",12.0,6.625,11.75,0.0
1614973145645431995,,189429,,1614901118,238929028,"""0""",12.0,6.625,11.75,0.0
1614973145692430019,,189430,,1614901118,288828871,"""0""",12.0,6.625,11.75,0.0
1614973145751578092,,189431,,1614901118,338859027,"""0""",12.0,6.625,11.8000001907,0.0
1614973145824614048,,189432,,1614901118,388871059,"""0""",12.0,6.625,11.8000001907,0.0
1614973145932708978,,189433,,1614901118,438797986,"""0""",12.0,6.625,11.8000001907,0.0
1614973145932821035,,189434,,1614901118,488862361,"""0""",12.0,6.625,11.75,0.0
1614973145969564914,,189435,,1614901118,538893611,"""0""",12.0,6.625,11.75,0.0
1614973146012507915,,189436,,1614901118,588778090,"""0""",12.0,6.625,11.75,0.0
1614973146059093952,,189437,,1614901118,638867361,"""0""",12.0,6.625,11.8999996185,0.0
1614973146106451034,,189438,,1614901118,688945017,"""0""",12.0,6.625,11.8999996185,0.0
1614973146241206884,,189439,,1614901118,738786684,"""0""",12.0,6.5,11.8999996185,0.0
1614973146241518020,,189440,,1614901118,788782413,"""0""",12.0,6.5,11.75,0.0
1614973146279966115,,189441,,1614901118,838803819,"""0""",12.0,6.5,11.75,0.0
1614973146328629016,,189442,,1614901118,888784340,"""0""",12.0,6.5,11.75,0.0
1614973146375783920,,189443,,1614901118,938803975,"""0""",12.0,6.5,11.8000001907,0.0
1614973146423868894,,189444,,1614901118,988839704,"""0""",12.0,6.5,11.8000001907,0.0
1614973146468532085,,189445,,1614901119,38918663,"""0""",12.0,6.5,11.8000001907,0.0
1614973146535446882,,189446,,1614901119,88799913,"""0""",12.0,6.5,11.8000001907,0.0
1614973146567308902,,189447,,1614901119,138806892,"""0""",12.0,6.5,11.6999998093,0.0
1614973146602206945,,189448,,1614901119,188777413,"""0""",12.0,6.5,11.6999998093,0.0
1614973146644974946,,189449,,1614901119,238806475,"""0""",12.0,7.75,11.6999998093,0.0
1614973146696712970,,189450,,1614901119,288805642,"""0""",12.0,8.375,11.8500003815,0.0
1614973146746804952,,189451,,1614901119,338904340,"""0""",12.0,8.25,11.8500003815,0.0
1614973146810978889,,189452,,1614901119,388879652,"""0""",12.0,8.0,11.8500003815,0.0
1614973146845592975,,189453,,1614901119,438893246,"""0""",12.0,8.0,11.75,0.0
1614973146911339998,,189454,,1614901119,488883090,"""0""",12.0,7.75,11.75,0.0
1614973146947442054,,189455,,1614901119,538891683,"""0""",12.0,5.5,11.75,0.0
1614973147000452041,,189456,,1614901119,588881944,"""0""",12.0,6.25,11.75,0.0
1614973147040081024,,189457,,1614901119,639136319,"""0""",12.0,7.125,11.75,0.0
1614973147118783950,,189458,,1614901119,688851371,"""0""",12.0,7.125,11.75,0.0
1614973147148811101,,189459,,1614901119,738844652,"""0""",12.0,8.125,11.5500001907,0.0
1614973147199374914,,189460,,1614901119,788782360,"""0""",12.0,8.125,11.5500001907,0.0
1614973147244330883,,189461,,1614901119,838975485,"""0""",12.0,7.5,11.5500001907,0.0
1614973147298329114,,189462,,1614901119,888802933,"""0""",12.0,8.0,11.5500001907,0.0
1614973147367577075,,189463,,1614901119,938905589,"""0""",12.0,8.25,11.75,0.0
1614973147408431053,,189464,,1614901119,988856319,"""0""",12.0,8.125,11.75,0.0
1614973147447675943,,189465,,1614901120,38809131,"""0""",12.0,7.875,11.75,0.0
1614973147497845888,,189466,,1614901120,88803506,"""0""",12.0,8.125,11.75,0.0
1614973147546113967,,189467,,1614901120,138793558,"""0""",12.0,8.125,11.75,0.0
1614973147591095924,,189468,,1614901120,188839027,"""0""",12.0,7.75,11.75,0.0
1614973147645673036,,189469,,1614901120,238791058,"""0""",12.0,7.5,11.75,0.0
1614973147695693016,,189470,,1614901120,288806110,"""0""",12.0,6.875,11.75,0.0
1614973147750982046,,189471,,1614901120,338887412,"""0""",12.0,5.25,11.75,0.0
1614973147794380903,,189472,,1614901120,388821943,"""0""",12.0,5.125,11.8500003815,0.0
1614973147845482110,,189473,,1614901120,438813089,"""0""",12.0,4.625,11.8500003815,0.0
1614973147899717092,,189474,,1614901120,488795954,"""0""",12.0,6.0,11.8500003815,0.0
1614973147944638013,,189475,,1614901120,538919964,"""0""",12.0,6.625,11.75,0.0
1614973147994667053,,189476,,1614901120,588791579,"""0""",12.0,6.875,11.75,0.0
1614973148046467065,,189477,,1614901120,638791058,"""0""",12.0,7.75,11.75,0.0
1614973148096369028,,189478,,1614901120,688856839,"""0""",12.0,8.125,11.75,0.0
1614973148140204906,,189479,,1614901120,738797568,"""0""",12.0,7.25,11.8999996185,0.0
1614973148196655035,,189480,,1614901120,788817777,"""0""",12.0,5.875,11.8999996185,0.0
1614973148248563051,,189481,,1614901120,838793297,"""0""",12.0,4.75,11.8999996185,0.0
1614973148304860115,,189482,,1614901120,888851995,"""0""",12.0,6.25,11.8500003815,0.0
1614973148423969030,,189483,,1614901120,938895902,"""0""",12.0,6.75,11.8500003815,0.0
1614973148424097061,,189484,,1614901120,988789079,"""0""",12.0,6.375,11.8500003815,0.0
1614973148461982011,,189485,,1614901121,38856891,"""0""",12.0,7.375,11.8500003815,0.0
1614973148504497051,,189486,,1614901121,88832256,"""0""",12.0,8.25,11.8500003815,0.0
1614973148546710968,,189487,,1614901121,138894808,"""0""",12.0,7.75,11.8500003815,0.0
1614973148648955106,,189488,,1614901121,188865901,"""0""",12.0,6.75,11.75,0.0
1614973148649066925,,189489,,1614901121,238921370,"""0""",12.0,4.5,11.75,0.0
1614973148696427106,,189490,,1614901121,288776735,"""0""",12.0,3.375,11.75,0.0
1614973148747632026,,189491,,1614901121,338900224,"""0""",12.0,4.125,11.8999996185,0.0
1614973148799354076,,189492,,1614901121,388930901,"""0""",12.0,4.5,11.8999996185,0.0
1614973148881355047,,189493,,1614901121,438830745,"""0""",12.0,4.25,11.8999996185,0.0
1614973148938040971,,189494,,1614901121,488807360,"""0""",12.0,5.0,11.8999996185,0.0
1614973148987962961,,189495,,1614901121,538803349,"""0""",12.0,4.75,11.8500003815,0.0
1614973149022641897,,189496,,1614901121,588837516,"""0""",12.0,5.375,11.8500003815,0.0
1614973149060127019,,189497,,1614901121,638849807,"""0""",12.0,5.5,11.8500003815,0.0
1614973149105762004,,189498,,1614901121,688788141,"""0""",12.0,3.375,12.0,0.0
1614973149150093078,,189499,,1614901121,738922880,"""0""",12.0,3.375,12.0,0.0
1614973149201498985,,189500,,1614901121,788805953,"""0""",12.0,5.0,12.0,0.0
1614973149258255004,,189501,,1614901121,839023245,"""0""",12.0,3.875,12.0,0.0
1614973149300046920,,189502,,1614901121,888791891,"""0""",12.0,5.25,12.0,0.0
1614973149346445083,,189503,,1614901121,938898401,"""0""",12.0,4.875,12.0,0.0
1614973149403450965,,189504,,1614901121,988825641,"""0""",12.0,5.0,11.9499998093,0.0
1614973149458887100,,189505,,1614901122,38783349,"""0""",12.0,5.75,11.9499998093,0.0
1614973149502171039,,189506,,1614901122,88832516,"""0""",12.0,5.625,11.9499998093,0.0
1614973149545649051,,189507,,1614901122,138853193,"""0""",12.0,5.0,12.0,0.0
1614973149594501972,,189508,,1614901122,188779026,"""0""",12.0,4.75,12.0,0.0
1614973149640588998,,189509,,1614901122,238877776,"""0""",12.0,7.0,12.0,0.0
1614973149696228981,,189510,,1614901122,288795224,"""0""",12.0,6.25,12.0,0.0
1614973149754314899,,189511,,1614901122,338842463,"""0""",12.0,6.625,11.8000001907,0.0
1614973149853092908,,189512,,1614901122,388809963,"""0""",12.0,6.0,11.8000001907,0.0
1614973149853462934,,189513,,1614901122,438794182,"""0""",12.0,4.75,11.8000001907,0.0
1614973149902117967,,189514,,1614901122,488752203,"""0""",12.0,3.875,12.0,0.0
1614973149960398912,,189515,,1614901122,538878922,"""0""",12.0,6.125,12.0,0.0
1614973150003356933,,189516,,1614901122,588838297,"""0""",12.0,6.625,12.0,0.0
1614973150067460060,,189517,,1614901122,638777515,"""0""",12.0,5.375,11.8500003815,0.0
1614973150102663993,,189518,,1614901122,688802620,"""0""",12.0,5.375,11.8500003815,0.0
1614973150147835969,,189519,,1614901122,738902567,"""0""",12.0,5.0,11.8500003815,0.0
1614973150195689916,,189520,,1614901122,788901317,"""0""",12.0,6.5,11.6999998093,0.0
1614973150262836933,,189521,,1614901122,838883505,"""0""",12.0,8.125,11.6999998093,0.0
1614973150300282955,,189522,,1614901122,888894963,"""0""",12.0,8.5,11.6999998093,0.0
1614973150410193920,,189523,,1614901122,938783974,"""0""",12.0,8.625,11.6000003815,0.0
1614973150410301923,,189524,,1614901122,988802463,"""0""",12.0,8.625,11.6000003815,0.0
1614973150462551116,,189525,,1614901123,38741838,"""0""",12.0,7.5,11.6000003815,0.0
1614973150519109010,,189526,,1614901123,88820953,"""0""",12.0,6.125,11.6000003815,0.0
1614973150599792003,,189527,,1614901123,138773244,"""0""",12.0,5.0,11.8999996185,0.0
1614973150599919080,,189528,,1614901123,188805119,"""0""",12.0,6.0,11.8999996185,0.0
1614973150643045902,,189529,,1614901123,238799494,"""0""",12.0,7.375,11.8999996185,0.0
1614973150714864969,,189530,,1614901123,289139442,"""0""",12.0,7.375,11.6999998093,0.0
1614973150750061035,,189531,,1614901123,338830640,"""0""",12.0,6.75,11.6999998093,0.0
1614973150802145957,,189532,,1614901123,388799234,"""0""",12.0,5.75,11.6999998093,0.0
1614973150844896078,,189533,,1614901123,438778609,"""0""",12.0,7.0,11.75,0.0
1614973150904010057,,189534,,1614901123,488818192,"""0""",12.0,5.375,11.75,0.0
1614973151013075113,,189535,,1614901123,538810171,"""0""",12.0,5.375,11.75,0.0
1614973151013187885,,189536,,1614901123,588789859,"""0""",12.0,6.75,11.8500003815,0.0
1614973151054548025,,189537,,1614901123,638801525,"""0""",12.0,5.25,11.8500003815,0.0
1614973151101757049,,189538,,1614901123,688922255,"""0""",12.0,5.875,11.8500003815,0.0
1614973151146756887,,189539,,1614901123,738763817,"""0""",12.0,5.875,11.8999996185,0.0
1614973151197071075,,189540,,1614901123,788791734,"""0""",12.0,5.25,11.8999996185,0.0
1614973151240065097,,189541,,1614901123,838790432,"""0""",12.0,7.75,11.8999996185,0.0
1614973151282470941,,189542,,1614901123,888895015,"""0""",12.0,8.625,11.8999996185,0.0
1614973151343497991,,189543,,1614901123,938774911,"""0""",12.0,8.875,11.6999998093,0.0
1614973151395581960,,189544,,1614901123,988813192,"""0""",12.0,7.625,11.6999998093,0.0
1614973151445257902,,189545,,1614901124,38875952,"""0""",12.0,6.625,11.6999998093,0.0
1614973151493146896,,189546,,1614901124,88788713,"""0""",12.0,7.5,11.6999998093,0.0
1614973151559230089,,189547,,1614901124,138813765,"""0""",12.0,7.125,11.6999998093,0.0
1614973151646771907,,189548,,1614901124,188780588,"""0""",12.0,8.5,11.6999998093,0.0
1614973151749241113,,189549,,1614901124,238777984,"""0""",12.0,8.875,11.5500001907,0.0
1614973151749511003,,189550,,1614901124,288875848,"""0""",12.0,8.125,11.5500001907,0.0
1614973151749537944,,189551,,1614901124,338777879,"""0""",12.0,6.0,11.5500001907,0.0
1614973151790966033,,189552,,1614901124,388864338,"""0""",12.0,6.25,11.75,0.0
1614973151846026897,,189553,,1614901124,438777359,"""0""",12.0,6.0,11.75,0.0
1614973151893661975,,189554,,1614901124,488817306,"""0""",12.0,6.0,11.75,0.0
1614973151943573951,,189555,,1614901124,538810848,"""0""",12.0,7.25,11.75,0.0
1614973151993016958,,189556,,1614901124,588796733,"""0""",12.0,6.5,11.75,0.0
1614973152045666933,,189557,,1614901124,638795171,"""0""",12.0,7.125,11.75,0.0
1614973152089788913,,189558,,1614901124,688876317,"""0""",12.0,7.25,11.75,0.0
1614973152144112110,,189559,,1614901124,738815379,"""0""",12.0,3.625,12.0,0.0
1614973152194631099,,189560,,1614901124,788800483,"""0""",12.0,3.875,12.0,0.0
1614973152244237899,,189561,,1614901124,838840848,"""0""",12.0,5.625,12.0,0.0
1614973152292256116,,189562,,1614901124,888771421,"""0""",12.0,6.125,11.8000001907,0.0
1614973152345973014,,189563,,1614901124,938854077,"""0""",12.0,7.25,11.8000001907,0.0
1614973152391443967,,189564,,1614901124,988873712,"""0""",12.0,7.0,11.8000001907,0.0
1614973152458734035,,189565,,1614901125,38805535,"""0""",12.0,7.5,11.6999998093,0.0
1614973152527853012,,189566,,1614901125,88764337,"""0""",12.0,8.0,11.6999998093,0.0
1614973152569622993,,189567,,1614901125,138794285,"""0""",12.0,8.375,11.6999998093,0.0
1614973152610718011,,189568,,1614901125,188938764,"""0""",12.0,8.375,11.6499996185,0.0
1614973152662308931,,189569,,1614901125,238812150,"""0""",12.0,8.375,11.6499996185,0.0
1614973152699269056,,189570,,1614901125,289045587,"""0""",12.0,7.75,11.6499996185,0.0
1614973152758609056,,189571,,1614901125,338922254,"""0""",12.0,7.375,11.6999998093,0.0
1614973152867165088,,189572,,1614901125,389070014,"""0""",12.0,6.875,11.6999998093,0.0
1614973152867270946,,189573,,1614901125,438795744,"""0""",12.0,7.5,11.6999998093,0.0
1614973152900834083,,189574,,1614901125,488963921,"""0""",12.0,5.0,11.6999998093,0.0
1614973152948389053,,189575,,1614901125,538819858,"""0""",12.0,4.0,12.0500001907,0.0
1614973152990274906,,189576,,1614901125,588829129,"""0""",12.0,6.25,12.0500001907,0.0
1614973153044235944,,189577,,1614901125,638792671,"""0""",12.0,6.875,12.0500001907,0.0
1614973153118896007,,189578,,1614901125,689036212,"""0""",12.0,7.5,11.6999998093,0.0
1614973153154463052,,189579,,1614901125,738773504,"""0""",12.0,5.125,11.6999998093,0.0
1614973153209496021,,189580,,1614901125,788860014,"""0""",12.0,5.5,11.6999998093,0.0
1614973153255872964,,189581,,1614901125,838791577,"""0""",12.0,6.0,11.8500003815,0.0
1614973153308336019,,189582,,1614901125,888835900,"""0""",12.0,4.5,11.8500003815,0.0
1614973153426220893,,189583,,1614901125,938775118,"""0""",12.0,6.0,11.8500003815,0.0
1614973153426600933,,189584,,1614901125,988836785,"""0""",12.0,5.75,11.8500003815,0.0
1614973153457971096,,189585,,1614901126,38871941,"""0""",12.0,5.625,11.8500003815,0.0
1614973153490889072,,189586,,1614901126,88818660,"""0""",12.0,5.625,11.8500003815,0.0
1614973153553606986,,189587,,1614901126,138832566,"""0""",12.0,2.0,12.25,0.0
1614973153596518039,,189588,,1614901126,188842202,"""0""",12.0,0.0,12.25,0.0
1614973153648367881,,189589,,1614901126,238792306,"""0""",12.0,0.0,12.25,0.0
1614973153703716039,,189590,,1614901126,288883087,"""0""",12.0,0.0,12.25,0.0
1614973153748830080,,189591,,1614901126,338778035,"""0""",12.0,0.0,12.25,0.0
1614973153790947914,,189592,,1614901126,388944597,"""0""",12.0,0.0,12.25,0.0
1614973153840784072,,189593,,1614901126,438765014,"""0""",12.0,0.0,12.25,0.0
1614973153891859054,,189594,,1614901126,488799129,"""0""",12.0,0.0,12.25,0.0
1614973153948607921,,189595,,1614901126,538802097,"""0""",12.0,0.0,12.25,0.0
1614973154020271062,,189596,,1614901126,588802983,"""0""",12.0,0.0,12.25,0.0
1614973154056001901,,189597,,1614901126,638765378,"""0""",12.0,0.0,12.25,0.0
1614973154099793910,,189598,,1614901126,688837670,"""0""",12.0,0.0,12.25,0.0
1614973154145886898,,189599,,1614901126,738780378,"""0""",12.0,0.0,12.25,0.0
1614973154219188928,,189600,,1614901126,788795483,"""0""",12.0,0.0,12.25,0.0
1614973154302536964,,189601,,1614901126,838768816,"""0""",12.0,0.0,12.25,0.0
1614973154302772045,,189602,,1614901126,888814597,"""0""",12.0,0.0,12.25,0.0
1614973154343305110,,189603,,1614901126,938808660,"""0""",12.0,0.0,12.25,0.0
1614973154394035100,,189604,,1614901126,988789858,"""0""",12.0,0.0,12.25,0.0
1614973154445477962,,189605,,1614901127,38771055,"""0""",12.0,0.0,12.25,0.0
1614973154497102022,,189606,,1614901127,88818295,"""0""",12.0,0.0,12.25,0.0
1614973154555480957,,189607,,1614901127,138789493,"""0""",13.0,0.125,12.25,0.0
1614973154601849079,,189608,,1614901127,188793555,"""0""",13.0,0.0,12.25,0.0
1614973154648051977,,189609,,1614901127,238804128,"""0""",13.0,0.0,12.25,0.0
1614973154698832035,,189610,,1614901127,288792722,"""0""",13.0,0.0,12.25,0.0
1614973154768763065,,189611,,1614901127,338831784,"""0""",13.0,0.0,12.25,0.0
1614973154806335926,,189612,,1614901127,388796472,"""0""",13.0,0.0,12.25,0.0
1614973154875650882,,189613,,1614901127,438816264,"""0""",13.0,0.0,12.25,0.0
1614973154916455030,,189614,,1614901127,488791316,"""0""",13.0,0.0,12.25,0.0
1614973154961199045,,189615,,1614901127,538795534,"""0""",13.0,0.0,12.25,0.0
1614973155044003009,,189616,,1614901127,589948972,"""0""",13.0,0.0,12.25,0.0
1614973155108175992,,189617,,1614901127,638791107,"""0""",13.0,0.0,12.25,0.0
1614973155108364105,,189618,,1614901127,688911472,"""0""",13.0,0.0,12.25,0.0
1614973155171581029,,189619,,1614901127,738777513,"""0""",13.0,0.0,12.25,0.0
1614973155220211982,,189620,,1614901127,788858243,"""0""",13.0,0.0,12.25,0.0
1614973155268800020,,189621,,1614901127,838771211,"""0""",13.0,0.0,12.25,0.0
1614973155313802957,,189622,,1614901127,888804909,"""0""",13.0,0.0,12.25,0.0
1614973155353480100,,189623,,1614901127,938779597,"""0""",13.0,0.0,12.25,0.0
1614973155407928943,,189624,,1614901127,988794857,"""0""",13.0,0.0,12.25,0.0
1614973155504882097,,189625,,1614901128,38787149,"""0""",13.0,0.0,12.25,0.0
1614973155505033016,,189626,,1614901128,88799284,"""0""",13.0,0.0,12.25,0.0
1614973155548511028,,189627,,1614901128,138771993,"""0""",13.0,0.0,12.25,0.0
1614973155601119995,,189628,,1614901128,188791732,"""0""",13.0,0.0,12.25,0.0
1614973155676548957,,189629,,1614901128,238811159,"""0""",13.0,0.125,12.25,0.0
1614973155720101118,,189630,,1614901128,288836940,"""0""",13.0,0.125,12.25,0.0
1614973155771872043,,189631,,1614901128,338834701,"""0""",13.0,0.0,12.25,0.0
1614973155812427997,,189632,,1614901128,388797513,"""0""",13.0,0.125,12.25,0.0
1614973155847884893,,189633,,1614901128,438782253,"""0""",13.0,0.0,12.25,0.0
1614973155895064115,,189634,,1614901128,488789597,"""0""",13.0,0.0,12.25,0.0
1614973155952775001,,189635,,1614901128,538782669,"""0""",13.0,0.0,12.25,0.0
1614973156019857883,,189636,,1614901128,588848607,"""0""",13.0,0.0,12.25,0.0
1614973156072518110,,189637,,1614901128,638781315,"""0""",13.0,0.0,12.25,0.0
1614973156170682907,,189638,,1614901128,688870742,"""0""",13.0,0.0,12.25,0.0
1614973156170788049,,189639,,1614901128,738793086,"""0""",13.0,0.125,12.3000001907,0.0
1614973156230859041,,189640,,1614901128,788847774,"""0""",13.0,0.0,12.3000001907,0.0
1614973156275557041,,189641,,1614901128,838816784,"""0""",13.0,0.0,12.3000001907,0.0
1614973156311033010,,189642,,1614901128,888874076,"""0""",13.0,0.0,12.3000001907,0.0
1614973156372704029,,189643,,1614901128,938754857,"""0""",13.0,0.0,12.3000001907,0.0
1614973156432835102,,189644,,1614901128,988910846,"""0""",13.0,0.0,12.3000001907,0.0
1614973156488504886,,189645,,1614901129,38782096,"""0""",13.0,0.0,12.3000001907,0.0
1614973156547960042,,189646,,1614901129,88882253,"""0""",13.0,0.0,12.3000001907,0.0
1614973156589618921,,189647,,1614901129,138896315,"""0""",13.0,0.0,12.3000001907,0.0
1614973156626512050,,189648,,1614901129,188839857,"""0""",13.0,0.0,12.3000001907,0.0
1614973156679114103,,189649,,1614901129,239001159,"""0""",13.0,0.0,12.3000001907,0.0
1614973156789983034,,189650,,1614901129,288842044,"""0""",13.0,0.0,12.3000001907,0.0
1614973156790139913,,189651,,1614901129,338799127,"""0""",13.0,0.0,12.3000001907,0.0
1614973156839829921,,189652,,1614901129,388843450,"""0""",13.0,0.0,12.3000001907,0.0
1614973156887511968,,189653,,1614901129,438895169,"""0""",13.0,0.0,12.3000001907,0.0
1614973156938967943,,189654,,1614901129,488779023,"""0""",13.0,0.0,12.3000001907,0.0
1614973156978563070,,189655,,1614901129,538837565,"""0""",13.0,0.0,12.3000001907,0.0
1614973157027368068,,189656,,1614901129,588799232,"""0""",13.0,0.0,12.3000001907,0.0
1614973157144548892,,189657,,1614901129,638840065,"""0""",13.0,0.0,12.3000001907,0.0
1614973157144656896,,189658,,1614901129,688767513,"""0""",13.0,0.0,12.3000001907,0.0
1614973157190839052,,189659,,1614901129,738912200,"""0""",13.0,0.0,12.3000001907,0.0
1614973157248130083,,189660,,1614901129,789086263,"""0""",13.0,0.0,12.3000001907,0.0
1614973157299149036,,189661,,1614901129,838792409,"""0""",13.0,0.0,12.3000001907,0.0
1614973157342092990,,189662,,1614901129,888782304,"""0""",13.0,0.0,12.3000001907,0.0
1614973157393244981,,189663,,1614901129,938921367,"""0""",13.0,0.125,12.3000001907,0.0
1614973157439062118,,189664,,1614901129,988785794,"""0""",13.0,0.125,12.3000001907,0.0
1614973157512567043,,189665,,1614901130,38811315,"""0""",13.0,0.0,12.3000001907,0.0
1614973157512711048,,189666,,1614901130,88855690,"""0""",13.0,0.0,12.3000001907,0.0
1614973157594294071,,189667,,1614901130,138906783,"""0""",13.0,0.0,12.3000001907,0.0
1614973157631500959,,189668,,1614901130,188847773,"""0""",13.0,0.0,12.3000001907,0.0
1614973157680838108,,189669,,1614901130,238891158,"""0""",13.0,0.0,12.3000001907,0.0
1614973157720284938,,189670,,1614901130,288799856,"""0""",13.0,0.0,12.3000001907,0.0
1614973157774930000,,189671,,1614901130,338801106,"""0""",13.0,0.0,12.3000001907,0.0
1614973157822042942,,189672,,1614901130,388851054,"""0""",13.0,0.0,12.3000001907,0.0
1614973157888577938,,189673,,1614901130,438920637,"""0""",13.0,0.0,12.3000001907,0.0
1614973157950198888,,189674,,1614901130,488798190,"""0""",13.0,0.0,12.3000001907,0.0
1614973158000878095,,189675,,1614901130,538809387,"""0""",13.0,0.0,12.3000001907,0.0
1614973158081124067,,189676,,1614901130,588841627,"""0""",13.0,0.0,12.3000001907,0.0
1614973158081286907,,189677,,1614901130,638798189,"""0""",13.0,0.0,12.3000001907,0.0
1614973158175484895,,189678,,1614901130,688805533,"""0""",13.0,0.0,12.3000001907,0.0
1614973158219639062,,189679,,1614901130,738796106,"""0""",13.0,0.0,12.3000001907,0.0
1614973158219753026,,189680,,1614901130,788778814,"""0""",13.0,0.0,12.3000001907,0.0
1614973158268352031,,189681,,1614901130,838828085,"""0""",13.0,0.0,12.3000001907,0.0
1614973158315911054,,189682,,1614901130,888777304,"""0""",13.0,0.0,12.3000001907,0.0
1614973158374583005,,189683,,1614901130,938910064,"""0""",13.0,0.0,12.3000001907,0.0
1614973158434217929,,189684,,1614901130,988795533,"""0""",13.0,0.125,12.3000001907,0.0
1614973158488701105,,189685,,1614901131,38884335,"""0""",13.0,0.0,12.3000001907,0.0
1614973158520775079,,189686,,1614901131,88780012,"""0""",13.0,0.0,12.3000001907,0.0
1614973158583709001,,189687,,1614901131,138798710,"""0""",13.0,0.0,12.3000001907,0.0
1614973158663708925,,189688,,1614901131,188790533,"""0""",13.0,0.0,12.3000001907,0.0
1614973158663845062,,189689,,1614901131,238810950,"""0""",13.0,0.0,12.3000001907,0.0
1614973158704216003,,189690,,1614901131,288875116,"""0""",13.0,0.0,12.3000001907,0.0
1614973158807817935,,189691,,1614901131,338803814,"""0""",13.0,0.0,12.3000001907,0.0
1614973158807924985,,189692,,1614901131,388796731,"""0""",13.0,0.0,12.3000001907,0.0
1614973158853235006,,189693,,1614901131,438851106,"""0""",13.0,0.0,12.3000001907,0.0
1614973158909064054,,189694,,1614901131,488847147,"""0""",13.0,0.0,12.3000001907,0.0
1614973158952208042,,189695,,1614901131,538804231,"""0""",13.0,0.0,12.3000001907,0.0
1614973158999947071,,189696,,1614901131,588847356,"""0""",13.0,0.0,12.3000001907,0.0
1614973159067554950,,189697,,1614901131,638803710,"""0""",13.0,0.0,12.3000001907,0.0
1614973159119402885,,189698,,1614901131,688801783,"""0""",13.0,0.0,12.3000001907,0.0
1614973159156229972,,189699,,1614901131,738830168,"""0""",13.0,0.0,12.3000001907,0.0
1614973159209745883,,189700,,1614901131,788786054,"""0""",13.0,0.0,12.3000001907,0.0
1614973159258126020,,189701,,1614901131,838878397,"""0""",13.0,0.0,12.3000001907,0.0
1614973159308496952,,189702,,1614901131,888827772,"""0""",13.0,0.0,12.3000001907,0.0
1614973159350493907,,189703,,1614901131,938795741,"""0""",13.0,0.0,12.3000001907,0.0
1614973159402813911,,189704,,1614901131,988801887,"""0""",13.0,0.0,12.3000001907,0.0
1614973159449004888,,189705,,1614901132,38875429,"""0""",13.0,0.0,12.3000001907,0.0
1614973159520836114,,189706,,1614901132,88804126,"""0""",13.0,0.0,12.3000001907,0.0
1614973159562979936,,189707,,1614901132,138952251,"""0""",13.0,0.0,12.3000001907,0.0
1614973159625715017,,189708,,1614901132,188824647,"""0""",13.0,0.0,12.3000001907,0.0
1614973159695795059,,189709,,1614901132,238804126,"""0""",13.0,0.0,12.3000001907,0.0
1614973159731941938,,189710,,1614901132,288781522,"""0""",13.0,0.0,12.3000001907,0.0
1614973159770068883,,189711,,1614901132,338792564,"""0""",13.0,0.0,12.3000001907,0.0
1614973159817275047,,189712,,1614901132,388848449,"""0""",13.0,0.0,12.3000001907,0.0
1614973159873894929,,189713,,1614901132,438832460,"""0""",13.0,0.0,12.3000001907,0.0
1614973159928996086,,189714,,1614901132,488777876,"""0""",13.0,0.0,12.3000001907,0.0
1614973159993999958,,189715,,1614901132,538791730,"""0""",13.0,0.0,12.3000001907,0.0
1614973160040496110,,189716,,1614901132,588782147,"""0""",13.0,0.0,12.3000001907,0.0
1614973160094837903,,189717,,1614901132,638878657,"""0""",13.0,0.0,12.3000001907,0.0
1614973160144380092,,189718,,1614901132,688822303,"""0""",13.0,0.0,12.3000001907,0.0
1614973160189158916,,189719,,1614901132,738810272,"""0""",13.0,0.0,12.3000001907,0.0
1614973160281687021,,189720,,1614901132,788795064,"""0""",13.0,0.0,12.3000001907,0.0
1614973160281795024,,189721,,1614901132,838820845,"""0""",13.0,0.0,12.3000001907,0.0
1614973160319375991,,189722,,1614901132,888817616,"""0""",13.0,0.0,12.3000001907,0.0
1614973160374444007,,189723,,1614901132,938814959,"""0""",13.0,0.0,12.3000001907,0.0
1614973160429800987,,189724,,1614901132,988781470,"""0""",13.0,0.0,12.3000001907,0.0
1614973160469271898,,189725,,1614901133,39472251,"""0""",13.0,0.0,12.3000001907,0.0
1614973160554668903,,189726,,1614901133,88800949,"""0""",13.0,0.0,12.3000001907,0.0
1614973160554934024,,189727,,1614901133,138814907,"""0""",13.0,0.0,12.3000001907,0.0
1614973160619168996,,189728,,1614901133,188851991,"""0""",13.0,0.0,12.3500003815,0.0
1614973160671519041,,189729,,1614901133,238809803,"""0""",13.0,0.0,12.3500003815,0.0
1614973160717833995,,189730,,1614901133,288855688,"""0""",13.0,0.0,12.3500003815,0.0
1614973160751701116,,189731,,1614901133,338870168,"""0""",13.0,0.0,12.3000001907,0.0
1614973160791975021,,189732,,1614901133,388781157,"""0""",13.0,0.0,12.3000001907,0.0
1614973160846589088,,189733,,1614901133,438829751,"""0""",13.0,0.0,12.3000001907,0.0
1614973160904376983,,189734,,1614901133,488805949,"""0""",13.0,0.0,12.3000001907,0.0
1614973160951066017,,189735,,1614901133,538851470,"""0""",13.0,0.0,12.3500003815,0.0
1614973161006516933,,189736,,1614901133,588878084,"""0""",13.0,0.0,12.3500003815,0.0
1614973161055373907,,189737,,1614901133,638862251,"""0""",13.0,0.0,12.3500003815,0.0
1614973161136842966,,189738,,1614901133,688794855,"""0""",13.0,0.0,12.3500003815,0.0
1614973161200797080,,189739,,1614901133,738870376,"""0""",13.0,0.0,12.3500003815,0.0
1614973161264744043,,189740,,1614901133,788852772,"""0""",13.0,0.0,12.3500003815,0.0
1614973161264847040,,189741,,1614901133,838851522,"""0""",13.0,0.0,12.3500003815,0.0
1614973161294802904,,189742,,1614901133,888812147,"""0""",13.0,0.0,12.3500003815,0.0
1614973161360253095,,189743,,1614901133,938817511,"""0""",13.0,0.0,12.3500003815,0.0
1614973161399574041,,189744,,1614901133,988752876,"""0""",13.0,0.0,12.3500003815,0.0
1614973161487641096,,189745,,1614901134,38804751,"""0""",13.0,0.0,12.3500003815,0.0
1614973161540278911,,189746,,1614901134,88803761,"""0""",13.0,0.0,12.3500003815,0.0
1614973161608911991,,189747,,1614901134,138812511,"""0""",13.0,0.0,12.3500003815,0.0
1614973161609020948,,189748,,1614901134,188802563,"""0""",13.0,0.0,12.3500003815,0.0
1614973161644742965,,189749,,1614901134,238827719,"""0""",13.0,0.0,12.3500003815,0.0
1614973161703861951,,189750,,1614901134,288792876,"""0""",13.0,0.0,12.3500003815,0.0
1614973161757909059,,189751,,1614901134,338795844,"""0""",13.0,0.0,12.3500003815,0.0
1614973161819258928,,189752,,1614901134,388951730,"""0""",13.0,0.0,12.3500003815,0.0
1614973161862692117,,189753,,1614901134,438798396,"""0""",13.0,0.0,12.3500003815,0.0
1614973161906972885,,189754,,1614901134,488873657,"""0""",13.0,0.125,12.3500003815,0.0
1614973161944397926,,189755,,1614901134,538960636,"""0""",13.0,0.0,12.3500003815,0.0
1614973162006062984,,189756,,1614901134,588811678,"""0""",13.0,0.0,12.3500003815,0.0
1614973162638309955,,189757,,1614901134,638863344,"""0""",13.0,0.0,12.3500003815,0.0
1614973162638422012,,189758,,1614901134,688949646,"""0""",13.0,0.0,12.3500003815,0.0
