rosbagTimestamp,header,seq,stamp,secs,nsecs,frame_id,Temperature,OutputCurrent,BusVoltage,ClosedLoopError
1614972173749082088,,169992,,1614900146,388771013,"""0""",13.0,0.0,12.3999996185,0.0
1614972173804203987,,169993,,1614900146,438780232,"""0""",13.0,0.0,12.3999996185,0.0
1614972173849244117,,169994,,1614900146,488853044,"""0""",13.0,0.0,12.3999996185,0.0
1614972173906003952,,169995,,1614900146,538777419,"""0""",13.0,0.0,12.3999996185,0.0
1614972173949886083,,169996,,1614900146,588820336,"""0""",13.0,0.0,12.3999996185,0.0
1614972174009565114,,169997,,1614900146,638784138,"""0""",13.0,0.0,12.3999996185,0.0
1614972174050009965,,169998,,1614900146,688764606,"""0""",13.0,0.0,12.3999996185,0.0
1614972174105879068,,169999,,1614900146,738810336,"""0""",13.0,0.0,12.3999996185,0.0
1614972174151380062,,170000,,1614900146,788762315,"""0""",13.0,0.0,12.3999996185,0.0
1614972174209186077,,170001,,1614900146,838804138,"""0""",13.0,0.0,12.3999996185,0.0
1614972174256464004,,170002,,1614900146,888769502,"""0""",13.0,0.0,12.3999996185,0.0
1614972174315207958,,170003,,1614900146,938824606,"""0""",13.0,0.0,12.3999996185,0.0
1614972174357820034,,170004,,1614900146,988776950,"""0""",13.0,0.0,12.3999996185,0.0
1614972174419456005,,170005,,1614900147,38815648,"""0""",13.0,0.0,12.3999996185,0.0
1614972174456789970,,170006,,1614900147,88811950,"""0""",13.0,0.0,12.3999996185,0.0
1614972174515479087,,170007,,1614900147,138728669,"""0""",13.0,0.0,12.3999996185,0.0
1614972174551276922,,170008,,1614900147,188816585,"""0""",13.0,0.0,12.3999996185,0.0
1614972174608190059,,170009,,1614900147,238751065,"""0""",13.0,0.0,12.3999996185,0.0
1614972174655514001,,170010,,1614900147,288821273,"""0""",13.0,0.0,12.3999996185,0.0
1614972174715888977,,170011,,1614900147,338807419,"""0""",13.0,0.0,12.3999996185,0.0
1614972174761496067,,170012,,1614900147,389015960,"""0""",13.0,0.0,12.3999996185,0.0
1614972174818111896,,170013,,1614900147,438816585,"""0""",13.0,0.0,12.3999996185,0.0
1614972174864332914,,170014,,1614900147,488781012,"""0""",13.0,0.0,12.3999996185,0.0
1614972174918221950,,170015,,1614900147,538901117,"""0""",13.0,0.0,12.3999996185,0.0
1614972174962122917,,170016,,1614900147,588830648,"""0""",13.0,0.0,12.3999996185,0.0
1614972175022825002,,170017,,1614900147,638770231,"""0""",13.0,0.0,12.3999996185,0.0
1614972175058394908,,170018,,1614900147,688783200,"""0""",13.0,0.0,12.3999996185,0.0
1614972175118578910,,170019,,1614900147,738779502,"""0""",13.0,0.0,12.3999996185,0.0
1614972175162688016,,170020,,1614900147,788768356,"""0""",13.0,0.0,12.3999996185,0.0
1614972175211488962,,170021,,1614900147,838782679,"""0""",13.0,0.0,12.3999996185,0.0
1614972175268423080,,170022,,1614900147,888892679,"""0""",13.0,0.0,12.3999996185,0.0
1614972175313627958,,170023,,1614900147,938780752,"""0""",13.0,0.0,12.3999996185,0.0
1614972175358781099,,170024,,1614900147,988798460,"""0""",13.0,0.0,12.3999996185,0.0
1614972175417468070,,170025,,1614900148,38764606,"""0""",13.0,0.0,12.3999996185,0.0
1614972175466072082,,170026,,1614900148,88857158,"""0""",13.0,0.0,12.3999996185,0.0
1614972175520761966,,170027,,1614900148,138849606,"""0""",13.0,0.0,12.3999996185,0.0
1614972175568952083,,170028,,1614900148,188771325,"""0""",13.0,0.0,12.3999996185,0.0
1614972175622410058,,170029,,1614900148,238756793,"""0""",13.0,0.0,12.3999996185,0.0
1614972175668343067,,170030,,1614900148,288857418,"""0""",13.0,0.0,12.3999996185,0.0
1614972175718064069,,170031,,1614900148,338762106,"""0""",13.0,0.0,12.3999996185,0.0
1614972175765733003,,170032,,1614900148,388768252,"""0""",13.0,0.0,12.3999996185,0.0
1614972175821722030,,170033,,1614900148,438768720,"""0""",13.0,0.0,12.3999996185,0.0
1614972175864984989,,170034,,1614900148,489021950,"""0""",13.0,0.0,12.3999996185,0.0
1614972175931472063,,170035,,1614900148,538882679,"""0""",13.0,0.0,12.3999996185,0.0
1614972175968811035,,170036,,1614900148,588851481,"""0""",13.0,0.0,12.3999996185,0.0
1614972176015547990,,170037,,1614900148,638756897,"""0""",13.0,0.0,12.3999996185,0.0
1614972176064415931,,170038,,1614900148,688823981,"""0""",13.0,0.0,12.3999996185,0.0
1614972176122464895,,170039,,1614900148,738839397,"""0""",13.0,0.0,12.3999996185,0.0
1614972176166948080,,170040,,1614900148,789093720,"""0""",13.0,0.0,12.3999996185,0.0
1614972176218166112,,170041,,1614900148,838867991,"""0""",13.0,0.0,12.3999996185,0.0
1614972176265496015,,170042,,1614900148,890055699,"""0""",13.0,0.0,12.3999996185,0.0
1614972176318466901,,170043,,1614900148,938787679,"""0""",13.0,0.0,12.3999996185,0.0
1614972176366153955,,170044,,1614900148,989297679,"""0""",13.0,0.0,12.3999996185,0.0
1614972176422442913,,170045,,1614900149,38804137,"""0""",13.0,0.0,12.3999996185,0.0
1614972176465928077,,170046,,1614900149,88781897,"""0""",13.0,0.0,12.3999996185,0.0
1614972176534130096,,170047,,1614900149,138766637,"""0""",13.0,0.0,12.3999996185,0.0
1614972176568147897,,170048,,1614900149,189816585,"""0""",13.0,0.0,12.3999996185,0.0
1614972176616925001,,170049,,1614900149,238807783,"""0""",13.0,0.0,12.3999996185,0.0
1614972176665807008,,170050,,1614900149,288772678,"""0""",13.0,0.0,12.3999996185,0.0
1614972176720870971,,170051,,1614900149,338885960,"""0""",13.0,0.0,12.3999996185,0.0
1614972176777508974,,170052,,1614900149,388783616,"""0""",13.0,0.0,12.3999996185,0.0
1614972176845597982,,170053,,1614900149,438810595,"""0""",13.0,0.0,12.3999996185,0.0
1614972176896955013,,170054,,1614900149,488792678,"""0""",13.0,0.0,12.3999996185,0.0
1614972176919758081,,170055,,1614900149,538773147,"""0""",13.0,0.0,12.3999996185,0.0
1614972176984708070,,170056,,1614900149,588890543,"""0""",13.0,0.0,12.3999996185,0.0
1614972177016697883,,170057,,1614900149,638771793,"""0""",13.0,0.0,12.3999996185,0.0
1614972177068469047,,170058,,1614900149,688805282,"""0""",13.0,0.0,12.3999996185,0.0
1614972177148339033,,170059,,1614900149,738777626,"""0""",13.0,0.0,12.3999996185,0.0
1614972177174341917,,170060,,1614900149,788786741,"""0""",13.0,0.0,12.3999996185,0.0
1614972177218605041,,170061,,1614900149,838879501,"""0""",13.0,0.0,12.3999996185,0.0
1614972177267689943,,170062,,1614900149,888846376,"""0""",13.0,0.0,12.3999996185,0.0
1614972177316576957,,170063,,1614900149,938741741,"""0""",13.0,0.0,12.3999996185,0.0
1614972177367434024,,170064,,1614900149,988780074,"""0""",13.0,0.0,12.3999996185,0.0
1614972177449790000,,170065,,1614900150,38778407,"""0""",13.0,0.0,12.3999996185,0.0
1614972177485445022,,170066,,1614900150,88847730,"""0""",13.0,0.0,12.3999996185,0.0
1614972177516513109,,170067,,1614900150,138817261,"""0""",13.0,0.0,12.3999996185,0.0
1614972177564769983,,170068,,1614900150,188851428,"""0""",13.0,0.0,12.3999996185,0.0
1614972177622389078,,170069,,1614900150,238790855,"""0""",13.0,0.0,12.3999996185,0.0
1614972177671289920,,170070,,1614900150,288812574,"""0""",13.0,0.0,12.3999996185,0.0
1614972177729552984,,170071,,1614900150,338776063,"""0""",13.0,0.0,12.3999996185,0.0
1614972177779175996,,170072,,1614900150,388812834,"""0""",13.0,0.0,12.3999996185,0.0
1614972177817275047,,170073,,1614900150,438800230,"""0""",13.0,0.0,12.3999996185,0.0
1614972177869213104,,170074,,1614900150,488842157,"""0""",13.0,0.0,12.3999996185,0.0
1614972177915786027,,170075,,1614900150,538748095,"""0""",13.0,0.0,12.3999996185,0.0
1614972177966833114,,170076,,1614900150,588855542,"""0""",13.0,0.0,12.3999996185,0.0
1614972178027278900,,170077,,1614900150,638814136,"""0""",13.0,0.0,12.3999996185,0.0
1614972178101586103,,170078,,1614900150,688908615,"""0""",13.0,0.0,12.3999996185,0.0
1614972178145126104,,170079,,1614900150,738924188,"""0""",13.0,0.0,12.3999996185,0.0
1614972178184043884,,170080,,1614900150,789210595,"""0""",13.0,0.0,12.3999996185,0.0
1614972178224873065,,170081,,1614900150,838881636,"""0""",13.0,0.0,12.3999996185,0.0
1614972178268954992,,170082,,1614900150,888791115,"""0""",13.0,0.0,12.3999996185,0.0
1614972178350415945,,170083,,1614900150,938773511,"""0""",13.0,0.0,12.3999996185,0.0
1614972178392889022,,170084,,1614900150,988780803,"""0""",13.0,0.0,12.3999996185,0.0
1614972178417197942,,170085,,1614900151,38790230,"""0""",13.0,0.0,12.3999996185,0.0
1614972178468090057,,170086,,1614900151,88792053,"""0""",13.0,0.0,12.3999996185,0.0
1614972178517864942,,170087,,1614900151,138809761,"""0""",13.0,0.0,12.3999996185,0.0
1614972178591027021,,170088,,1614900151,188895334,"""0""",13.0,0.0,12.3999996185,0.0
1614972178660567045,,170089,,1614900151,238773355,"""0""",13.0,0.0,12.3999996185,0.0
1614972178660721063,,170090,,1614900151,288851063,"""0""",13.0,0.0,12.3999996185,0.0
1614972178720211029,,170091,,1614900151,338807209,"""0""",13.0,0.0,12.3999996185,0.0
1614972178766248941,,170092,,1614900151,388821896,"""0""",13.0,0.0,12.3999996185,0.0
1614972178824484109,,170093,,1614900151,438766688,"""0""",13.0,0.0,12.3999996185,0.0
1614972178866939067,,170094,,1614900151,488831063,"""0""",13.0,0.0,12.3999996185,0.0
1614972178935887098,,170095,,1614900151,538849448,"""0""",13.0,0.0,12.3999996185,0.0
1614972178983258962,,170096,,1614900151,589169344,"""0""",13.0,0.0,12.3999996185,0.0
1614972179029676914,,170097,,1614900151,638779448,"""0""",13.0,0.0,12.3999996185,0.0
1614972179066116094,,170098,,1614900151,688767157,"""0""",13.0,0.0,12.3999996185,0.0
1614972179124568939,,170099,,1614900151,738804605,"""0""",13.0,0.0,12.3999996185,0.0
1614972179166285991,,170100,,1614900151,788797782,"""0""",13.0,0.0,12.3999996185,0.0
1614972179239056110,,170101,,1614900151,838782209,"""0""",13.0,0.0,12.3999996185,0.0
1614972179272027015,,170102,,1614900151,888888302,"""0""",13.0,0.0,12.3999996185,0.0
1614972179323806047,,170103,,1614900151,938780907,"""0""",13.0,0.0,12.3999996185,0.0
1614972179368798017,,170104,,1614900151,988895282,"""0""",13.0,0.0,12.3999996185,0.0
1614972179421032905,,170105,,1614900152,38764292,"""0""",13.0,0.0,12.3999996185,0.0
1614972179467739105,,170106,,1614900152,88781792,"""0""",13.0,0.0,12.3999996185,0.0
1614972179548541069,,170107,,1614900152,138741896,"""0""",13.0,0.0,12.3999996185,0.0
1614972179578825950,,170108,,1614900152,188792261,"""0""",13.0,0.0,12.3999996185,0.0
1614972179627245903,,170109,,1614900152,238782469,"""0""",13.0,0.0,12.3999996185,0.0
1614972179673587083,,170110,,1614900152,288784865,"""0""",13.0,14.625,12.3999996185,0.0
1614972179718772888,,170111,,1614900152,338759552,"""0""",13.0,10.625,12.3999996185,0.0
1614972179769025087,,170112,,1614900152,388817313,"""0""",13.0,9.5,12.3999996185,0.0
1614972179835194110,,170113,,1614900152,438747156,"""0""",12.0,8.875,11.75,0.0
1614972179863569974,,170114,,1614900152,488782625,"""0""",12.0,10.5,11.75,0.0
1614972179917927026,,170115,,1614900152,538774344,"""0""",12.0,11.375,11.75,0.0
1614972179969676971,,170116,,1614900152,588776740,"""0""",13.0,8.125,11.75,0.0
1614972180017704963,,170117,,1614900152,638779552,"""0""",13.0,7.125,11.75,0.0
1614972180066034078,,170118,,1614900152,688831167,"""0""",13.0,5.75,11.75,0.0
1614972180128995895,,170119,,1614900152,738762781,"""0""",13.0,2.0,12.1499996185,0.0
1614972180171525955,,170120,,1614900152,788777469,"""0""",13.0,1.0,12.1499996185,0.0
1614972180238496065,,170121,,1614900152,838785750,"""0""",13.0,1.0,12.1499996185,0.0
1614972180276884078,,170122,,1614900152,888865646,"""0""",13.0,0.375,12.25,0.0
1614972180351479053,,170123,,1614900152,938776896,"""0""",13.0,0.375,12.25,0.0
1614972180382060050,,170124,,1614900152,988912625,"""0""",13.0,0.625,12.25,0.0
1614972180451183080,,170125,,1614900153,38874187,"""0""",13.0,0.625,12.3000001907,0.0
1614972180535156965,,170126,,1614900153,88839344,"""0""",13.0,0.0,12.3000001907,0.0
1614972180578716993,,170127,,1614900153,138781583,"""0""",13.0,0.375,12.3000001907,0.0
1614972180633342981,,170128,,1614900153,188770958,"""0""",13.0,1.0,12.3000001907,0.0
1614972180633713006,,170129,,1614900153,238753458,"""0""",13.0,1.0,12.25,0.0
1614972180749313116,,170130,,1614900153,288773979,"""0""",13.0,1.0,12.25,0.0
1614972180749574899,,170131,,1614900153,338785802,"""0""",13.0,1.0,12.25,0.0
1614972180782893896,,170132,,1614900153,389042781,"""0""",13.0,1.0,12.25,0.0
1614972180827024936,,170133,,1614900153,438791323,"""0""",13.0,1.0,12.25,0.0
1614972180871376037,,170134,,1614900153,488960698,"""0""",13.0,1.0,12.25,0.0
1614972180933857917,,170135,,1614900153,538788302,"""0""",12.0,1.75,12.1999998093,0.0
1614972180969101905,,170136,,1614900153,588837573,"""0""",12.0,3.375,12.1999998093,0.0
1614972181063939094,,170137,,1614900153,638863510,"""0""",12.0,2.75,12.1999998093,0.0
1614972181110304117,,170138,,1614900153,689265698,"""0""",13.0,5.125,12.0500001907,0.0
1614972181155004978,,170139,,1614900153,738760020,"""0""",13.0,6.625,12.0500001907,0.0
1614972181185816049,,170140,,1614900153,789165229,"""0""",13.0,5.75,12.0500001907,0.0
1614972181221927881,,170141,,1614900153,838796739,"""0""",12.0,3.75,12.1000003815,0.0
1614972181267896890,,170142,,1614900153,888906218,"""0""",12.0,4.75,12.1000003815,0.0
1614972181342250108,,170143,,1614900153,938752625,"""0""",12.0,6.625,12.1000003815,0.0
1614972181380403041,,170144,,1614900153,988878250,"""0""",12.0,2.375,12.1000003815,0.0
1614972181424679994,,170145,,1614900154,38786375,"""0""",12.0,2.75,12.1499996185,0.0
1614972181470314025,,170146,,1614900154,88783302,"""0""",12.0,3.0,12.1499996185,0.0
1614972181520152091,,170147,,1614900154,138850593,"""0""",12.0,2.75,12.1499996185,0.0
1614972181567311048,,170148,,1614900154,188768874,"""0""",13.0,3.75,12.0500001907,0.0
1614972181655399084,,170149,,1614900154,238789604,"""0""",13.0,5.125,12.0500001907,0.0
1614972181689973115,,170150,,1614900154,288838822,"""0""",13.0,6.625,12.0500001907,0.0
1614972181731020927,,170151,,1614900154,338864812,"""0""",12.0,4.125,12.1000003815,0.0
1614972181772070884,,170152,,1614900154,388782104,"""0""",12.0,2.375,12.1000003815,0.0
1614972181872956037,,170153,,1614900154,438756374,"""0""",12.0,3.0,12.1000003815,0.0
1614972181873080015,,170154,,1614900154,488939135,"""0""",12.0,3.75,12.1000003815,0.0
1614972181946059942,,170155,,1614900154,538789551,"""0""",12.0,6.125,12.1000003815,0.0
1614972182024566888,,170156,,1614900154,589334760,"""0""",12.0,6.125,12.1000003815,0.0
1614972182024704933,,170157,,1614900154,638777833,"""0""",12.0,4.75,12.0500001907,0.0
1614972182067333936,,170158,,1614900154,688802260,"""0""",12.0,3.375,12.0500001907,0.0
1614972182123409986,,170159,,1614900154,738778353,"""0""",12.0,4.125,12.0500001907,0.0
1614972182174835920,,170160,,1614900154,788761791,"""0""",12.0,3.75,12.0500001907,0.0
1614972182235963106,,170161,,1614900154,838774447,"""0""",12.0,2.75,12.1000003815,0.0
1614972182308036088,,170162,,1614900154,888732051,"""0""",12.0,2.0,12.1000003815,0.0
1614972182355992078,,170163,,1614900154,938773093,"""0""",12.0,2.375,12.1000003815,0.0
1614972182389039039,,170164,,1614900154,988864395,"""0""",12.0,1.75,12.1999998093,0.0
1614972182425635099,,170165,,1614900155,38773978,"""0""",12.0,1.375,12.1999998093,0.0
1614972182492271900,,170166,,1614900155,88778405,"""0""",12.0,1.375,12.1999998093,0.0
1614972182552364110,,170167,,1614900155,138797832,"""0""",12.0,1.375,12.1999998093,0.0
1614972182588870048,,170168,,1614900155,188778093,"""0""",12.0,1.375,12.1999998093,0.0
1614972182621304035,,170169,,1614900155,238837624,"""0""",12.0,2.0,12.1999998093,0.0
1614972182679831981,,170170,,1614900155,288777364,"""0""",12.0,2.375,12.1000003815,0.0
1614972182730444908,,170171,,1614900155,338764395,"""0""",12.0,2.75,12.1000003815,0.0
1614972182782346963,,170172,,1614900155,388782520,"""0""",12.0,3.375,12.1000003815,0.0
1614972182829319953,,170173,,1614900155,438770749,"""0""",12.0,3.0,12.1499996185,0.0
1614972182873817920,,170174,,1614900155,489184082,"""0""",12.0,2.0,12.1499996185,0.0
1614972182925542116,,170175,,1614900155,538805801,"""0""",12.0,2.375,12.1499996185,0.0
1614972182992458105,,170176,,1614900155,588822624,"""0""",12.0,2.375,12.1499996185,0.0
1614972183018743991,,170177,,1614900155,638773822,"""0""",12.0,1.75,12.1499996185,0.0
1614972183071090936,,170178,,1614900155,688784186,"""0""",12.0,4.375,12.1499996185,0.0
1614972183158058881,,170179,,1614900155,738781530,"""0""",12.0,7.5,12.1499996185,0.0
1614972183194956064,,170180,,1614900155,788791478,"""0""",12.0,6.75,12.0,0.0
1614972183233988046,,170181,,1614900155,838762624,"""0""",12.0,6.875,12.0,0.0
1614972183270503997,,170182,,1614900155,888810645,"""0""",12.0,6.875,12.0,0.0
1614972183329191923,,170183,,1614900155,938771530,"""0""",12.0,7.5,11.8500003815,0.0
1614972183369951009,,170184,,1614900155,988790124,"""0""",12.0,7.625,11.8500003815,0.0
1614972183456432104,,170185,,1614900156,38794030,"""0""",12.0,7.875,11.8500003815,0.0
1614972183510957002,,170186,,1614900156,88810124,"""0""",12.0,7.625,11.8999996185,0.0
1614972183546999931,,170187,,1614900156,138820124,"""0""",12.0,8.0,11.8999996185,0.0
1614972183581295013,,170188,,1614900156,188850176,"""0""",12.0,8.125,11.8999996185,0.0
1614972183631890058,,170189,,1614900156,238756270,"""0""",12.0,7.625,11.8500003815,0.0
1614972183670017957,,170190,,1614900156,288905540,"""0""",12.0,7.75,11.8500003815,0.0
1614972183723764896,,170191,,1614900156,338755072,"""0""",12.0,8.125,11.8500003815,0.0
1614972183772376060,,170192,,1614900156,388817311,"""0""",12.0,8.25,11.8500003815,0.0
1614972183819241046,,170193,,1614900156,438770644,"""0""",12.0,8.0,11.8500003815,0.0
1614972183872239112,,170194,,1614900156,488775488,"""0""",12.0,8.5,11.8500003815,0.0
1614972183917882919,,170195,,1614900156,538769446,"""0""",12.0,8.0,11.8500003815,0.0
1614972183969209909,,170196,,1614900156,588773509,"""0""",12.0,8.0,11.8500003815,0.0
1614972184050350904,,170197,,1614900156,638762051,"""0""",12.0,8.0,11.8500003815,0.0
1614972184086808919,,170198,,1614900156,688779603,"""0""",12.0,7.875,11.8500003815,0.0
1614972184124459981,,170199,,1614900156,738763613,"""0""",12.0,7.875,11.8500003815,0.0
1614972184172938108,,170200,,1614900156,788958457,"""0""",12.0,7.25,11.8500003815,0.0
1614972184226152896,,170201,,1614900156,838814082,"""0""",12.0,6.875,11.8500003815,0.0
1614972184266952991,,170202,,1614900156,888757155,"""0""",12.0,7.125,11.8999996185,0.0
1614972184331464052,,170203,,1614900156,938772467,"""0""",12.0,6.875,11.8999996185,0.0
1614972184400477886,,170204,,1614900156,988780748,"""0""",12.0,5.125,11.8999996185,0.0
1614972184440824985,,170205,,1614900157,38829446,"""0""",12.0,3.375,12.1000003815,0.0
1614972184487916946,,170206,,1614900157,88913196,"""0""",12.0,1.375,12.1000003815,0.0
1614972184539660930,,170207,,1614900157,138902727,"""0""",12.0,1.0,12.1000003815,0.0
1614972184586678028,,170208,,1614900157,188884759,"""0""",12.0,1.0,12.1999998093,0.0
1614972184694560050,,170209,,1614900157,238775540,"""0""",12.0,1.0,12.1999998093,0.0
1614972184769117116,,170210,,1614900157,288796477,"""0""",12.0,0.375,12.1999998093,0.0
1614972184769223928,,170211,,1614900157,338774759,"""0""",12.0,0.375,12.1999998093,0.0
1614972184800208091,,170212,,1614900157,388897988,"""0""",12.0,0.375,12.25,0.0
1614972184838433980,,170213,,1614900157,438801321,"""0""",12.0,0.0,12.25,0.0
1614972184879087924,,170214,,1614900157,488802311,"""0""",12.0,0.0,12.25,0.0
1614972184957973003,,170215,,1614900157,538814446,"""0""",12.0,0.375,12.25,0.0
1614972184994102001,,170216,,1614900157,588792519,"""0""",12.0,0.625,12.25,0.0
1614972185032572984,,170217,,1614900157,638935331,"""0""",12.0,1.0,12.25,0.0
1614972185069773912,,170218,,1614900157,688780384,"""0""",12.0,1.0,12.1999998093,0.0
1614972185159528970,,170219,,1614900157,738793977,"""0""",12.0,1.0,12.1999998093,0.0
1614972185257050991,,170220,,1614900157,788914081,"""0""",12.0,1.75,12.1999998093,0.0
1614972185257170915,,170221,,1614900157,838868561,"""0""",12.0,7.125,11.8000001907,0.0
1614972185283104896,,170222,,1614900157,890798040,"""0""",12.0,8.875,11.8000001907,0.0
1614972185326992034,,170223,,1614900157,938832988,"""0""",12.0,5.125,11.8000001907,0.0
1614972185375669002,,170224,,1614900157,988829238,"""0""",12.0,7.5,11.8000001907,0.0
1614972185425287961,,170225,,1614900158,38880123,"""0""",12.0,8.0,11.8500003815,0.0
1614972185480144023,,170226,,1614900158,88873560,"""0""",12.0,8.375,11.8500003815,0.0
1614972185544585943,,170227,,1614900158,138797779,"""0""",12.0,9.0,11.8500003815,0.0
1614972185591691017,,170228,,1614900158,188874810,"""0""",12.0,8.625,11.75,0.0
1614972185632278919,,170229,,1614900158,238776373,"""0""",12.0,8.375,11.75,0.0
1614972185673691034,,170230,,1614900158,288774342,"""0""",12.0,7.75,11.75,0.0
1614972185722289085,,170231,,1614900158,338778092,"""0""",12.0,7.75,11.8000001907,0.0
1614972185774300098,,170232,,1614900158,388985956,"""0""",12.0,7.625,11.8000001907,0.0
1614972185841481924,,170233,,1614900158,438806373,"""0""",12.0,7.625,11.8000001907,0.0
1614972185872199058,,170234,,1614900158,488809914,"""0""",12.0,7.5,11.8500003815,0.0
1614972185925957918,,170235,,1614900158,538771894,"""0""",12.0,7.125,11.8500003815,0.0
1614972185971571922,,170236,,1614900158,588793092,"""0""",12.0,7.0,11.8500003815,0.0
1614972186034476041,,170237,,1614900158,638852467,"""0""",12.0,6.875,11.9499998093,0.0
1614972186153454065,,170238,,1614900158,688780279,"""0""",12.0,6.875,11.9499998093,0.0
1614972186153558015,,170239,,1614900158,738801633,"""0""",12.0,6.875,11.9499998093,0.0
1614972186174360990,,170240,,1614900158,788870279,"""0""",12.0,7.0,11.9499998093,0.0
1614972186225287914,,170241,,1614900158,838773716,"""0""",12.0,6.875,11.9499998093,0.0
1614972186279757976,,170242,,1614900158,888778873,"""0""",12.0,6.5,11.9499998093,0.0
1614972186325639963,,170243,,1614900158,938816268,"""0""",12.0,7.0,11.9499998093,0.0
1614972186373996973,,170244,,1614900158,988848664,"""0""",12.0,7.125,11.8999996185,0.0
1614972186430671930,,170245,,1614900159,38798039,"""0""",12.0,6.875,11.8999996185,0.0
1614972186481113910,,170246,,1614900159,88874081,"""0""",12.0,6.125,11.8999996185,0.0
1614972186528767108,,170247,,1614900159,138787362,"""0""",12.0,6.75,11.9499998093,0.0
1614972186573673963,,170248,,1614900159,188796841,"""0""",12.0,6.875,11.9499998093,0.0
1614972186629503011,,170249,,1614900159,238781164,"""0""",12.0,6.875,11.9499998093,0.0
1614972186703237056,,170250,,1614900159,288787675,"""0""",12.0,6.875,11.9499998093,0.0
1614972186776951074,,170251,,1614900159,338768143,"""0""",12.0,6.875,11.9499998093,0.0
1614972186777060985,,170252,,1614900159,388909081,"""0""",12.0,6.875,11.9499998093,0.0
1614972186831012964,,170253,,1614900159,438917102,"""0""",12.0,7.0,11.8999996185,0.0
1614972186873676061,,170254,,1614900159,488830331,"""0""",12.0,6.875,11.8999996185,0.0
1614972186921571016,,170255,,1614900159,538797727,"""0""",12.0,6.875,11.8999996185,0.0
1614972186997071981,,170256,,1614900159,588784966,"""0""",12.0,7.0,11.8999996185,0.0
1614972187076339960,,170257,,1614900159,638816164,"""0""",12.0,7.0,11.8999996185,0.0
1614972187076448917,,170258,,1614900159,688888924,"""0""",12.0,7.125,11.8999996185,0.0
1614972187125705957,,170259,,1614900159,738825122,"""0""",12.0,7.125,11.8999996185,0.0
1614972187173752069,,170260,,1614900159,788798976,"""0""",12.0,6.875,11.8999996185,0.0
1614972187224085092,,170261,,1614900159,838791112,"""0""",12.0,7.125,11.8999996185,0.0
1614972187282105922,,170262,,1614900159,888785539,"""0""",12.0,6.875,11.8999996185,0.0
1614972187343702077,,170263,,1614900159,938767726,"""0""",12.0,6.75,12.0,0.0
1614972187410633087,,170264,,1614900159,988781164,"""0""",12.0,6.875,12.0,0.0
1614972187446911096,,170265,,1614900160,38808508,"""0""",12.0,6.5,12.0,0.0
1614972187492645025,,170266,,1614900160,88773560,"""0""",12.0,5.125,12.0500001907,0.0
1614972187537955045,,170267,,1614900160,138832362,"""0""",12.0,5.75,12.0500001907,0.0
1614972187586844921,,170268,,1614900160,188810018,"""0""",12.0,6.75,12.0500001907,0.0
1614972187649224996,,170269,,1614900160,238916476,"""0""",12.0,7.0,11.9499998093,0.0
1614972187689496040,,170270,,1614900160,288814549,"""0""",12.0,6.75,11.9499998093,0.0
1614972187728398084,,170271,,1614900160,338794080,"""0""",12.0,6.75,11.9499998093,0.0
1614972187779223918,,170272,,1614900160,388826112,"""0""",12.0,7.0,11.9499998093,0.0
1614972187833647966,,170273,,1614900160,438864080,"""0""",12.0,7.25,11.8999996185,0.0
1614972187874219894,,170274,,1614900160,488926841,"""0""",12.0,7.25,11.8999996185,0.0
1614972187937608003,,170275,,1614900160,538770070,"""0""",12.0,7.25,11.8999996185,0.0
1614972187985111951,,170276,,1614900160,588849705,"""0""",12.0,7.625,11.8000001907,0.0
1614972188061228036,,170277,,1614900160,638762257,"""0""",12.0,7.125,11.8000001907,0.0
1614972188107824087,,170278,,1614900160,688819289,"""0""",12.0,7.0,11.8000001907,0.0
1614972188164025068,,170279,,1614900160,738787674,"""0""",12.0,7.0,11.8500003815,0.0
1614972188269047021,,170280,,1614900160,789535122,"""0""",12.0,6.875,11.8500003815,0.0
1614972188269160032,,170281,,1614900160,838793351,"""0""",12.0,6.875,11.8500003815,0.0
1614972188269181966,,170282,,1614900160,888844497,"""0""",12.0,7.0,11.8500003815,0.0
1614972188322530031,,170283,,1614900160,938807466,"""0""",12.0,6.875,11.8500003815,0.0
1614972188372745990,,170284,,1614900160,988800539,"""0""",12.0,6.875,11.8500003815,0.0
1614972188423218011,,170285,,1614900161,38819132,"""0""",12.0,6.875,11.8999996185,0.0
1614972188478468894,,170286,,1614900161,88768507,"""0""",12.0,6.75,11.8999996185,0.0
1614972188528966903,,170287,,1614900161,138733716,"""0""",12.0,6.75,11.8999996185,0.0
1614972188587285995,,170288,,1614900161,188797049,"""0""",12.0,6.875,11.8999996185,0.0
1614972188623641014,,170289,,1614900161,238772674,"""0""",12.0,7.125,11.8999996185,0.0
1614972188673629999,,170290,,1614900161,288876476,"""0""",12.0,7.375,11.8999996185,0.0
1614972188732959985,,170291,,1614900161,338778507,"""0""",12.0,7.25,11.8999996185,0.0
1614972188775458097,,170292,,1614900161,388830330,"""0""",12.0,7.25,11.8999996185,0.0
1614972188841761112,,170293,,1614900161,438800486,"""0""",12.0,7.25,11.8999996185,0.0
1614972188925787925,,170294,,1614900161,488773090,"""0""",12.0,7.0,11.8999996185,0.0
1614972188926116943,,170295,,1614900161,538780174,"""0""",12.0,7.0,11.8999996185,0.0
1614972188970870018,,170296,,1614900161,588779236,"""0""",12.0,7.0,11.8999996185,0.0
1614972189029687881,,170297,,1614900161,638784392,"""0""",12.0,6.875,11.8999996185,0.0
1614972189068942070,,170298,,1614900161,688817882,"""0""",12.0,6.875,11.8999996185,0.0
1614972189138181924,,170299,,1614900161,738777309,"""0""",12.0,6.75,11.8999996185,0.0
1614972189250396966,,170300,,1614900161,788780174,"""0""",12.0,6.125,11.8999996185,0.0
1614972189250514030,,170301,,1614900161,838810694,"""0""",12.0,6.5,12.0,0.0
1614972189331799983,,170302,,1614900161,888988403,"""0""",12.0,6.125,12.0,0.0
1614972189332963943,,170303,,1614900161,938808819,"""0""",12.0,4.75,12.0,0.0
1614972189379095077,,170304,,1614900161,989061424,"""0""",12.0,5.5,12.0,0.0
1614972189445727109,,170305,,1614900162,38808455,"""0""",12.0,3.0,12.0,0.0
1614972189483207941,,170306,,1614900162,88776319,"""0""",12.0,1.0,12.0,0.0
1614972189523649930,,170307,,1614900162,138806215,"""0""",12.0,1.0,12.0,0.0
1614972189577032089,,170308,,1614900162,188959132,"""0""",12.0,1.0,12.1999998093,0.0
1614972189622200965,,170309,,1614900162,238786944,"""0""",12.0,1.0,12.1999998093,0.0
1614972189675733089,,170310,,1614900162,288777048,"""0""",12.0,1.0,12.1999998093,0.0
1614972189733939886,,170311,,1614900162,338851944,"""0""",12.0,1.0,12.1999998093,0.0
1614972189813052892,,170312,,1614900162,388842882,"""0""",12.0,0.625,12.1999998093,0.0
1614972189849776029,,170313,,1614900162,438793038,"""0""",12.0,1.0,12.1999998093,0.0
1614972189903220891,,170314,,1614900162,488852153,"""0""",12.0,1.375,12.1499996185,0.0
1614972189937057018,,170315,,1614900162,538811788,"""0""",12.0,2.75,12.1499996185,0.0
1614972189989466905,,170316,,1614900162,588773663,"""0""",12.0,1.75,12.1499996185,0.0
1614972190049105882,,170317,,1614900162,638785590,"""0""",12.0,2.75,12.0500001907,0.0
1614972190117636919,,170318,,1614900162,688812100,"""0""",12.0,4.75,12.0500001907,0.0
1614972190171427965,,170319,,1614900162,738799392,"""0""",12.0,4.125,12.0500001907,0.0
1614972190203222036,,170320,,1614900162,788935538,"""0""",12.0,5.125,12.0,0.0
1614972190232989072,,170321,,1614900162,838791163,"""0""",12.0,4.375,12.0,0.0
1614972190279378890,,170322,,1614900162,888774184,"""0""",12.0,2.0,12.0,0.0
1614972190351418018,,170323,,1614900162,938799444,"""0""",12.0,1.375,12.0,0.0
1614972190387350082,,170324,,1614900162,988776215,"""0""",12.0,1.75,12.1499996185,0.0
1614972190456229925,,170325,,1614900163,38781059,"""0""",12.0,3.0,12.1499996185,0.0
1614972190501746892,,170326,,1614900163,88866996,"""0""",12.0,1.75,12.1499996185,0.0
1614972190552541971,,170327,,1614900163,138783090,"""0""",12.0,1.75,12.1499996185,0.0
1614972190589631080,,170328,,1614900163,188777517,"""0""",12.0,2.0,12.1499996185,0.0
1614972190676696062,,170329,,1614900163,238815486,"""0""",12.0,2.375,12.1499996185,0.0
1614972190728596925,,170330,,1614900163,288772413,"""0""",12.0,2.75,12.0500001907,0.0
1614972190728709936,,170331,,1614900163,338770121,"""0""",12.0,1.75,12.0500001907,0.0
1614972190773133039,,170332,,1614900163,388794600,"""0""",12.0,4.75,12.0500001907,0.0
1614972190824810028,,170333,,1614900163,438837621,"""0""",12.0,5.125,12.0,0.0
1614972190877150058,,170334,,1614900163,488776944,"""0""",12.0,3.375,12.0,0.0
1614972190952925920,,170335,,1614900163,538858142,"""0""",12.0,3.0,12.0,0.0
1614972191025504112,,170336,,1614900163,588772777,"""0""",12.0,3.0,12.0,0.0
1614972191085948944,,170337,,1614900163,638822933,"""0""",12.0,4.75,12.1000003815,0.0
1614972191086055994,,170338,,1614900163,688779392,"""0""",12.0,4.75,12.1000003815,0.0
1614972191138359069,,170339,,1614900163,738813871,"""0""",12.0,2.75,12.1000003815,0.0
1614972191197959899,,170340,,1614900163,788770590,"""0""",12.0,2.375,12.0500001907,0.0
1614972191246042013,,170341,,1614900163,838866527,"""0""",12.0,2.0,12.0500001907,0.0
1614972191297188997,,170342,,1614900163,888772725,"""0""",12.0,2.375,12.0500001907,0.0
1614972191391985893,,170343,,1614900163,938794496,"""0""",12.0,2.375,12.1000003815,0.0
1614972191392092943,,170344,,1614900163,988780537,"""0""",12.0,1.75,12.1000003815,0.0
1614972191455202102,,170345,,1614900164,38789600,"""0""",12.0,1.375,12.1000003815,0.0
1614972191527177095,,170346,,1614900164,88775069,"""0""",12.0,7.375,11.8500003815,0.0
1614972191564857006,,170347,,1614900164,138856214,"""0""",12.0,7.625,11.8500003815,0.0
1614972191612551927,,170348,,1614900164,188772621,"""0""",12.0,7.25,11.8500003815,0.0
1614972191664259910,,170349,,1614900164,238783089,"""0""",12.0,7.5,11.8500003815,0.0
1614972191718396902,,170350,,1614900164,288740121,"""0""",12.0,8.0,11.8500003815,0.0
1614972191785224914,,170351,,1614900164,338779704,"""0""",12.0,8.125,11.8500003815,0.0
1614972191846168041,,170352,,1614900164,388795068,"""0""",12.0,8.375,11.75,0.0
1614972191846271991,,170353,,1614900164,438868662,"""0""",12.0,9.5,11.75,0.0
1614972191918857097,,170354,,1614900164,488774496,"""0""",12.0,9.625,11.75,0.0
1614972191976646900,,170355,,1614900164,538790329,"""0""",12.0,8.75,11.75,0.0
1614972192025850057,,170356,,1614900164,588750381,"""0""",12.0,9.0,11.6499996185,0.0
1614972192117146015,,170357,,1614900164,638858350,"""0""",12.0,9.625,11.6499996185,0.0
1614972192117253065,,170358,,1614900164,688860381,"""0""",12.0,9.25,11.6499996185,0.0
1614972192191925048,,170359,,1614900164,738790120,"""0""",12.0,9.0,11.6999998093,0.0
1614972192288477897,,170360,,1614900164,788825120,"""0""",12.0,9.625,11.6999998093,0.0
1614972192288595914,,170361,,1614900164,838970797,"""0""",12.0,8.875,11.6999998093,0.0
1614972192352663040,,170362,,1614900164,888764183,"""0""",12.0,8.875,11.6999998093,0.0
1614972192352952003,,170363,,1614900164,938927725,"""0""",12.0,10.25,11.6999998093,0.0
1614972192421996116,,170364,,1614900164,988850068,"""0""",12.0,8.375,11.6999998093,0.0
1614972192512217998,,170365,,1614900165,38798454,"""0""",12.0,6.875,11.9499998093,0.0
1614972192512355089,,170366,,1614900165,88787777,"""0""",12.0,3.75,11.9499998093,0.0
1614972192580003023,,170367,,1614900165,138858506,"""0""",12.0,4.375,11.9499998093,0.0
1614972192640227079,,170368,,1614900165,188749027,"""0""",12.0,3.375,12.0500001907,0.0
1614972192719327926,,170369,,1614900165,238806526,"""0""",12.0,1.75,12.0500001907,0.0
1614972192719440937,,170370,,1614900165,288801370,"""0""",12.0,0.0,12.0500001907,0.0
1614972192773726940,,170371,,1614900165,338971474,"""0""",12.0,0.0,12.0500001907,0.0
1614972192921451091,,170372,,1614900165,388794235,"""0""",12.0,0.0,12.3500003815,0.0
1614972192921602964,,170373,,1614900165,438807828,"""0""",12.0,0.0,12.3500003815,0.0
1614972192980683088,,170374,,1614900165,488864964,"""0""",12.0,0.0,12.3500003815,0.0
1614972192980884075,,170375,,1614900165,538789964,"""0""",12.0,0.0,12.3500003815,0.0
1614972193119927883,,170376,,1614900165,588768141,"""0""",12.0,0.0,12.3500003815,0.0
1614972193120058059,,170377,,1614900165,638798089,"""0""",12.0,0.0,12.3500003815,0.0
1614972193120081901,,170378,,1614900165,688774130,"""0""",12.0,0.0,12.3500003815,0.0
1614972193165477037,,170379,,1614900165,738811005,"""0""",12.0,0.0,12.3500003815,0.0
1614972193209074020,,170380,,1614900165,788831787,"""0""",12.0,0.375,12.3500003815,0.0
1614972193245938062,,170381,,1614900165,838771266,"""0""",12.0,0.625,12.1999998093,0.0
1614972193277714014,,170382,,1614900165,888778818,"""0""",12.0,2.0,12.1999998093,0.0
1614972193353996992,,170383,,1614900165,938793245,"""0""",12.0,3.0,12.1999998093,0.0
1614972193400898933,,170384,,1614900165,988808922,"""0""",12.0,3.375,12.1999998093,0.0
1614972193442898988,,170385,,1614900166,38801214,"""0""",12.0,3.0,12.0500001907,0.0
1614972193478529930,,170386,,1614900166,88769026,"""0""",12.0,4.75,12.0500001907,0.0
1614972193541251897,,170387,,1614900166,138877828,"""0""",12.0,5.5,12.0500001907,0.0
1614972193594470024,,170388,,1614900166,188769964,"""0""",12.0,7.0,11.8999996185,0.0
1614972193659063100,,170389,,1614900166,238797307,"""0""",12.0,7.375,11.8999996185,0.0
1614972193713709115,,170390,,1614900166,288756162,"""0""",12.0,7.375,11.8999996185,0.0
1614972193756906032,,170391,,1614900166,338799130,"""0""",12.0,7.5,11.8500003815,0.0
1614972193807400941,,170392,,1614900166,388765849,"""0""",12.0,7.625,11.8500003815,0.0
1614972193860230922,,170393,,1614900166,438816109,"""0""",12.0,7.75,11.8500003815,0.0
1614972193936311006,,170394,,1614900166,488763818,"""0""",12.0,8.0,11.75,0.0
1614972193936428070,,170395,,1614900166,538784755,"""0""",12.0,8.375,11.75,0.0
1614972193995574951,,170396,,1614900166,588791526,"""0""",12.0,8.625,11.75,0.0
1614972194038992881,,170397,,1614900166,638790745,"""0""",12.0,8.625,11.6999998093,0.0
1614972194078372001,,170398,,1614900166,688811838,"""0""",12.0,8.625,11.6999998093,0.0
1614972194124178886,,170399,,1614900166,738923036,"""0""",12.0,8.5,11.6999998093,0.0
1614972194198560953,,170400,,1614900166,788764859,"""0""",12.0,8.125,11.75,0.0
1614972194264071941,,170401,,1614900166,838780536,"""0""",12.0,8.0,11.75,0.0
1614972194324249029,,170402,,1614900166,888765849,"""0""",12.0,8.375,11.75,0.0
1614972194383327960,,170403,,1614900166,938820953,"""0""",12.0,8.5,11.75,0.0
1614972194383471965,,170404,,1614900166,988803245,"""0""",12.0,8.375,11.75,0.0
1614972194437345981,,170405,,1614900167,38804859,"""0""",12.0,8.125,11.75,0.0
1614972194505631923,,170406,,1614900167,88758036,"""0""",12.0,8.0,11.75,0.0
1614972194576476097,,170407,,1614900167,138780484,"""0""",12.0,8.125,11.75,0.0
1614972194576601982,,170408,,1614900167,188782151,"""0""",12.0,8.375,11.75,0.0
1614972194625188112,,170409,,1614900167,238798505,"""0""",12.0,8.375,11.75,0.0
1614972194677608013,,170410,,1614900167,288751057,"""0""",12.0,8.375,11.6999998093,0.0
1614972194723335027,,170411,,1614900167,338821474,"""0""",12.0,8.25,11.6999998093,0.0
1614972194783266067,,170412,,1614900167,388882672,"""0""",12.0,8.0,11.6999998093,0.0
1614972194879872083,,170413,,1614900167,438832776,"""0""",12.0,8.0,11.75,0.0
1614972194879986047,,170414,,1614900167,488869286,"""0""",12.0,8.125,11.75,0.0
1614972194926511049,,170415,,1614900167,538822307,"""0""",12.0,8.125,11.75,0.0
1614972194988534927,,170416,,1614900167,588771786,"""0""",12.0,7.875,11.75,0.0
1614972195038161993,,170417,,1614900167,638879026,"""0""",12.0,7.75,11.75,0.0
1614972195082998037,,170418,,1614900167,688778609,"""0""",12.0,7.875,11.75,0.0
1614972195136194944,,170419,,1614900167,738784807,"""0""",12.0,8.0,11.75,0.0
1614972195176608085,,170420,,1614900167,788765588,"""0""",12.0,8.375,11.6999998093,0.0
1614972195248060941,,170421,,1614900167,838785953,"""0""",12.0,8.25,11.6999998093,0.0
1614972195293800115,,170422,,1614900167,888765796,"""0""",12.0,8.0,11.6999998093,0.0
1614972195330724000,,170423,,1614900167,938784859,"""0""",12.0,8.0,11.75,0.0
1614972195375968933,,170424,,1614900167,988764078,"""0""",12.0,7.875,11.75,0.0
1614972195443423986,,170425,,1614900168,38775223,"""0""",12.0,8.0,11.75,0.0
1614972195488991022,,170426,,1614900168,88757202,"""0""",12.0,8.0,11.75,0.0
1614972195520457029,,170427,,1614900168,138815067,"""0""",12.0,8.0,11.75,0.0
1614972195570486068,,170428,,1614900168,188788609,"""0""",12.0,7.75,11.75,0.0
1614972195625490903,,170429,,1614900168,238791682,"""0""",12.0,7.625,11.8000001907,0.0
1614972195676732063,,170430,,1614900168,288784807,"""0""",12.0,7.5,11.8000001907,0.0
1614972195746921062,,170431,,1614900168,338817775,"""0""",12.0,7.5,11.8000001907,0.0
1614972195783153057,,170432,,1614900168,388772359,"""0""",12.0,7.375,11.8000001907,0.0
1614972195820368051,,170433,,1614900168,438765640,"""0""",12.0,7.25,11.8000001907,0.0
1614972195880939960,,170434,,1614900168,488770484,"""0""",12.0,7.125,11.8000001907,0.0
1614972195944683074,,170435,,1614900168,538789181,"""0""",12.0,7.125,11.8000001907,0.0
1614972195985842943,,170436,,1614900168,588806994,"""0""",12.0,7.125,11.8500003815,0.0
1614972196055911064,,170437,,1614900168,638792984,"""0""",12.0,7.125,11.8500003815,0.0
1614972196110671043,,170438,,1614900168,688799963,"""0""",12.0,6.75,11.8500003815,0.0
1614972196143306016,,170439,,1614900168,738769286,"""0""",12.0,6.5,11.8999996185,0.0
1614972196172810077,,170440,,1614900168,788847671,"""0""",12.0,5.75,11.8999996185,0.0
1614972196230951070,,170441,,1614900168,838779025,"""0""",12.0,5.5,11.8999996185,0.0
1614972196269965887,,170442,,1614900168,888776473,"""0""",12.0,3.75,12.0,0.0
1614972196327967882,,170443,,1614900168,938781994,"""0""",12.0,2.375,12.0,0.0
1614972196390412092,,170444,,1614900168,988878244,"""0""",12.0,2.0,12.0,0.0
1614972196460313081,,170445,,1614900169,38834858,"""0""",12.0,2.0,12.0500001907,0.0
1614972196524784088,,170446,,1614900169,88800900,"""0""",12.0,1.75,12.0500001907,0.0
1614972196681608915,,170447,,1614900169,138838035,"""0""",12.0,1.0,12.0500001907,0.0
1614972196681714057,,170448,,1614900169,189052254,"""0""",12.0,1.0,12.1499996185,0.0
1614972196681735992,,170449,,1614900169,238799077,"""0""",12.0,1.0,12.1499996185,0.0
1614972196681756019,,170450,,1614900169,288806369,"""0""",12.0,1.0,12.1499996185,0.0
1614972196731749057,,170451,,1614900169,338833140,"""0""",12.0,1.375,12.1499996185,0.0
1614972196780181884,,170452,,1614900169,388807202,"""0""",12.0,0.125,12.1499996185,0.0
1614972196830252885,,170453,,1614900169,438780848,"""0""",12.0,0.0,12.1499996185,0.0
1614972196881325960,,170454,,1614900169,488767410,"""0""",12.0,0.0,12.1499996185,0.0
1614972196943706035,,170455,,1614900169,538915431,"""0""",12.0,0.0,12.25,0.0
1614972197006853103,,170456,,1614900169,588862671,"""0""",12.0,0.0,12.25,0.0
1614972197062581062,,170457,,1614900169,638762046,"""0""",12.0,0.0,12.25,0.0
1614972197133171081,,170458,,1614900169,688805796,"""0""",12.0,0.0,12.25,0.0
1614972197200165987,,170459,,1614900169,738785639,"""0""",12.0,0.0,12.25,0.0
1614972197200273036,,170460,,1614900169,788948035,"""0""",12.0,0.0,12.25,0.0
1614972197271497011,,170461,,1614900169,838778191,"""0""",12.0,0.0,12.25,0.0
1614972197338087081,,170462,,1614900169,888793243,"""0""",12.0,0.0,12.25,0.0
1614972197399998903,,170463,,1614900169,938772671,"""0""",12.0,0.0,12.25,0.0
1614972197400171995,,170464,,1614900169,988831108,"""0""",12.0,0.0,12.25,0.0
1614972197460573911,,170465,,1614900170,38785431,"""0""",12.0,0.0,12.25,0.0
1614972197515079975,,170466,,1614900170,88802462,"""0""",12.0,0.0,12.25,0.0
1614972197565908908,,170467,,1614900170,138823556,"""0""",12.0,0.0,12.25,0.0
1614972197612287998,,170468,,1614900170,188834025,"""0""",12.0,0.0,12.25,0.0
1614972197662857055,,170469,,1614900170,238776889,"""0""",12.0,0.0,12.25,0.0
1614972197721929073,,170470,,1614900170,288855900,"""0""",12.0,0.0,12.25,0.0
1614972197777746915,,170471,,1614900170,338872150,"""0""",12.0,0.0,12.25,0.0
1614972197860909938,,170472,,1614900170,388906264,"""0""",12.0,0.0,12.25,0.0
1614972197861047029,,170473,,1614900170,438762931,"""0""",12.0,0.0,12.25,0.0
1614972197950990915,,170474,,1614900170,488855795,"""0""",12.0,0.0,12.3000001907,0.0
1614972197952043056,,170475,,1614900170,538771733,"""0""",12.0,0.0,12.3000001907,0.0
1614972197993573904,,170476,,1614900170,588778868,"""0""",12.0,0.0,12.3000001907,0.0
1614972198045804977,,170477,,1614900170,638770014,"""0""",12.0,0.0,12.3000001907,0.0
1614972198088819980,,170478,,1614900170,688788295,"""0""",12.0,0.0,12.3000001907,0.0
1614972198164308071,,170479,,1614900170,738827149,"""0""",12.0,0.0,12.3000001907,0.0
1614972198211028099,,170480,,1614900170,788847358,"""0""",12.0,0.0,12.3000001907,0.0
1614972198261809110,,170481,,1614900170,838791316,"""0""",12.0,0.0,12.3000001907,0.0
1614972198302212953,,170482,,1614900170,888834441,"""0""",12.0,0.0,12.3000001907,0.0
1614972198334474086,,170483,,1614900170,938831941,"""0""",12.0,0.0,12.3000001907,0.0
1614972198392307996,,170484,,1614900170,988785587,"""0""",12.0,0.0,12.3000001907,0.0
1614972198480433940,,170485,,1614900171,38789181,"""0""",12.0,0.0,12.3000001907,0.0
1614972198574007987,,170486,,1614900171,88797670,"""0""",12.0,0.0,12.3000001907,0.0
1614972198574142932,,170487,,1614900171,138771264,"""0""",12.0,0.0,12.3000001907,0.0
1614972198574276924,,170488,,1614900171,188806941,"""0""",12.0,0.0,12.3000001907,0.0
1614972198631443023,,170489,,1614900171,238791889,"""0""",12.0,0.0,12.3000001907,0.0
1614972198691225051,,170490,,1614900171,288823503,"""0""",12.0,0.0,12.3000001907,0.0
1614972198761591911,,170491,,1614900171,338768712,"""0""",12.0,0.0,12.3000001907,0.0
1614972198818468093,,170492,,1614900171,388951680,"""0""",12.0,0.0,12.3000001907,0.0
1614972198866791009,,170493,,1614900171,438789337,"""0""",12.0,0.0,12.3000001907,0.0
1614972198901607036,,170494,,1614900171,488781628,"""0""",12.0,0.0,12.3000001907,0.0
1614972198949471950,,170495,,1614900171,538763451,"""0""",12.0,0.0,12.3000001907,0.0
1614972198996773958,,170496,,1614900171,588771212,"""0""",12.0,0.0,12.3000001907,0.0
1614972199069591045,,170497,,1614900171,638838347,"""0""",12.0,0.0,12.3000001907,0.0
1614972199126585960,,170498,,1614900171,688786732,"""0""",12.0,0.0,12.3000001907,0.0
1614972199126688003,,170499,,1614900171,738758503,"""0""",12.0,0.0,12.3000001907,0.0
1614972199179194927,,170500,,1614900171,788783139,"""0""",12.0,0.0,12.3000001907,0.0
1614972199224801063,,170501,,1614900171,838777826,"""0""",12.0,0.0,12.3000001907,0.0
1614972199287882089,,170502,,1614900171,889752201,"""0""",12.0,0.0,12.3000001907,0.0
1614972199360162019,,170503,,1614900171,938767826,"""0""",12.0,0.0,12.3000001907,0.0
1614972199404237985,,170504,,1614900171,989623399,"""0""",12.0,0.0,12.3000001907,0.0
1614972199487711906,,170505,,1614900172,38774128,"""0""",12.0,0.0,12.3000001907,0.0
1614972199487818002,,170506,,1614900172,88801055,"""0""",12.0,0.0,12.3000001907,0.0
1614972199524740934,,170507,,1614900172,138794180,"""0""",12.0,0.0,12.3000001907,0.0
1614972199578000068,,170508,,1614900172,188833451,"""0""",12.0,0.0,12.3000001907,0.0
1614972199633503913,,170509,,1614900172,238757670,"""0""",12.0,0.0,12.3000001907,0.0
1614972199675384998,,170510,,1614900172,289570170,"""0""",12.0,0.0,12.3000001907,0.0
1614972199726566076,,170511,,1614900172,338785690,"""0""",12.0,0.0,12.3000001907,0.0
1614972199775259017,,170512,,1614900172,389438763,"""0""",12.0,0.0,12.3000001907,0.0
1614972199821672916,,170513,,1614900172,438824128,"""0""",12.0,0.0,12.3000001907,0.0
1614972199885054111,,170514,,1614900172,489533503,"""0""",12.0,0.0,12.3000001907,0.0
1614972199937513113,,170515,,1614900172,538830326,"""0""",12.0,0.0,12.3000001907,0.0
1614972199984803915,,170516,,1614900172,588819857,"""0""",12.0,0.0,12.3000001907,0.0
1614972200020450115,,170517,,1614900172,638765690,"""0""",12.0,0.0,12.3000001907,0.0
1614972200081708908,,170518,,1614900172,688860117,"""0""",12.0,0.0,12.3000001907,0.0
1614972200122003078,,170519,,1614900172,738839492,"""0""",12.0,0.0,12.3000001907,0.0
1614972200173486948,,170520,,1614900172,789247669,"""0""",12.0,0.0,12.3000001907,0.0
1614972200239373922,,170521,,1614900172,838759701,"""0""",12.0,0.0,12.3000001907,0.0
1614972200276331901,,170522,,1614900172,889335274,"""0""",12.0,0.0,12.3000001907,0.0
1614972200325768947,,170523,,1614900172,938790117,"""0""",12.0,0.0,12.3000001907,0.0
1614972200370603084,,170524,,1614900172,988877357,"""0""",12.0,0.0,12.3000001907,0.0
1614972200426637887,,170525,,1614900173,38787826,"""0""",12.0,0.0,12.3000001907,0.0
1614972200475342035,,170526,,1614900173,89479076,"""0""",12.0,0.0,12.3000001907,0.0
1614972200523515939,,170527,,1614900173,138813138,"""0""",12.0,0.0,12.3000001907,0.0
1614972200613235950,,170528,,1614900173,189133711,"""0""",12.0,0.0,12.3000001907,0.0
1614972200643678903,,170529,,1614900173,238754180,"""0""",12.0,0.0,12.3000001907,0.0
1614972200679476976,,170530,,1614900173,288837826,"""0""",12.0,0.0,12.3000001907,0.0
1614972200723550081,,170531,,1614900173,338820378,"""0""",12.0,0.0,12.3000001907,0.0
1614972200854439020,,170532,,1614900173,388803659,"""0""",12.0,0.0,12.3000001907,0.0
1614972200854547977,,170533,,1614900173,438757669,"""0""",12.0,0.0,12.3000001907,0.0
1614972200925848007,,170534,,1614900173,488821888,"""0""",12.0,0.0,12.3000001907,0.0
1614972200953206062,,170535,,1614900173,538740742,"""0""",12.0,0.0,12.3000001907,0.0
1614972201006735086,,170536,,1614900173,588785534,"""0""",12.0,0.0,12.3000001907,0.0
1614972201038048028,,170537,,1614900173,638774805,"""0""",12.0,0.0,12.3000001907,0.0
1614972201076396942,,170538,,1614900173,688788919,"""0""",12.0,0.0,12.3000001907,0.0
1614972201145855903,,170539,,1614900173,738883138,"""0""",12.0,0.0,12.3000001907,0.0
1614972201182131052,,170540,,1614900173,789476888,"""0""",12.0,0.0,12.3000001907,0.0
1614972201226144075,,170541,,1614900173,838901940,"""0""",12.0,0.0,12.3000001907,0.0
1614972201278136014,,170542,,1614900173,888778919,"""0""",12.0,0.0,12.3000001907,0.0
1614972201338299036,,170543,,1614900173,938785013,"""0""",12.0,0.0,12.3000001907,0.0
1614972201377505064,,170544,,1614900173,988786419,"""0""",13.0,0.0,12.3000001907,0.0
1614972201458148956,,170545,,1614900174,38775221,"""0""",13.0,0.0,12.3000001907,0.0
1614972201499476909,,170546,,1614900174,88792565,"""0""",13.0,0.0,12.3000001907,0.0
1614972201541843891,,170547,,1614900174,138802877,"""0""",13.0,0.0,12.3000001907,0.0
1614972201577986001,,170548,,1614900174,188806002,"""0""",12.0,0.0,12.3500003815,0.0
1614972201633733987,,170549,,1614900174,238770898,"""0""",12.0,0.0,12.3500003815,0.0
1614972201679582118,,170550,,1614900174,288781679,"""0""",12.0,0.0,12.3500003815,0.0
