rosbagTimestamp,header,seq,stamp,secs,nsecs,frame_id,Temperature,OutputCurrent,BusVoltage,ClosedLoopError
1614970380914010047,,134136,,1614898353,588850447,"""0""",13.0,0.0,12.3999996185,0.0
1614970380968693017,,134137,,1614898353,638831905,"""0""",13.0,0.0,12.3999996185,0.0
1614970381013227939,,134138,,1614898353,689059561,"""0""",13.0,0.0,12.3999996185,0.0
1614970381066431045,,134139,,1614898353,738838051,"""0""",13.0,0.0,12.3999996185,0.0
1614970381114986896,,134140,,1614898353,788862738,"""0""",13.0,0.0,12.3999996185,0.0
1614970381168793916,,134141,,1614898353,838787009,"""0""",13.0,0.0,12.3999996185,0.0
1614970381216742038,,134142,,1614898353,889073676,"""0""",13.0,0.0,12.3999996185,0.0
1614970381268105983,,134143,,1614898353,938733259,"""0""",13.0,0.0,12.3999996185,0.0
1614970381320208072,,134144,,1614898353,988805655,"""0""",13.0,0.0,12.3999996185,0.0
1614970381383115053,,134145,,1614898354,38814822,"""0""",13.0,0.0,12.3999996185,0.0
1614970381426476001,,134146,,1614898354,88842530,"""0""",13.0,0.0,12.3999996185,0.0
1614970381487088918,,134147,,1614898354,138767894,"""0""",13.0,0.0,12.3999996185,0.0
1614970381527601957,,134148,,1614898354,189020655,"""0""",13.0,0.0,12.3999996185,0.0
1614970381567863941,,134149,,1614898354,238781176,"""0""",13.0,0.0,12.3999996185,0.0
1614970381620505094,,134150,,1614898354,288823936,"""0""",13.0,0.0,12.3999996185,0.0
1614970381676240921,,134151,,1614898354,338765082,"""0""",13.0,0.0,12.3999996185,0.0
1614970381724428892,,134152,,1614898354,388803155,"""0""",13.0,0.0,12.3999996185,0.0
1614970381801203966,,134153,,1614898354,438786696,"""0""",13.0,0.0,12.3999996185,0.0
1614970381828063011,,134154,,1614898354,488811384,"""0""",13.0,0.0,12.3999996185,0.0
1614970381877010107,,134155,,1614898354,538776644,"""0""",13.0,0.0,12.3999996185,0.0
1614970381925509929,,134156,,1614898354,588802113,"""0""",13.0,0.0,12.3999996185,0.0
1614970381986882925,,134157,,1614898354,638770030,"""0""",13.0,0.0,12.3999996185,0.0
1614970382024368047,,134158,,1614898354,688878519,"""0""",13.0,0.0,12.3999996185,0.0
1614970382099092960,,134159,,1614898354,738850186,"""0""",13.0,0.0,12.3999996185,0.0
1614970382143553018,,134160,,1614898354,789374353,"""0""",13.0,0.0,12.3999996185,0.0
1614970382181088924,,134161,,1614898354,838809769,"""0""",13.0,0.0,12.3999996185,0.0
1614970382226253986,,134162,,1614898354,888855655,"""0""",13.0,0.0,12.3999996185,0.0
1614970382285299062,,134163,,1614898354,938764613,"""0""",13.0,0.0,12.3999996185,0.0
1614970382325432062,,134164,,1614898354,988913207,"""0""",13.0,0.0,12.3999996185,0.0
1614970382389543056,,134165,,1614898355,38743415,"""0""",13.0,0.0,12.3999996185,0.0
1614970382427375078,,134166,,1614898355,88867269,"""0""",13.0,0.0,12.3999996185,0.0
1614970382480819940,,134167,,1614898355,139151540,"""0""",13.0,0.0,12.3999996185,0.0
1614970382536153078,,134168,,1614898355,188793988,"""0""",13.0,0.0,12.3999996185,0.0
1614970382580945014,,134169,,1614898355,238751540,"""0""",13.0,0.0,12.3999996185,0.0
1614970382630084037,,134170,,1614898355,288791904,"""0""",13.0,0.0,12.3999996185,0.0
1614970382705248117,,134171,,1614898355,338860811,"""0""",13.0,0.0,12.3999996185,0.0
1614970382745131015,,134172,,1614898355,389055602,"""0""",13.0,0.0,12.3999996185,0.0
1614970382783514976,,134173,,1614898355,438757217,"""0""",13.0,0.0,12.3999996185,0.0
1614970382842736005,,134174,,1614898355,488779456,"""0""",13.0,0.0,12.3999996185,0.0
1614970382881100893,,134175,,1614898355,538844977,"""0""",13.0,0.0,12.3999996185,0.0
1614970382924962997,,134176,,1614898355,589212425,"""0""",13.0,0.0,12.3999996185,0.0
1614970382980209112,,134177,,1614898355,638832217,"""0""",13.0,0.0,12.3999996185,0.0
1614970383022392034,,134178,,1614898355,688781279,"""0""",13.0,0.0,12.3999996185,0.0
1614970383086972951,,134179,,1614898355,738817790,"""0""",13.0,0.0,12.3999996185,0.0
1614970383132781982,,134180,,1614898355,788766435,"""0""",13.0,0.0,12.3999996185,0.0
1614970383177879095,,134181,,1614898355,838776019,"""0""",13.0,0.0,12.3999996185,0.0
1614970383225263118,,134182,,1614898355,888795967,"""0""",13.0,0.0,12.3999996185,0.0
1614970383277530908,,134183,,1614898355,938908206,"""0""",13.0,0.0,12.3999996185,0.0
1614970383326503038,,134184,,1614898355,989079612,"""0""",12.0,0.0,12.3999996185,0.0
1614970383380992889,,134185,,1614898356,38798154,"""0""",12.0,0.0,12.3999996185,0.0
1614970383431895971,,134186,,1614898356,88782633,"""0""",12.0,0.0,12.3999996185,0.0
1614970383484229087,,134187,,1614898356,138787269,"""0""",13.0,0.0,12.3999996185,0.0
1614970383529856920,,134188,,1614898356,189027685,"""0""",13.0,0.0,12.3999996185,0.0
1614970383601319074,,134189,,1614898356,238785289,"""0""",13.0,0.0,12.3999996185,0.0
1614970383624449014,,134190,,1614898356,288879404,"""0""",13.0,0.0,12.3999996185,0.0
1614970383686160087,,134191,,1614898356,338761800,"""0""",13.0,0.0,12.3999996185,0.0
1614970383729541063,,134192,,1614898356,389438206,"""0""",13.0,0.0,12.3999996185,0.0
1614970383788454055,,134193,,1614898356,438785133,"""0""",13.0,0.0,12.3999996185,0.0
1614970383826694965,,134194,,1614898356,489189300,"""0""",13.0,0.0,12.3999996185,0.0
1614970383897538900,,134195,,1614898356,538776279,"""0""",13.0,0.0,12.3999996185,0.0
1614970383929107904,,134196,,1614898356,588783831,"""0""",13.0,0.0,12.3999996185,0.0
1614970383995225906,,134197,,1614898356,638861748,"""0""",13.0,0.0,12.3999996185,0.0
1614970384033759117,,134198,,1614898356,688783727,"""0""",13.0,0.0,12.3999996185,0.0
1614970384085872888,,134199,,1614898356,738924143,"""0""",13.0,0.0,12.3999996185,0.0
1614970384134459972,,134200,,1614898356,788819300,"""0""",13.0,0.0,12.3999996185,0.0
1614970384206394910,,134201,,1614898356,838783935,"""0""",13.0,0.0,12.3999996185,0.0
1614970384243830919,,134202,,1614898356,888944091,"""0""",13.0,0.0,12.3999996185,0.0
1614970384283135890,,134203,,1614898356,938905758,"""0""",13.0,0.0,12.3999996185,0.0
1614970384327554941,,134204,,1614898356,988971800,"""0""",13.0,0.0,12.3999996185,0.0
1614970384385746955,,134205,,1614898357,38785289,"""0""",13.0,0.0,12.3999996185,0.0
1614970384447837114,,134206,,1614898357,88773883,"""0""",13.0,0.0,12.3999996185,0.0
1614970384496901035,,134207,,1614898357,138784404,"""0""",13.0,0.0,12.3999996185,0.0
1614970384534337997,,134208,,1614898357,188917997,"""0""",13.0,0.0,12.3999996185,0.0
1614970384587201118,,134209,,1614898357,238887320,"""0""",12.0,0.0,12.3999996185,0.0
1614970384632002115,,134210,,1614898357,288960550,"""0""",12.0,1.75,12.3999996185,0.0
1614970384686001062,,134211,,1614898357,338850914,"""0""",12.0,0.625,12.3999996185,0.0
1614970384730631113,,134212,,1614898357,388777008,"""0""",13.0,0.375,12.3500003815,0.0
1614970384800029993,,134213,,1614898357,438901174,"""0""",13.0,0.375,12.3500003815,0.0
1614970384825979948,,134214,,1614898357,488823518,"""0""",13.0,1.75,12.3500003815,0.0
1614970384890367031,,134215,,1614898357,538782216,"""0""",13.0,1.375,12.3500003815,0.0
1614970384933693885,,134216,,1614898357,588809768,"""0""",12.0,1.375,12.3000001907,0.0
1614970384988249063,,134217,,1614898357,638762112,"""0""",12.0,1.375,12.3000001907,0.0
1614970385030713081,,134218,,1614898357,688908518,"""0""",12.0,0.625,12.3000001907,0.0
1614970385089991092,,134219,,1614898357,738782372,"""0""",13.0,0.625,12.3500003815,0.0
1614970385182303905,,134220,,1614898357,789548622,"""0""",13.0,0.375,12.3500003815,0.0
1614970385182414054,,134221,,1614898357,838797581,"""0""",13.0,0.375,12.3500003815,0.0
1614970385228193044,,134222,,1614898357,888792737,"""0""",13.0,0.375,12.3500003815,0.0
1614970385285857915,,134223,,1614898357,938859716,"""0""",13.0,0.375,12.3500003815,0.0
1614970385331769943,,134224,,1614898357,988781695,"""0""",13.0,0.375,12.3500003815,0.0
1614970385390083074,,134225,,1614898358,38782476,"""0""",12.0,0.625,12.3500003815,0.0
1614970385428111076,,134226,,1614898358,88872580,"""0""",12.0,0.375,12.3500003815,0.0
1614970385483477115,,134227,,1614898358,138788466,"""0""",12.0,0.375,12.3500003815,0.0
1614970385534770011,,134228,,1614898358,189041174,"""0""",12.0,0.375,12.3500003815,0.0
1614970385580831050,,134229,,1614898358,238821955,"""0""",12.0,1.0,12.3500003815,0.0
1614970385638088941,,134230,,1614898358,288940966,"""0""",12.0,1.875,12.3500003815,0.0
1614970385679431915,,134231,,1614898358,338946955,"""0""",12.0,0.625,12.3500003815,0.0
1614970385725832939,,134232,,1614898358,388850966,"""0""",12.0,0.375,12.3500003815,0.0
1614970385782679080,,134233,,1614898358,438952059,"""0""",12.0,0.625,12.3500003815,0.0
1614970385834992885,,134234,,1614898358,488883309,"""0""",12.0,0.375,12.3500003815,0.0
1614970385888603925,,134235,,1614898358,539397424,"""0""",12.0,0.625,12.3500003815,0.0
1614970385952013969,,134236,,1614898358,588829299,"""0""",12.0,1.0,12.3500003815,0.0
1614970386000907897,,134237,,1614898358,638783466,"""0""",12.0,1.375,12.3500003815,0.0
1614970386034964084,,134238,,1614898358,688873570,"""0""",12.0,2.0,12.3000001907,0.0
1614970386089955091,,134239,,1614898358,738795393,"""0""",12.0,2.0,12.3000001907,0.0
1614970386133143901,,134240,,1614898358,788831539,"""0""",12.0,1.75,12.3000001907,0.0
1614970386193558931,,134241,,1614898358,838902945,"""0""",12.0,1.75,12.25,0.0
1614970386240083932,,134242,,1614898358,888802007,"""0""",12.0,1.75,12.25,0.0
1614970386322623968,,134243,,1614898358,938750705,"""0""",12.0,1.75,12.25,0.0
1614970386322760105,,134244,,1614898358,988819455,"""0""",12.0,1.0,12.3000001907,0.0
1614970386383651971,,134245,,1614898359,38872216,"""0""",12.0,0.625,12.3000001907,0.0
1614970386431946992,,134246,,1614898359,88813830,"""0""",12.0,1.0,12.3000001907,0.0
1614970386487319946,,134247,,1614898359,138795653,"""0""",12.0,1.0,12.3000001907,0.0
1614970386599303960,,134248,,1614898359,188793830,"""0""",12.0,0.375,12.3500003815,0.0
1614970386599431037,,134249,,1614898359,238859559,"""0""",12.0,0.375,12.3500003815,0.0
1614970386630373001,,134250,,1614898359,288874403,"""0""",12.0,0.375,12.3500003815,0.0
1614970386691386938,,134251,,1614898359,338943934,"""0""",12.0,0.625,12.3500003815,0.0
1614970386735193014,,134252,,1614898359,388805028,"""0""",12.0,0.375,12.3500003815,0.0
1614970386792931079,,134253,,1614898359,438796903,"""0""",12.0,0.375,12.3500003815,0.0
1614970386833703994,,134254,,1614898359,488781278,"""0""",12.0,0.375,12.3000001907,0.0
1614970386882844924,,134255,,1614898359,538783934,"""0""",12.0,0.625,12.3000001907,0.0
1614970386938922882,,134256,,1614898359,588852476,"""0""",12.0,0.375,12.3000001907,0.0
1614970387008064985,,134257,,1614898359,638904455,"""0""",12.0,0.375,12.3500003815,0.0
1614970387062854051,,134258,,1614898359,688999715,"""0""",12.0,0.375,12.3500003815,0.0
1614970387102969884,,134259,,1614898359,738831121,"""0""",12.0,0.375,12.3500003815,0.0
1614970387144601106,,134260,,1614898359,789016642,"""0""",12.0,0.375,12.3500003815,0.0
1614970387255234956,,134261,,1614898359,838805132,"""0""",12.0,0.375,12.3500003815,0.0
1614970387255506992,,134262,,1614898359,888800601,"""0""",12.0,0.375,12.3500003815,0.0
1614970387297334909,,134263,,1614898359,938786278,"""0""",12.0,0.0,12.3500003815,0.0
1614970387336410999,,134264,,1614898359,988774194,"""0""",12.0,0.375,12.3500003815,0.0
1614970387390110969,,134265,,1614898360,38772580,"""0""",12.0,0.375,12.3500003815,0.0
1614970387433767080,,134266,,1614898360,88896069,"""0""",12.0,0.0,12.3500003815,0.0
1614970387498641014,,134267,,1614898360,138755913,"""0""",12.0,0.0,12.3500003815,0.0
1614970387568072080,,134268,,1614898360,188781330,"""0""",12.0,0.0,12.3500003815,0.0
1614970387636980056,,134269,,1614898360,238865600,"""0""",12.0,0.0,12.3500003815,0.0
1614970387637088060,,134270,,1614898360,289009142,"""0""",12.0,0.0,12.3500003815,0.0
1614970387691530942,,134271,,1614898360,338774663,"""0""",12.0,0.0,12.3500003815,0.0
1614970387738286018,,134272,,1614898360,388870757,"""0""",12.0,0.0,12.3500003815,0.0
1614970387793237924,,134273,,1614898360,438771017,"""0""",12.0,0.0,12.3999996185,0.0
1614970387834012031,,134274,,1614898360,488814663,"""0""",12.0,0.0,12.3999996185,0.0
1614970387884500980,,134275,,1614898360,539416642,"""0""",12.0,0.0,12.3999996185,0.0
1614970387949348926,,134276,,1614898360,588820548,"""0""",12.0,0.0,12.3999996185,0.0
1614970387992089033,,134277,,1614898360,638788725,"""0""",12.0,0.0,12.3999996185,0.0
1614970388034077882,,134278,,1614898360,688827319,"""0""",12.0,0.0,12.3999996185,0.0
1614970388089215993,,134279,,1614898360,738854246,"""0""",12.0,0.0,12.3999996185,0.0
1614970388129486083,,134280,,1614898360,788994663,"""0""",12.0,0.0,12.3999996185,0.0
1614970388189939975,,134281,,1614898360,838779715,"""0""",12.0,0.0,12.3999996185,0.0
1614970388236150026,,134282,,1614898360,888751642,"""0""",12.0,0.375,12.3999996185,0.0
1614970388289465904,,134283,,1614898360,938889454,"""0""",12.0,0.375,12.3500003815,0.0
1614970388333626031,,134284,,1614898360,988885340,"""0""",12.0,0.375,12.3500003815,0.0
1614970388394907951,,134285,,1614898361,38762788,"""0""",12.0,0.375,12.3500003815,0.0
1614970388432090997,,134286,,1614898361,89315600,"""0""",12.0,0.375,12.3500003815,0.0
1614970388497153997,,134287,,1614898361,138785704,"""0""",12.0,0.375,12.3500003815,0.0
1614970388551136970,,134288,,1614898361,188897163,"""0""",12.0,0.375,12.3500003815,0.0
1614970388623084068,,134289,,1614898361,238812215,"""0""",12.0,0.375,12.3500003815,0.0
1614970388684413909,,134290,,1614898361,288844506,"""0""",12.0,0.375,12.3500003815,0.0
1614970388728447914,,134291,,1614898361,338789350,"""0""",12.0,0.375,12.3500003815,0.0
1614970388766251087,,134292,,1614898361,389500600,"""0""",12.0,0.375,12.3500003815,0.0
1614970388798351049,,134293,,1614898361,439202475,"""0""",12.0,0.375,12.3500003815,0.0
1614970388834278106,,134294,,1614898361,488886746,"""0""",12.0,0.375,12.3500003815,0.0
1614970388892744064,,134295,,1614898361,538784610,"""0""",12.0,0.625,12.3500003815,0.0
1614970388946820974,,134296,,1614898361,588828100,"""0""",12.0,0.375,12.3500003815,0.0
1614970388988811016,,134297,,1614898361,638869767,"""0""",12.0,0.375,12.3500003815,0.0
1614970389031550884,,134298,,1614898361,689466329,"""0""",12.0,0.375,12.3500003815,0.0
1614970389089601039,,134299,,1614898361,738963881,"""0""",12.0,0.625,12.3000001907,0.0
1614970389133466958,,134300,,1614898361,789455287,"""0""",12.0,0.625,12.3000001907,0.0
1614970389183520078,,134301,,1614898361,838784662,"""0""",12.0,0.375,12.3000001907,0.0
1614970389232712030,,134302,,1614898361,888988412,"""0""",12.0,0.375,12.3500003815,0.0
1614970389294358968,,134303,,1614898361,938792683,"""0""",12.0,0.375,12.3500003815,0.0
1614970389334923982,,134304,,1614898361,988985652,"""0""",12.0,0.375,12.3500003815,0.0
1614970389390448093,,134305,,1614898362,38873725,"""0""",12.0,0.375,12.3500003815,0.0
1614970389435745954,,134306,,1614898362,88887162,"""0""",12.0,0.375,12.3500003815,0.0
1614970389487853050,,134307,,1614898362,138832214,"""0""",12.0,0.375,12.3500003815,0.0
1614970389533514976,,134308,,1614898362,189590287,"""0""",12.0,0.375,12.3500003815,0.0
1614970389597299098,,134309,,1614898362,238786693,"""0""",12.0,0.375,12.3500003815,0.0
1614970389689075946,,134310,,1614898362,288775600,"""0""",12.0,0.375,12.3500003815,0.0
1614970389689124107,,134311,,1614898362,338835495,"""0""",12.0,0.375,12.3500003815,0.0
1614970389743138074,,134312,,1614898362,388965183,"""0""",12.0,0.375,12.3500003815,0.0
1614970389787168025,,134313,,1614898362,438834662,"""0""",12.0,0.375,12.3500003815,0.0
1614970389833683013,,134314,,1614898362,488775704,"""0""",12.0,0.375,12.3500003815,0.0
1614970389889477968,,134315,,1614898362,538850131,"""0""",12.0,0.375,12.3500003815,0.0
1614970389936537027,,134316,,1614898362,588806225,"""0""",12.0,0.375,12.3500003815,0.0
1614970389990966081,,134317,,1614898362,638763516,"""0""",12.0,0.375,12.3500003815,0.0
1614970390040790081,,134318,,1614898362,688790756,"""0""",12.0,0.375,12.3500003815,0.0
1614970390094078063,,134319,,1614898362,738777422,"""0""",12.0,0.375,12.3500003815,0.0
1614970390137943983,,134320,,1614898362,788882474,"""0""",12.0,1.75,12.3500003815,0.0
1614970390259882926,,134321,,1614898362,838788099,"""0""",12.0,1.375,12.3000001907,0.0
1614970390260009050,,134322,,1614898362,888802787,"""0""",12.0,1.0,12.3000001907,0.0
1614970390304119110,,134323,,1614898362,938839870,"""0""",12.0,0.625,12.3000001907,0.0
1614970390335738897,,134324,,1614898362,988767474,"""0""",12.0,0.375,12.3500003815,0.0
1614970390387490987,,134325,,1614898363,39346797,"""0""",12.0,0.375,12.3500003815,0.0
1614970390453569889,,134326,,1614898363,88782058,"""0""",12.0,0.375,12.3500003815,0.0
1614970390583980083,,134327,,1614898363,138968360,"""0""",12.0,0.375,12.3500003815,0.0
1614970390584119081,,134328,,1614898363,188900599,"""0""",12.0,0.375,12.3500003815,0.0
1614970390644072055,,134329,,1614898363,238748516,"""0""",12.0,0.375,12.3500003815,0.0
1614970390644207954,,134330,,1614898363,288964766,"""0""",12.0,0.375,12.3500003815,0.0
1614970390694979906,,134331,,1614898363,338814349,"""0""",12.0,0.375,12.3500003815,0.0
1614970390754610061,,134332,,1614898363,388826276,"""0""",12.0,1.0,12.3500003815,0.0
1614970390828557014,,134333,,1614898363,438871849,"""0""",12.0,1.0,12.3500003815,0.0
1614970390871836900,,134334,,1614898363,488785078,"""0""",12.0,1.0,12.25,0.0
1614970390922159910,,134335,,1614898363,539131537,"""0""",12.0,1.375,12.25,0.0
1614970390968400001,,134336,,1614898363,588776276,"""0""",12.0,1.0,12.25,0.0
1614970391067712068,,134337,,1614898363,638777735,"""0""",12.0,1.375,12.25,0.0
1614970391067931890,,134338,,1614898363,688777995,"""0""",12.0,1.75,12.25,0.0
1614970391129776000,,134339,,1614898363,738832578,"""0""",12.0,1.0,12.25,0.0
1614970391179744958,,134340,,1614898363,788781016,"""0""",12.0,1.0,12.3000001907,0.0
1614970391218745946,,134341,,1614898363,838783203,"""0""",12.0,0.625,12.3000001907,0.0
1614970391255706071,,134342,,1614898363,888772422,"""0""",12.0,0.625,12.3000001907,0.0
1614970391299180030,,134343,,1614898363,938827214,"""0""",12.0,0.625,12.3000001907,0.0
1614970391428941011,,134344,,1614898363,988801745,"""0""",12.0,0.375,12.3500003815,0.0
1614970391429114103,,134345,,1614898364,38864349,"""0""",12.0,0.375,12.3500003815,0.0
1614970391514246940,,134346,,1614898364,88875755,"""0""",12.0,0.375,12.3500003815,0.0
1614970391514349937,,134347,,1614898364,139124453,"""0""",12.0,0.375,12.3500003815,0.0
1614970391546978950,,134348,,1614898364,188820547,"""0""",12.0,0.375,12.3500003815,0.0
1614970391768627882,,134349,,1614898364,238855182,"""0""",12.0,0.375,12.3500003815,0.0
1614970391768754005,,134350,,1614898364,288872838,"""0""",12.0,0.375,12.3000001907,0.0
1614970391768779993,,134351,,1614898364,338827318,"""0""",12.0,0.625,12.3000001907,0.0
1614970391768800973,,134352,,1614898364,388778047,"""0""",12.0,0.625,12.3000001907,0.0
1614970391814980983,,134353,,1614898364,439257057,"""0""",12.0,0.625,12.3000001907,0.0
1614970391854732990,,134354,,1614898364,488959141,"""0""",12.0,1.0,12.3000001907,0.0
1614970391893022060,,134355,,1614898364,538928515,"""0""",12.0,1.0,12.3000001907,0.0
1614970391937877893,,134356,,1614898364,588771953,"""0""",12.0,0.625,12.3500003815,0.0
1614970391991358995,,134357,,1614898364,638827057,"""0""",12.0,0.625,12.3500003815,0.0
1614970392036094903,,134358,,1614898364,688932995,"""0""",12.0,1.0,12.3500003815,0.0
1614970392095644950,,134359,,1614898364,739062942,"""0""",12.0,1.0,12.3500003815,0.0
1614970392151974916,,134360,,1614898364,788811640,"""0""",12.0,0.375,12.3000001907,0.0
1614970392195801019,,134361,,1614898364,838784349,"""0""",12.0,0.375,12.3000001907,0.0
1614970392246179103,,134362,,1614898364,888865599,"""0""",12.0,0.375,12.3000001907,0.0
1614970392297910928,,134363,,1614898364,938824713,"""0""",12.0,0.375,12.3500003815,0.0
1614970392343533039,,134364,,1614898364,988939922,"""0""",12.0,0.625,12.3500003815,0.0
1614970392398747920,,134365,,1614898365,38860442,"""0""",12.0,0.625,12.3500003815,0.0
1614970392440763950,,134366,,1614898365,88804765,"""0""",12.0,0.625,12.3500003815,0.0
1614970392501892089,,134367,,1614898365,138819505,"""0""",12.0,0.625,12.3500003815,0.0
1614970392553654909,,134368,,1614898365,188827213,"""0""",12.0,0.625,12.3500003815,0.0
1614970392605084896,,134369,,1614898365,238873255,"""0""",12.0,0.625,12.3500003815,0.0
1614970392638792991,,134370,,1614898365,288789661,"""0""",12.0,0.625,12.3500003815,0.0
1614970392691493034,,134371,,1614898365,338780859,"""0""",12.0,0.375,12.3500003815,0.0
1614970392756479978,,134372,,1614898365,388827161,"""0""",12.0,0.625,12.3500003815,0.0
1614970392802210092,,134373,,1614898365,438919296,"""0""",12.0,0.375,12.3500003815,0.0
1614970392904402017,,134374,,1614898365,488845911,"""0""",12.0,0.375,12.3500003815,0.0
1614970392977063894,,134375,,1614898365,538918203,"""0""",12.0,0.375,12.3500003815,0.0
1614970392977166891,,134376,,1614898365,588768411,"""0""",12.0,0.375,12.3500003815,0.0
1614970393034194946,,134377,,1614898365,638773098,"""0""",12.0,0.625,12.3500003815,0.0
1614970393130043029,,134378,,1614898365,688777213,"""0""",12.0,0.625,12.3500003815,0.0
1614970393130306005,,134379,,1614898365,738984973,"""0""",12.0,0.625,12.3500003815,0.0
1614970393208054065,,134380,,1614898365,788772630,"""0""",12.0,1.375,12.3500003815,0.0
1614970393208157062,,134381,,1614898365,838825025,"""0""",12.0,1.375,12.3500003815,0.0
1614970393249583005,,134382,,1614898365,888784140,"""0""",12.0,1.375,12.25,0.0
1614970393289446115,,134383,,1614898365,938781015,"""0""",12.0,1.375,12.25,0.0
1614970393342776060,,134384,,1614898365,988781952,"""0""",12.0,1.0,12.25,0.0
1614970393394328117,,134385,,1614898366,38848723,"""0""",12.0,0.625,12.3000001907,0.0
1614970393448966026,,134386,,1614898366,89290650,"""0""",12.0,0.625,12.3000001907,0.0
1614970393493519067,,134387,,1614898366,138886796,"""0""",12.0,0.375,12.3000001907,0.0
1614970393544918060,,134388,,1614898366,188783932,"""0""",12.0,0.375,12.3500003815,0.0
1614970393632639884,,134389,,1614898366,238818567,"""0""",12.0,0.375,12.3500003815,0.0
1614970393685986042,,134390,,1614898366,288808046,"""0""",12.0,0.375,12.3500003815,0.0
1614970393718090057,,134391,,1614898366,338837109,"""0""",12.0,0.375,12.3500003815,0.0
1614970393781714916,,134392,,1614898366,388793306,"""0""",12.0,0.375,12.3500003815,0.0
1614970393853177070,,134393,,1614898366,438788879,"""0""",12.0,0.375,12.3500003815,0.0
1614970393853275060,,134394,,1614898366,488784869,"""0""",12.0,0.375,12.3500003815,0.0
1614970393913742065,,134395,,1614898366,538782473,"""0""",12.0,0.375,12.3500003815,0.0
1614970393951909065,,134396,,1614898366,588937213,"""0""",12.0,0.375,12.3500003815,0.0
1614970393989001035,,134397,,1614898366,638791119,"""0""",12.0,0.375,12.3500003815,0.0
1614970394043929100,,134398,,1614898366,688723463,"""0""",12.0,0.375,12.3500003815,0.0
1614970394158055067,,134399,,1614898366,738837629,"""0""",12.0,0.375,12.3500003815,0.0
1614970394158183097,,134400,,1614898366,789162681,"""0""",12.0,0.625,12.3500003815,0.0
1614970394212424039,,134401,,1614898366,838808358,"""0""",12.0,1.0,12.3000001907,0.0
1614970394254913091,,134402,,1614898366,888808306,"""0""",12.0,1.0,12.3000001907,0.0
1614970394295639991,,134403,,1614898366,938815858,"""0""",12.0,1.0,12.3000001907,0.0
1614970394350626945,,134404,,1614898366,988798046,"""0""",12.0,1.75,12.3000001907,0.0
1614970394412820100,,134405,,1614898367,38785390,"""0""",12.0,2.0,12.3000001907,0.0
1614970394547270059,,134406,,1614898367,88859452,"""0""",12.0,1.875,12.3000001907,0.0
1614970394547380924,,134407,,1614898367,138790910,"""0""",12.0,1.75,12.3000001907,0.0
1614970394547405004,,134408,,1614898367,188828931,"""0""",12.0,1.875,12.25,0.0
1614970394593035936,,134409,,1614898367,238999764,"""0""",12.0,1.875,12.25,0.0
1614970394648206949,,134410,,1614898367,288782994,"""0""",12.0,2.0,12.25,0.0
1614970394725245952,,134411,,1614898367,338773931,"""0""",12.0,1.875,12.25,0.0
1614970394761904954,,134412,,1614898367,388786952,"""0""",12.0,1.0,12.25,0.0
1614970394808762073,,134413,,1614898367,438805181,"""0""",12.0,0.625,12.25,0.0
1614970394850872039,,134414,,1614898367,488781744,"""0""",12.0,0.625,12.3000001907,0.0
1614970394887360095,,134415,,1614898367,538839035,"""0""",12.0,0.625,12.3000001907,0.0
1614970394940854072,,134416,,1614898367,588807629,"""0""",12.0,0.375,12.3000001907,0.0
1614970395001301050,,134417,,1614898367,638857681,"""0""",12.0,0.625,12.3500003815,0.0
1614970395043761968,,134418,,1614898367,688791691,"""0""",12.0,0.625,12.3500003815,0.0
1614970395081872940,,134419,,1614898367,738789400,"""0""",12.0,0.625,12.3500003815,0.0
1614970395142535924,,134420,,1614898367,788786014,"""0""",12.0,0.375,12.3000001907,0.0
1614970395187391996,,134421,,1614898367,838797889,"""0""",12.0,0.375,12.3000001907,0.0
1614970395248037099,,134422,,1614898367,888788566,"""0""",12.0,1.0,12.3000001907,0.0
1614970395305840969,,134423,,1614898367,938947733,"""0""",12.0,1.375,12.3000001907,0.0
1614970395354482889,,134424,,1614898367,988818358,"""0""",12.0,1.0,12.3000001907,0.0
1614970395405736923,,134425,,1614898368,39040545,"""0""",12.0,1.0,12.3000001907,0.0
1614970395450828075,,134426,,1614898368,88783670,"""0""",12.0,0.625,12.3000001907,0.0
1614970395494616985,,134427,,1614898368,138945754,"""0""",12.0,0.625,12.3000001907,0.0
1614970395542146921,,134428,,1614898368,188792993,"""0""",12.0,0.625,12.3000001907,0.0
1614970395605906963,,134429,,1614898368,239012316,"""0""",12.0,0.625,12.3000001907,0.0
1614970395660583019,,134430,,1614898368,288843774,"""0""",12.0,0.375,12.3500003815,0.0
1614970395705854892,,134431,,1614898368,338798670,"""0""",12.0,0.375,12.3500003815,0.0
1614970395757352113,,134432,,1614898368,388778774,"""0""",12.0,0.375,12.3500003815,0.0
1614970395792968988,,134433,,1614898368,438814556,"""0""",12.0,0.375,12.3500003815,0.0
1614970395840804100,,134434,,1614898368,488793931,"""0""",12.0,0.375,12.3500003815,0.0
1614970395892457008,,134435,,1614898368,538921379,"""0""",12.0,0.375,12.3500003815,0.0
1614970395949563026,,134436,,1614898368,588740181,"""0""",12.0,0.375,12.3500003815,0.0
1614970395998404979,,134437,,1614898368,638784347,"""0""",12.0,0.375,12.3500003815,0.0
1614970396043734073,,134438,,1614898368,688803253,"""0""",12.0,0.375,12.3500003815,0.0
1614970396093641042,,134439,,1614898368,738815285,"""0""",12.0,0.375,12.3500003815,0.0
1614970396141813039,,134440,,1614898368,788841431,"""0""",12.0,0.375,12.3500003815,0.0
1614970396206599950,,134441,,1614898368,839070597,"""0""",12.0,0.375,12.3500003815,0.0
1614970396253686904,,134442,,1614898368,888932316,"""0""",12.0,0.375,12.3500003815,0.0
1614970396303100109,,134443,,1614898368,938865962,"""0""",12.0,0.375,12.3500003815,0.0
1614970396387399911,,134444,,1614898368,988889503,"""0""",12.0,0.375,12.3500003815,0.0
1614970396435002088,,134445,,1614898369,38766483,"""0""",12.0,0.375,12.3500003815,0.0
1614970396512252092,,134446,,1614898369,88837264,"""0""",12.0,0.375,12.3500003815,0.0
1614970396512371063,,134447,,1614898369,138800180,"""0""",12.0,0.0,12.3500003815,0.0
1614970396581166028,,134448,,1614898369,188815857,"""0""",12.0,0.0,12.3500003815,0.0
1614970396641670942,,134449,,1614898369,238750597,"""0""",12.0,0.375,12.3500003815,0.0
1614970396641804933,,134450,,1614898369,288785701,"""0""",12.0,0.375,12.3500003815,0.0
1614970396713013887,,134451,,1614898369,338870753,"""0""",12.0,0.375,12.3500003815,0.0
1614970396807713031,,134452,,1614898369,388835284,"""0""",12.0,0.0,12.3500003815,0.0
1614970396849669933,,134453,,1614898369,438776743,"""0""",12.0,0.0,12.3500003815,0.0
1614970396849777936,,134454,,1614898369,488786743,"""0""",12.0,0.375,12.3500003815,0.0
1614970396936626911,,134455,,1614898369,538774868,"""0""",12.0,0.375,12.3500003815,0.0
1614970396982047080,,134456,,1614898369,588814451,"""0""",12.0,0.0,12.3500003815,0.0
1614970397017801046,,134457,,1614898369,638907107,"""0""",12.0,0.0,12.3500003815,0.0
1614970397106987953,,134458,,1614898369,688774243,"""0""",12.0,0.375,12.3500003815,0.0
1614970397107099056,,134459,,1614898369,738822107,"""0""",12.0,0.375,12.3500003815,0.0
1614970397147216081,,134460,,1614898369,788775284,"""0""",12.0,0.375,12.3500003815,0.0
1614970397191051006,,134461,,1614898369,838771326,"""0""",12.0,0.375,12.3500003815,0.0
1614970397249430894,,134462,,1614898369,888774763,"""0""",12.0,0.625,12.3000001907,0.0
1614970397294536113,,134463,,1614898369,939093566,"""0""",12.0,0.625,12.3000001907,0.0
1614970397445693016,,134464,,1614898369,988808774,"""0""",12.0,1.0,12.3000001907,0.0
1614970397445797920,,134465,,1614898370,38833670,"""0""",12.0,1.0,12.25,0.0
1614970397445820093,,134466,,1614898370,88974711,"""0""",12.0,1.375,12.25,0.0
1614970397510854959,,134467,,1614898370,138774711,"""0""",12.0,1.375,12.25,0.0
1614970397545264005,,134468,,1614898370,188782055,"""0""",12.0,1.0,12.3000001907,0.0
1614970397589339017,,134469,,1614898370,238776378,"""0""",12.0,1.0,12.3000001907,0.0
1614970397639122962,,134470,,1614898370,288786951,"""0""",12.0,0.625,12.3000001907,0.0
1614970397720401048,,134471,,1614898370,338802211,"""0""",12.0,0.625,12.3000001907,0.0
1614970397773539066,,134472,,1614898370,388786690,"""0""",12.0,0.375,12.3500003815,0.0
1614970397819446086,,134473,,1614898370,438784867,"""0""",12.0,0.375,12.3500003815,0.0
1614970397864749908,,134474,,1614898370,488789919,"""0""",12.0,1.0,12.3500003815,0.0
1614970397918802976,,134475,,1614898370,539129242,"""0""",12.0,1.375,12.3000001907,0.0
1614970397990466117,,134476,,1614898370,588813774,"""0""",12.0,0.625,12.3000001907,0.0
1614970398039597988,,134477,,1614898370,638781430,"""0""",12.0,0.625,12.3000001907,0.0
1614970398092611074,,134478,,1614898370,688971013,"""0""",12.0,1.0,12.3000001907,0.0
1614970398140522956,,134479,,1614898370,738849919,"""0""",12.0,1.375,12.3000001907,0.0
1614970398185297966,,134480,,1614898370,788876221,"""0""",12.0,1.375,12.3000001907,0.0
1614970398237889051,,134481,,1614898370,838785388,"""0""",12.0,1.0,12.3000001907,0.0
1614970398314253091,,134482,,1614898370,888863148,"""0""",12.0,0.625,12.3000001907,0.0
1614970398314364910,,134483,,1614898370,938872159,"""0""",12.0,0.375,12.3000001907,0.0
1614970398366831064,,134484,,1614898370,988892211,"""0""",12.0,0.375,12.3000001907,0.0
1614970398411266088,,134485,,1614898371,38788565,"""0""",12.0,0.375,12.3000001907,0.0
1614970398476805925,,134486,,1614898371,88796742,"""0""",12.0,0.375,12.3000001907,0.0
1614970398517069101,,134487,,1614898371,138768200,"""0""",12.0,0.375,12.3000001907,0.0
1614970398599812030,,134488,,1614898371,188787211,"""0""",12.0,0.375,12.3500003815,0.0
1614970398646831989,,134489,,1614898371,238777888,"""0""",12.0,0.375,12.3500003815,0.0
1614970398697271108,,134490,,1614898371,288895127,"""0""",12.0,0.375,12.3500003815,0.0
1614970398762422084,,134491,,1614898371,338816221,"""0""",12.0,0.375,12.3500003815,0.0
1614970398762577056,,134492,,1614898371,388773200,"""0""",12.0,0.375,12.3500003815,0.0
1614970398808058977,,134493,,1614898371,438753044,"""0""",12.0,0.375,12.3500003815,0.0
1614970398857691049,,134494,,1614898371,488901013,"""0""",12.0,0.375,12.3500003815,0.0
1614970398912806987,,134495,,1614898371,539038044,"""0""",12.0,0.375,12.3500003815,0.0
1614970398958014965,,134496,,1614898371,588897471,"""0""",12.0,0.375,12.3500003815,0.0
1614970399014173984,,134497,,1614898371,638795388,"""0""",12.0,0.375,12.3500003815,0.0
1614970399052231073,,134498,,1614898371,688807627,"""0""",12.0,0.375,12.3500003815,0.0
1614970399085767030,,134499,,1614898371,739046638,"""0""",12.0,0.375,12.3500003815,0.0
1614970399151521921,,134500,,1614898371,788862263,"""0""",12.0,0.625,12.3000001907,0.0
1614970399228418111,,134501,,1614898371,838806846,"""0""",12.0,0.375,12.3000001907,0.0
1614970399264918088,,134502,,1614898371,888825856,"""0""",12.0,0.375,12.3000001907,0.0
1614970399321183919,,134503,,1614898371,938778565,"""0""",12.0,0.625,12.3000001907,0.0
1614970399371248960,,134504,,1614898371,988947106,"""0""",12.0,1.75,12.3000001907,0.0
1614970399411600112,,134505,,1614898372,38793981,"""0""",12.0,2.0,12.3000001907,0.0
1614970399490082979,,134506,,1614898372,88778877,"""0""",12.0,1.75,12.3000001907,0.0
1614970399522409915,,134507,,1614898372,138761481,"""0""",12.0,1.875,12.25,0.0
1614970399573743104,,134508,,1614898372,188784294,"""0""",12.0,2.0,12.25,0.0
1614970399627098083,,134509,,1614898372,238762054,"""0""",12.0,2.125,12.25,0.0
1614970399680659055,,134510,,1614898372,288775856,"""0""",12.0,2.25,12.25,0.0
1614970399723057031,,134511,,1614898372,339160960,"""0""",12.0,2.125,12.25,0.0
1614970399891419887,,134512,,1614898372,389028669,"""0""",12.0,2.125,12.25,0.0
1614970399891557931,,134513,,1614898372,438941429,"""0""",12.0,2.125,12.1000003815,0.0
1614970399891689062,,134514,,1614898372,488839242,"""0""",12.0,2.125,12.1000003815,0.0
1614970399964962005,,134515,,1614898372,538770492,"""0""",12.0,2.125,12.1000003815,0.0
1614970399965078115,,134516,,1614898372,588844346,"""0""",12.0,2.125,12.1999998093,0.0
1614970400061707019,,134517,,1614898372,638891794,"""0""",12.0,2.0,12.1999998093,0.0
1614970400061824083,,134518,,1614898372,688852783,"""0""",12.0,2.0,12.1999998093,0.0
1614970400129663944,,134519,,1614898372,738813877,"""0""",12.0,2.0,12.1999998093,0.0
1614970400199126958,,134520,,1614898372,788770908,"""0""",12.0,2.125,12.25,0.0
1614970400199405908,,134521,,1614898372,838788356,"""0""",12.0,2.125,12.25,0.0
1614970400255249023,,134522,,1614898372,888792471,"""0""",12.0,2.25,12.25,0.0
1614970400355220079,,134523,,1614898372,938828044,"""0""",12.0,2.25,12.1999998093,0.0
1614970400355340003,,134524,,1614898372,989138356,"""0""",12.0,2.125,12.1999998093,0.0
1614970400456439018,,134525,,1614898373,39163096,"""0""",12.0,2.125,12.1999998093,0.0
1614970400456599950,,134526,,1614898373,89270648,"""0""",12.0,2.125,12.1499996185,0.0
1614970400589142084,,134527,,1614898373,138787991,"""0""",12.0,2.125,12.1499996185,0.0
1614970400589278936,,134528,,1614898373,189229346,"""0""",12.0,2.125,12.1499996185,0.0
1614970400645149946,,134529,,1614898373,238782939,"""0""",12.0,2.125,12.25,0.0
1614970400645257949,,134530,,1614898373,289063304,"""0""",12.0,2.125,12.25,0.0
1614970400706177949,,134531,,1614898373,338774502,"""0""",12.0,2.125,12.25,0.0
1614970400752224922,,134532,,1614898373,389590752,"""0""",12.0,2.125,12.1999998093,0.0
1614970400826616048,,134533,,1614898373,439362887,"""0""",12.0,2.125,12.1999998093,0.0
1614970400908945083,,134534,,1614898373,488828408,"""0""",12.0,2.125,12.1999998093,0.0
1614970400946043014,,134535,,1614898373,538860439,"""0""",12.0,2.125,12.1999998093,0.0
1614970400946147918,,134536,,1614898373,588977470,"""0""",12.0,2.0,12.25,0.0
1614970401000992059,,134537,,1614898373,639023616,"""0""",12.0,2.0,12.25,0.0
1614970401056905031,,134538,,1614898373,689227731,"""0""",12.0,2.0,12.25,0.0
1614970401130023956,,134539,,1614898373,738795074,"""0""",12.0,2.0,12.25,0.0
1614970401185053110,,134540,,1614898373,788909449,"""0""",12.0,2.0,12.25,0.0
1614970401233875036,,134541,,1614898373,838773460,"""0""",12.0,2.125,12.25,0.0
1614970401312838077,,134542,,1614898373,888974658,"""0""",12.0,2.125,12.1999998093,0.0
1614970401313131093,,134543,,1614898373,938807783,"""0""",12.0,2.125,12.1999998093,0.0
1614970401360507011,,134544,,1614898373,988782679,"""0""",12.0,2.125,12.1999998093,0.0
1614970401414566993,,134545,,1614898374,38754501,"""0""",12.0,2.0,12.25,0.0
1614970401475627899,,134546,,1614898374,88785126,"""0""",12.0,2.0,12.25,0.0
1614970401522886991,,134547,,1614898374,138770022,"""0""",12.0,2.125,12.25,0.0
1614970401611699104,,134548,,1614898374,188770543,"""0""",12.0,2.125,12.25,0.0
1614970401611932039,,134549,,1614898374,238813668,"""0""",12.0,2.125,12.25,0.0
1614970401681113004,,134550,,1614898374,288854658,"""0""",12.0,2.125,12.25,0.0
1614970401726028919,,134551,,1614898374,338769241,"""0""",12.0,2.125,12.25,0.0
1614970401765239000,,134552,,1614898374,388802366,"""0""",12.0,2.125,12.1999998093,0.0
1614970401818159103,,134553,,1614898374,438781376,"""0""",12.0,2.25,12.1999998093,0.0
1614970401876017093,,134554,,1614898374,488784605,"""0""",12.0,2.25,12.1999998093,0.0
1614970401920397996,,134555,,1614898374,538786272,"""0""",12.0,2.25,12.1499996185,0.0
1614970401993254899,,134556,,1614898374,588756064,"""0""",12.0,2.125,12.1499996185,0.0
1614970402070209026,,134557,,1614898374,638774762,"""0""",12.0,2.125,12.1499996185,0.0
1614970402070327997,,134558,,1614898374,688797418,"""0""",12.0,2.125,12.1999998093,0.0
1614970402118093013,,134559,,1614898374,738829241,"""0""",12.0,2.25,12.1999998093,0.0
1614970402197851896,,134560,,1614898374,788786220,"""0""",12.0,2.25,12.1999998093,0.0
1614970402256210088,,134561,,1614898374,838771741,"""0""",12.0,2.25,12.1499996185,0.0
1614970402256319999,,134562,,1614898374,888774553,"""0""",12.0,2.25,12.1499996185,0.0
1614970402318655967,,134563,,1614898374,938773980,"""0""",12.0,2.25,12.1499996185,0.0
1614970402381290912,,134564,,1614898374,988759345,"""0""",12.0,2.25,12.1999998093,0.0
1614970402434498071,,134565,,1614898375,40257001,"""0""",12.0,2.25,12.1999998093,0.0
1614970402498393058,,134566,,1614898375,88895491,"""0""",12.0,2.25,12.1999998093,0.0
1614970402498493909,,134567,,1614898375,138790595,"""0""",12.0,2.5,12.1999998093,0.0
1614970402547039985,,134568,,1614898375,189522886,"""0""",12.0,2.75,12.1000003815,0.0
1614970402588480949,,134569,,1614898375,238787938,"""0""",12.0,2.875,12.1000003815,0.0
1614970402647716045,,134570,,1614898375,288794449,"""0""",12.0,2.75,12.1000003815,0.0
1614970402703874111,,134571,,1614898375,338836428,"""0""",12.0,2.625,12.1499996185,0.0
1614970402772847890,,134572,,1614898375,388885543,"""0""",12.0,2.5,12.1499996185,0.0
1614970402850713968,,134573,,1614898375,438802157,"""0""",12.0,2.5,12.1499996185,0.0
1614970402905005931,,134574,,1614898375,488896063,"""0""",12.0,2.5,12.1499996185,0.0
1614970402905200958,,134575,,1614898375,538762886,"""0""",12.0,2.25,12.1499996185,0.0
1614970402979904890,,134576,,1614898375,588853303,"""0""",12.0,2.25,12.1499996185,0.0
1614970403033804893,,134577,,1614898375,638789188,"""0""",12.0,2.25,12.1499996185,0.0
1614970403085988998,,134578,,1614898375,688827678,"""0""",12.0,2.25,12.1499996185,0.0
1614970403139781951,,134579,,1614898375,738776792,"""0""",12.0,2.25,12.1499996185,0.0
1614970403177706956,,134580,,1614898375,788777417,"""0""",12.0,2.25,12.1999998093,0.0
1614970403235224962,,134581,,1614898375,838798459,"""0""",12.0,2.125,12.1999998093,0.0
1614970403277924060,,134582,,1614898375,888767261,"""0""",12.0,2.25,12.1999998093,0.0
1614970403316210985,,134583,,1614898375,938803251,"""0""",12.0,2.25,12.1999998093,0.0
1614970403405890941,,134584,,1614898375,988771011,"""0""",11.0,2.375,12.1999998093,0.0
1614970403406058073,,134585,,1614898376,38733563,"""0""",11.0,2.375,12.1999998093,0.0
1614970403466264963,,134586,,1614898376,88749396,"""0""",11.0,2.25,12.1999998093,0.0
1614970403511320114,,134587,,1614898376,138900021,"""0""",12.0,2.125,12.25,0.0
1614970403571439981,,134588,,1614898376,188769396,"""0""",12.0,2.125,12.25,0.0
1614970403615896940,,134589,,1614898376,238782417,"""0""",12.0,2.125,12.25,0.0
1614970403709880113,,134590,,1614898376,288799657,"""0""",12.0,2.125,12.1499996185,0.0
1614970403773155927,,134591,,1614898376,338785698,"""0""",12.0,2.25,12.1499996185,0.0
1614970403773322105,,134592,,1614898376,388845855,"""0""",12.0,2.25,12.1499996185,0.0
1614970403819164037,,134593,,1614898376,438786896,"""0""",11.0,2.25,12.1999998093,0.0
1614970403862875938,,134594,,1614898376,488771948,"""0""",11.0,2.25,12.1999998093,0.0
1614970403915838003,,134595,,1614898376,538785073,"""0""",11.0,2.125,12.1999998093,0.0
1614970403987454891,,134596,,1614898376,588817469,"""0""",12.0,2.25,12.1999998093,0.0
1614970404031783103,,134597,,1614898376,638780750,"""0""",12.0,2.375,12.1999998093,0.0
1614970404077527999,,134598,,1614898376,688772000,"""0""",12.0,2.5,12.1999998093,0.0
1614970404166002988,,134599,,1614898376,738779917,"""0""",12.0,2.375,12.1999998093,0.0
1614970404166158914,,134600,,1614898376,788814188,"""0""",12.0,2.25,12.1999998093,0.0
1614970404203654050,,134601,,1614898376,838950125,"""0""",12.0,2.25,12.1999998093,0.0
1614970404249773025,,134602,,1614898376,888775125,"""0""",12.0,2.125,12.1999998093,0.0
1614970404317222118,,134603,,1614898376,938820490,"""0""",12.0,2.125,12.25,0.0
1614970404369280099,,134604,,1614898376,988843511,"""0""",12.0,2.25,12.25,0.0
1614970404413296937,,134605,,1614898377,38792782,"""0""",12.0,2.25,12.25,0.0
1614970404445027112,,134606,,1614898377,88784761,"""0""",12.0,2.25,12.25,0.0
1614970404495309114,,134607,,1614898377,138855907,"""0""",12.0,2.25,12.25,0.0
1614970404574981927,,134608,,1614898377,188797677,"""0""",12.0,2.125,12.25,0.0
1614970404628937959,,134609,,1614898377,238839552,"""0""",12.0,2.125,12.1999998093,0.0
1614970404677654981,,134610,,1614898377,288784813,"""0""",12.0,2.125,12.1999998093,0.0
1614970404816178083,,134611,,1614898377,338778146,"""0""",12.0,2.125,12.1999998093,0.0
1614970404816281080,,134612,,1614898377,388883459,"""0""",12.0,2.25,12.1499996185,0.0
1614970404816303014,,134613,,1614898377,438805958,"""0""",12.0,2.125,12.1499996185,0.0
1614970404900441884,,134614,,1614898377,488821011,"""0""",12.0,2.125,12.1499996185,0.0
1614970404989815950,,134615,,1614898377,538965906,"""0""",12.0,2.125,12.1499996185,0.0
1614970404990061998,,134616,,1614898377,588795438,"""0""",12.0,2.125,12.1999998093,0.0
1614970405022326946,,134617,,1614898377,638799396,"""0""",12.0,2.125,12.1999998093,0.0
1614970405064999103,,134618,,1614898377,688827625,"""0""",12.0,2.125,12.1999998093,0.0
1614970405117851972,,134619,,1614898377,738860125,"""0""",12.0,2.125,12.1999998093,0.0
1614970405191095113,,134620,,1614898377,788785281,"""0""",12.0,2.0,12.1999998093,0.0
1614970405237040996,,134621,,1614898377,838784344,"""0""",12.0,2.0,12.1999998093,0.0
1614970405284559011,,134622,,1614898377,888812573,"""0""",12.0,2.125,12.1999998093,0.0
1614970405325669050,,134623,,1614898377,938765958,"""0""",12.0,2.125,12.1999998093,0.0
1614970405365530967,,134624,,1614898377,988810594,"""0""",12.0,2.125,12.1999998093,0.0
1614970405427876949,,134625,,1614898378,39251635,"""0""",12.0,2.125,12.1999998093,0.0
1614970405560070991,,134626,,1614898378,88829344,"""0""",12.0,2.0,12.1999998093,0.0
1614970405560225009,,134627,,1614898378,138864917,"""0""",12.0,2.0,12.1999998093,0.0
1614970405560247898,,134628,,1614898378,188823250,"""0""",12.0,2.125,12.25,0.0
1614970405598864078,,134629,,1614898378,238841375,"""0""",12.0,2.125,12.25,0.0
1614970405644640922,,134630,,1614898378,288788562,"""0""",12.0,2.25,12.25,0.0
1614970405715614080,,134631,,1614898378,338827104,"""0""",12.0,2.25,12.25,0.0
1614970405807145118,,134632,,1614898378,388810125,"""0""",12.0,2.375,12.1499996185,0.0
1614970405807354927,,134633,,1614898378,439007833,"""0""",12.0,2.5,12.1499996185,0.0
1614970405866092920,,134634,,1614898378,488784656,"""0""",12.0,2.5,12.1499996185,0.0
1614970405943981885,,134635,,1614898378,538939864,"""0""",12.0,2.375,12.1999998093,0.0
1614970405987217903,,134636,,1614898378,588865177,"""0""",12.0,2.375,12.1999998093,0.0
1614970406024698972,,134637,,1614898378,638822885,"""0""",12.0,2.375,12.1999998093,0.0
1614970406093784093,,134638,,1614898378,688780958,"""0""",12.0,2.25,12.1999998093,0.0
1614970406093899965,,134639,,1614898378,738817625,"""0""",12.0,2.25,12.1999998093,0.0
1614970406143042087,,134640,,1614898378,788784343,"""0""",12.0,2.125,12.1999998093,0.0
1614970406207056045,,134641,,1614898378,838878406,"""0""",12.0,2.125,12.1999998093,0.0
1614970406256217956,,134642,,1614898378,888765020,"""0""",12.0,2.125,12.1999998093,0.0
1614970406310209989,,134643,,1614898378,938776687,"""0""",12.0,2.125,12.1999998093,0.0
1614970406398624897,,134644,,1614898378,988775437,"""0""",12.0,2.125,12.25,0.0
1614970406398736000,,134645,,1614898379,38821583,"""0""",12.0,2.125,12.25,0.0
1614970406458914041,,134646,,1614898379,88763145,"""0""",12.0,2.125,12.25,0.0
1614970406521017074,,134647,,1614898379,138878406,"""0""",12.0,2.125,12.25,0.0
1614970406586219072,,134648,,1614898379,188755697,"""0""",12.0,2.125,12.1999998093,0.0
1614970406621073961,,134649,,1614898379,238774447,"""0""",12.0,2.125,12.1999998093,0.0
1614970406708798885,,134650,,1614898379,288822729,"""0""",12.0,2.125,12.1999998093,0.0
1614970406708906888,,134651,,1614898379,338866739,"""0""",12.0,2.125,12.25,0.0
1614970406753355026,,134652,,1614898379,388780489,"""0""",12.0,2.125,12.25,0.0
1614970406820565938,,134653,,1614898379,439015229,"""0""",12.0,2.125,12.25,0.0
1614970406863425016,,134654,,1614898379,488797260,"""0""",12.0,2.0,12.25,0.0
1614970406912414073,,134655,,1614898379,538825385,"""0""",12.0,1.375,12.25,0.0
1614970407015815019,,134656,,1614898379,588783614,"""0""",12.0,1.0,12.25,0.0
1614970407016005992,,134657,,1614898379,638826739,"""0""",12.0,1.0,12.25,0.0
1614970407103162050,,134658,,1614898379,688830958,"""0""",12.0,1.0,12.25,0.0
1614970407103266000,,134659,,1614898379,738976062,"""0""",12.0,1.0,12.25,0.0
1614970407150109052,,134660,,1614898379,788777728,"""0""",12.0,1.0,12.25,0.0
1614970407192715883,,134661,,1614898379,838766791,"""0""",12.0,1.0,12.25,0.0
1614970407250428915,,134662,,1614898379,888858614,"""0""",12.0,1.0,12.25,0.0
1614970407298016071,,134663,,1614898379,938776583,"""0""",12.0,1.0,12.25,0.0
1614970407353477001,,134664,,1614898379,988775072,"""0""",12.0,1.0,12.25,0.0
1614970407398819923,,134665,,1614898380,38782155,"""0""",12.0,1.375,12.25,0.0
1614970407464350938,,134666,,1614898380,88790332,"""0""",12.0,1.875,12.25,0.0
1614970407516156911,,134667,,1614898380,139526322,"""0""",12.0,1.75,12.1999998093,0.0
1614970407586211919,,134668,,1614898380,188831530,"""0""",12.0,1.375,12.1999998093,0.0
1614970407631726026,,134669,,1614898380,238923197,"""0""",12.0,1.0,12.1999998093,0.0
1614970407677557945,,134670,,1614898380,288788822,"""0""",12.0,1.375,12.25,0.0
1614970407725549936,,134671,,1614898380,338819187,"""0""",12.0,1.375,12.25,0.0
1614970407764347076,,134672,,1614898380,388806062,"""0""",12.0,0.625,12.25,0.0
1614970407815968990,,134673,,1614898380,438795384,"""0""",12.0,0.375,12.3000001907,0.0
1614970407913744926,,134674,,1614898380,488785176,"""0""",12.0,0.375,12.3000001907,0.0
1614970407913868904,,134675,,1614898380,538845280,"""0""",12.0,0.375,12.3000001907,0.0
1614970408005327939,,134676,,1614898380,588794447,"""0""",12.0,0.375,12.3000001907,0.0
1614970408057224035,,134677,,1614898380,638835332,"""0""",12.0,0.625,12.3000001907,0.0
1614970408115520000,,134678,,1614898380,688828405,"""0""",12.0,1.0,12.3000001907,0.0
1614970408115709066,,134679,,1614898380,738908509,"""0""",12.0,0.625,12.3000001907,0.0
1614970408186073064,,134680,,1614898380,788801738,"""0""",12.0,0.375,12.3000001907,0.0
1614970408231220960,,134681,,1614898380,838804030,"""0""",12.0,0.375,12.3000001907,0.0
1614970408321592092,,134682,,1614898380,888782832,"""0""",12.0,0.0,12.3000001907,0.0
1614970408321819067,,134683,,1614898380,938751999,"""0""",12.0,0.0,12.3500003815,0.0
1614970408373114109,,134684,,1614898380,988789395,"""0""",12.0,0.0,12.3500003815,0.0
1614970408415858030,,134685,,1614898381,38803822,"""0""",12.0,0.0,12.3500003815,0.0
1614970408498447895,,134686,,1614898381,88866843,"""0""",12.0,0.0,12.3500003815,0.0
1614970408498554944,,134687,,1614898381,138778353,"""0""",12.0,0.0,12.3500003815,0.0
1614970408544465065,,134688,,1614898381,189131738,"""0""",12.0,0.0,12.3500003815,0.0
1614970408591757059,,134689,,1614898381,238755436,"""0""",12.0,0.0,12.3500003815,0.0
1614970408645009994,,134690,,1614898381,288864863,"""0""",12.0,0.0,12.3500003815,0.0
1614970408690113067,,134691,,1614898381,338908301,"""0""",12.0,0.0,12.3500003815,0.0
1614970408748752117,,134692,,1614898381,388772415,"""0""",12.0,0.0,12.3500003815,0.0
1614970408850183963,,134693,,1614898381,438860072,"""0""",12.0,0.0,12.3500003815,0.0
1614970408850310087,,134694,,1614898381,488795072,"""0""",12.0,0.0,12.3500003815,0.0
1614970408916538953,,134695,,1614898381,538773561,"""0""",12.0,0.0,12.3500003815,0.0
1614970409022285938,,134696,,1614898381,588805436,"""0""",12.0,0.0,12.3500003815,0.0
1614970409022392034,,134697,,1614898381,638771582,"""0""",12.0,0.0,12.3500003815,0.0
1614970409071162939,,134698,,1614898381,688929863,"""0""",12.0,0.0,12.3500003815,0.0
1614970409151734113,,134699,,1614898381,738778561,"""0""",12.0,0.0,12.3500003815,0.0
1614970409151839017,,134700,,1614898381,788851217,"""0""",12.0,0.0,12.3500003815,0.0
1614970409219929933,,134701,,1614898381,838805436,"""0""",12.0,0.0,12.3500003815,0.0
1614970409275003910,,134702,,1614898381,888894967,"""0""",12.0,0.0,12.3500003815,0.0
1614970409356046915,,134703,,1614898381,938855123,"""0""",12.0,0.0,12.3500003815,0.0
1614970409356575012,,134704,,1614898381,988813300,"""0""",12.0,0.0,12.3500003815,0.0
1614970409407843112,,134705,,1614898382,38778509,"""0""",12.0,0.0,12.3500003815,0.0
1614970409458415985,,134706,,1614898382,88787155,"""0""",12.0,0.375,12.3500003815,0.0
1614970409510730028,,134707,,1614898382,138794915,"""0""",12.0,0.0,12.3500003815,0.0
1614970409557185888,,134708,,1614898382,188792415,"""0""",12.0,0.0,12.3500003815,0.0
1614970409594007015,,134709,,1614898382,238830800,"""0""",12.0,0.0,12.3500003815,0.0
1614970409639663934,,134710,,1614898382,288762884,"""0""",12.0,0.0,12.3500003815,0.0
1614970409705792903,,134711,,1614898382,338802780,"""0""",12.0,0.375,12.3500003815,0.0
1614970409743022918,,134712,,1614898382,388812780,"""0""",12.0,0.375,12.3500003815,0.0
1614970409897849082,,134713,,1614898382,438790436,"""0""",12.0,0.375,12.3500003815,0.0
1614970409898030996,,134714,,1614898382,488836321,"""0""",12.0,0.375,12.3500003815,0.0
1614970409943506956,,134715,,1614898382,540074446,"""0""",12.0,1.0,12.25,0.0
1614970410006927013,,134716,,1614898382,589216425,"""0""",12.0,0.625,12.25,0.0
1614970410007034063,,134717,,1614898382,638770331,"""0""",12.0,0.375,12.25,0.0
1614970410059428930,,134718,,1614898382,688785279,"""0""",12.0,0.375,12.3500003815,0.0
1614970410110132932,,134719,,1614898382,738897050,"""0""",12.0,0.375,12.3500003815,0.0
1614970410168683052,,134720,,1614898382,788782779,"""0""",12.0,0.375,12.3500003815,0.0
1614970410208184003,,134721,,1614898382,838780956,"""0""",12.0,0.0,12.3500003815,0.0
1614970410290242910,,134722,,1614898382,888972258,"""0""",12.0,0.0,12.3500003815,0.0
1614970410290479898,,134723,,1614898382,938784133,"""0""",12.0,0.0,12.3500003815,0.0
1614970410334508895,,134724,,1614898382,988780800,"""0""",12.0,0.0,12.3500003815,0.0
1614970410387558937,,134725,,1614898383,38980019,"""0""",12.0,0.0,12.3500003815,0.0
1614970410448801994,,134726,,1614898383,88841529,"""0""",12.0,0.0,12.3500003815,0.0
1614970410524139881,,134727,,1614898383,139057623,"""0""",12.0,0.0,12.3500003815,0.0
1614970410614588022,,134728,,1614898383,188786321,"""0""",12.0,0.0,12.3500003815,0.0
1614970410614712953,,134729,,1614898383,238869550,"""0""",12.0,0.625,12.3500003815,0.0
1614970410666085004,,134730,,1614898383,288899394,"""0""",12.0,1.0,12.3500003815,0.0
1614970410698745965,,134731,,1614898383,338849810,"""0""",12.0,1.0,12.25,0.0
1614970410742640018,,134732,,1614898383,388861529,"""0""",12.0,1.375,12.25,0.0
1614970410812583923,,134733,,1614898383,438791165,"""0""",12.0,2.0,12.25,0.0
1614970410903821945,,134734,,1614898383,488819810,"""0""",12.0,2.125,12.1999998093,0.0
1614970410904027938,,134735,,1614898383,539152831,"""0""",12.0,2.0,12.1999998093,0.0
1614970410997744083,,134736,,1614898383,588833508,"""0""",12.0,2.0,12.1999998093,0.0
1614970410997862100,,134737,,1614898383,638746633,"""0""",12.0,2.0,12.1999998093,0.0
1614970411040620088,,134738,,1614898383,688815696,"""0""",12.0,2.0,12.1999998093,0.0
1614970411083141088,,134739,,1614898383,738809185,"""0""",12.0,2.0,12.1999998093,0.0
1614970411137265920,,134740,,1614898383,788760123,"""0""",12.0,1.75,12.25,0.0
1614970411199496984,,134741,,1614898383,838855019,"""0""",12.0,1.375,12.25,0.0
1614970411232731103,,134742,,1614898383,888879862,"""0""",12.0,1.375,12.25,0.0
1614970411306020975,,134743,,1614898383,938790123,"""0""",12.0,1.75,12.25,0.0
1614970411358159065,,134744,,1614898383,988821164,"""0""",12.0,1.875,12.25,0.0
1614970411441585063,,134745,,1614898384,38765435,"""0""",12.0,1.75,12.25,0.0
1614970411541176080,,134746,,1614898384,88774550,"""0""",12.0,1.875,12.25,0.0
1614970411541542053,,134747,,1614898384,138815643,"""0""",12.0,1.875,12.25,0.0
1614970411543266057,,134748,,1614898384,188863925,"""0""",12.0,1.875,12.25,0.0
1614970411610579967,,134749,,1614898384,238785487,"""0""",12.0,2.0,12.25,0.0
1614970411642357110,,134750,,1614898384,288820175,"""0""",12.0,1.875,12.25,0.0
1614970411694185018,,134751,,1614898384,338897102,"""0""",12.0,1.875,12.25,0.0
1614970411735328912,,134752,,1614898384,388859029,"""0""",12.0,1.875,12.25,0.0
1614970411797735929,,134753,,1614898384,438818039,"""0""",12.0,1.75,12.25,0.0
1614970411840209960,,134754,,1614898384,488886581,"""0""",12.0,1.875,12.25,0.0
1614970411896884918,,134755,,1614898384,538776581,"""0""",12.0,1.875,12.25,0.0
1614970411963912963,,134756,,1614898384,588794862,"""0""",12.0,1.75,12.25,0.0
1614970411995839118,,134757,,1614898384,638901477,"""0""",12.0,1.75,12.25,0.0
1614970412042948007,,134758,,1614898384,688960695,"""0""",12.0,1.75,12.25,0.0
1614970412087714910,,134759,,1614898384,738863299,"""0""",12.0,1.75,12.25,0.0
1614970412137265920,,134760,,1614898384,789287362,"""0""",12.0,2.0,12.25,0.0
1614970412274149894,,134761,,1614898384,838770799,"""0""",12.0,2.0,12.25,0.0
1614970412274506092,,134762,,1614898384,888828247,"""0""",12.0,2.0,12.25,0.0
1614970412301649093,,134763,,1614898384,938768820,"""0""",12.0,2.0,12.25,0.0
1614970412351501941,,134764,,1614898384,988849966,"""0""",12.0,2.0,12.25,0.0
1614970412403987884,,134765,,1614898385,38801424,"""0""",12.0,2.0,12.25,0.0
1614970412458259105,,134766,,1614898385,88858091,"""0""",12.0,2.125,12.1999998093,0.0
1614970412489183902,,134767,,1614898385,138760643,"""0""",12.0,2.0,12.1999998093,0.0
1614970412564922094,,134768,,1614898385,188795539,"""0""",12.0,2.0,12.1999998093,0.0
1614970412607758045,,134769,,1614898385,238841528,"""0""",12.0,2.0,12.25,0.0
1614970412707202911,,134770,,1614898385,290058091,"""0""",12.0,2.0,12.25,0.0
1614970412707324028,,134771,,1614898385,338774758,"""0""",12.0,2.0,12.25,0.0
1614970412743871927,,134772,,1614898385,388896216,"""0""",12.0,2.0,12.1999998093,0.0
1614970412794668912,,134773,,1614898385,438790226,"""0""",12.0,2.0,12.1999998093,0.0
1614970412867882966,,134774,,1614898385,488831893,"""0""",12.0,2.0,12.1999998093,0.0
1614970412948009014,,134775,,1614898385,538840643,"""0""",12.0,2.0,12.1999998093,0.0
1614970412983510971,,134776,,1614898385,588820851,"""0""",12.0,2.0,12.25,0.0
1614970413029058933,,134777,,1614898385,638758143,"""0""",12.0,2.0,12.25,0.0
1614970413075958013,,134778,,1614898385,689266737,"""0""",12.0,2.0,12.25,0.0
1614970413108097076,,134779,,1614898385,738786424,"""0""",12.0,1.875,12.25,0.0
1614970413141315937,,134780,,1614898385,788976945,"""0""",12.0,1.875,12.25,0.0
1614970413193903923,,134781,,1614898385,838811632,"""0""",12.0,1.875,12.25,0.0
1614970413236350059,,134782,,1614898385,888844080,"""0""",12.0,1.875,12.25,0.0
1614970413291862964,,134783,,1614898385,938936580,"""0""",12.0,2.0,12.25,0.0
1614970413341980934,,134784,,1614898385,988819184,"""0""",12.0,1.875,12.25,0.0
1614970413391993045,,134785,,1614898386,38759757,"""0""",12.0,1.875,12.25,0.0
1614970413441466093,,134786,,1614898386,89470382,"""0""",12.0,1.875,12.25,0.0
1614970413492937088,,134787,,1614898386,138766372,"""0""",12.0,1.875,12.25,0.0
1614970413536760091,,134788,,1614898386,188781684,"""0""",12.0,2.0,12.25,0.0
1614970413599240064,,134789,,1614898386,238780382,"""0""",12.0,2.0,12.25,0.0
1614970413653016090,,134790,,1614898386,289275851,"""0""",12.0,1.875,12.25,0.0
1614970413709577083,,134791,,1614898386,338781007,"""0""",12.0,2.0,12.25,0.0
1614970413752065896,,134792,,1614898386,388822674,"""0""",12.0,2.0,12.25,0.0
1614970413796148061,,134793,,1614898386,438794028,"""0""",12.0,2.0,12.25,0.0
1614970413840897083,,134794,,1614898386,488847726,"""0""",12.0,1.875,12.25,0.0
1614970413899835109,,134795,,1614898386,538887465,"""0""",12.0,1.75,12.1999998093,0.0
1614970413985785007,,134796,,1614898386,588851320,"""0""",12.0,1.75,12.1999998093,0.0
1614970414031266927,,134797,,1614898386,638763507,"""0""",12.0,1.75,12.1999998093,0.0
1614970414072237968,,134798,,1614898386,688866840,"""0""",12.0,1.75,12.25,0.0
1614970414110585927,,134799,,1614898386,738747465,"""0""",12.0,1.75,12.25,0.0
1614970414194855928,,134800,,1614898386,789042778,"""0""",12.0,1.375,12.25,0.0
1614970414252561092,,134801,,1614898386,838799444,"""0""",12.0,1.0,12.25,0.0
1614970414252672910,,134802,,1614898386,888778663,"""0""",12.0,1.0,12.25,0.0
1614970414299653053,,134803,,1614898386,938791163,"""0""",12.0,1.0,12.25,0.0
1614970414342895030,,134804,,1614898386,988790694,"""0""",12.0,1.0,12.25,0.0
1614970414404872894,,134805,,1614898387,38765330,"""0""",12.0,1.0,12.25,0.0
1614970414438204050,,134806,,1614898387,88778038,"""0""",12.0,1.0,12.25,0.0
1614970414589006900,,134807,,1614898387,138771996,"""0""",12.0,1.0,12.25,0.0
1614970414589241981,,134808,,1614898387,188770017,"""0""",12.0,1.375,12.25,0.0
1614970414644212007,,134809,,1614898387,238957361,"""0""",12.0,1.375,12.25,0.0
1614970414644429922,,134810,,1614898387,288809601,"""0""",12.0,1.375,12.25,0.0
1614970414693844079,,134811,,1614898387,338784184,"""0""",12.0,1.0,12.25,0.0
1614970414741779088,,134812,,1614898387,388776840,"""0""",12.0,1.0,12.25,0.0
1614970414790853977,,134813,,1614898387,438814080,"""0""",12.0,1.0,12.25,0.0
1614970414835525035,,134814,,1614898387,489156111,"""0""",12.0,1.0,12.25,0.0
1614970414906753063,,134815,,1614898387,538790746,"""0""",12.0,1.0,12.25,0.0
1614970414959955930,,134816,,1614898387,588874913,"""0""",12.0,1.0,12.25,0.0
1614970415016357898,,134817,,1614898387,638790850,"""0""",12.0,1.0,12.25,0.0
1614970415106506109,,134818,,1614898387,688848975,"""0""",12.0,1.0,12.25,0.0
1614970415106638908,,134819,,1614898387,738764861,"""0""",12.0,1.0,12.25,0.0
1614970415137597084,,134820,,1614898387,788814184,"""0""",12.0,1.0,12.25,0.0
1614970415188414096,,134821,,1614898387,838825694,"""0""",12.0,1.0,12.25,0.0
1614970415252393007,,134822,,1614898387,889220590,"""0""",12.0,1.0,12.25,0.0
1614970415295852899,,134823,,1614898387,939282152,"""0""",12.0,1.0,12.25,0.0
1614970415351128101,,134824,,1614898387,988860069,"""0""",12.0,1.0,12.25,0.0
1614970415404890060,,134825,,1614898388,38858038,"""0""",12.0,1.0,12.25,0.0
1614970415446522951,,134826,,1614898388,88815694,"""0""",12.0,1.0,12.25,0.0
1614970415502847909,,134827,,1614898388,138856267,"""0""",12.0,1.0,12.25,0.0
1614970415563982963,,134828,,1614898388,188857204,"""0""",12.0,1.0,12.25,0.0
1614970415637116909,,134829,,1614898388,238774079,"""0""",12.0,1.0,12.25,0.0
1614970415693738937,,134830,,1614898388,288869184,"""0""",12.0,0.625,12.25,0.0
1614970415735440015,,134831,,1614898388,338799444,"""0""",12.0,0.625,12.25,0.0
1614970415798001050,,134832,,1614898388,388851944,"""0""",12.0,0.625,12.25,0.0
1614970415842083930,,134833,,1614898388,438753038,"""0""",12.0,0.625,12.25,0.0
1614970415887824058,,134834,,1614898388,488863038,"""0""",12.0,0.625,12.25,0.0
1614970415939862012,,134835,,1614898388,538786475,"""0""",12.0,1.0,12.25,0.0
1614970415993143081,,134836,,1614898388,588838454,"""0""",12.0,0.625,12.25,0.0
1614970416074076890,,134837,,1614898388,638783246,"""0""",12.0,0.625,12.25,0.0
1614970416074223041,,134838,,1614898388,688881996,"""0""",12.0,1.0,12.25,0.0
1614970416136097908,,134839,,1614898388,738786267,"""0""",12.0,1.0,12.25,0.0
